{"key":"12/2074/1525","points":[{"id":"osm:node:10881040300","latitude":41.6437154,"longitude":2.3547027,"name":"Carrer del Pintor Fortuny near Passeig de la Font del Oms","properties":{"access":"yes","bicycle_pa":"stands","capacity":6,"covered":"no","fee":"","operator":"","nameSource":"junction"},"sourceId":"osm"},{"id":"osm:node:10881040302","latitude":41.6421244,"longitude":2.3529865,"name":"Avinguda de l'Onze de Setembre by La Guingueta del Pompeu Fabra","properties":{"access":"yes","bicycle_pa":"stands","capacity":12,"covered":"no","fee":"","operator":"","nameSource":"landmark"},"sourceId":"osm"},{"id":"osm:node:10881040303","latitude":41.6400959,"longitude":2.3599437,"name":"Carrer d'Esteve Barangé near Carrer de Balmes","properties":{"access":"yes","bicycle_pa":"stands","capacity":6,"covered":"no","fee":"","operator":"","nameSource":"junction"},"sourceId":"osm"},{"id":"osm:node:10881040304","latitude":41.6411483,"longitude":2.3630814,"name":"Carrer de Barcelona near Carrer de Bellsolar","properties":{"access":"customers","bicycle_pa":"wall_loops","capacity":6,"covered":"no","fee":"","operator":"","nameSource":"junction"},"sourceId":"osm"},{"id":"osm:node:10881125705","latitude":41.6423458,"longitude":2.3640515,"name":"Avinguda d'Eduard Corbella near Carrer d'Aragó","properties":{"access":"customers","bicycle_pa":"ground_slots","capacity":0,"covered":"yes","fee":"","operator":"","nameSource":"junction"},"sourceId":"osm"},{"id":"osm:node:10881539805","latitude":41.6853647,"longitude":2.2905598,"name":"Avinguda de Pau Casals near Carrer de Cànoves","properties":{"access":"unknown","bicycle_pa":"stands","capacity":8,"covered":"no","fee":"","operator":"","nameSource":"junction"},"sourceId":"osm"},{"id":"osm:node:11323726191","latitude":41.6792168,"longitude":2.2883426,"name":"Carrer de l'Ametlla near Passeig","properties":{"access":"yes","bicycle_pa":"stands","capacity":4,"covered":"no","fee":"no","operator":"","nameSource":"junction"},"sourceId":"osm"},{"id":"osm:node:6703199565","latitude":41.6467802,"longitude":2.2924966,"name":"Via d'Europa cycle parking","properties":{"access":"yes","bicycle_pa":"wall_loops","capacity":0,"covered":"no","fee":"no","operator":"","nameSource":"street"},"sourceId":"osm"},{"id":"osm:node:6703199569","latitude":41.647774,"longitude":2.2927942,"name":"Via d'Europa cycle parking","properties":{"access":"yes","bicycle_pa":"wall_loops","capacity":0,"covered":"no","fee":"no","operator":"","nameSource":"street"},"sourceId":"osm"},{"id":"osm:node:7594677798","latitude":41.641715,"longitude":2.3612272,"name":"Bicicleda - L'Estalvi","properties":{"access":"yes","bicycle_pa":"shed","capacity":50,"covered":"yes","fee":"no","operator":"Ajuntament de Cardedeu","nameSource":"source"},"sourceId":"osm"},{"id":"osm:node:7941337465","latitude":41.6423589,"longitude":2.3609632,"name":"Avinguda d'Eduard Corbella near Carrer de Joan Maragall","properties":{"access":"yes","bicycle_pa":"stands","capacity":20,"covered":"no","fee":"","operator":"","nameSource":"junction"},"sourceId":"osm"},{"id":"osm:node:7941337466","latitude":41.6422766,"longitude":2.3609632,"name":"Avinguda d'Eduard Corbella near Carrer de Joan Maragall","properties":{"access":"yes","bicycle_pa":"stands","capacity":10,"covered":"no","fee":"","operator":"","nameSource":"junction"},"sourceId":"osm"},{"id":"osm:node:8182623806","latitude":41.648784,"longitude":2.3642771,"name":"Carrer de Gonçal Massó i Golferich near Carrer de Sant Ramon de Penyafort","properties":{"access":"private","bicycle_pa":"stands","capacity":0,"covered":"","fee":"","operator":"","nameSource":"junction"},"sourceId":"osm"},{"id":"osm:node:8182623807","latitude":41.6488005,"longitude":2.3630799,"name":"Avinguda de Jaume Morató by Institut Arquitecte Manuel Raspall","properties":{"access":"private","bicycle_pa":"stands","capacity":0,"covered":"","fee":"","operator":"","nameSource":"landmark"},"sourceId":"osm"},{"id":"osm:node:8182623808","latitude":41.6495384,"longitude":2.3630842,"name":"Avinguda de Jaume Morató near Carrer de Marià Casanovas i Fortuny","properties":{"access":"unknown","bicycle_pa":"rack","capacity":18,"covered":"no","fee":"","operator":"","nameSource":"junction"},"sourceId":"osm"},{"id":"osm:node:8182623809","latitude":41.6495002,"longitude":2.3627173,"name":"Avinguda de Jaume Morató near Carrer de Marià Casanovas i Fortuny","properties":{"access":"unknown","bicycle_pa":"stands","capacity":11,"covered":"no","fee":"","operator":"","nameSource":"junction"},"sourceId":"osm"},{"id":"osm:node:9270172480","latitude":41.6417129,"longitude":2.3610669,"name":"Carrer de la Mare de Déu del Pilar near Carrer de Granollers","properties":{"access":"unknown","bicycle_pa":"stands","capacity":10,"covered":"no","fee":"","operator":"","nameSource":"junction"},"sourceId":"osm"},{"id":"osm:node:9270178216","latitude":41.6420086,"longitude":2.3620856,"name":"Carrer de la Mare de Déu del Carme near Carrer el Fou","properties":{"access":"unknown","bicycle_pa":"stands","capacity":10,"covered":"no","fee":"","operator":"","nameSource":"junction"},"sourceId":"osm"},{"id":"osm:node:9883819128","latitude":41.6847585,"longitude":2.2856518,"name":"Plaça de Can Dachs near Carrer del Centre","properties":{"access":"unknown","bicycle_pa":"","capacity":0,"covered":"","fee":"","operator":"","nameSource":"junction"},"sourceId":"osm"},{"id":"osm:node:9886705939","latitude":41.6494882,"longitude":2.3628708,"name":"Bicicleda - Gim10","properties":{"access":"yes","bicycle_pa":"shed","capacity":11,"covered":"yes","fee":"no","operator":"Ajuntament de Cardedeu","nameSource":"source"},"sourceId":"osm"},{"id":"osm:way:1221267569","latitude":41.68390772,"longitude":2.28786984,"name":"Carrer del Castell near Plaça del Silenci","properties":{"access":"unknown","bicycle_pa":"shed","capacity":20,"covered":"yes","fee":"no","operator":"Ajuntament de La Garriga","nameSource":"junction"},"sourceId":"osm"}],"schemaVersion":2}
