{"key":"12/2074/1528","points":[{"id":"osm:node:10298169215","latitude":41.4822802,"longitude":2.3285091,"name":"Carrer Manila near Jardins dels Països Catalans","properties":{"access":"unknown","bicycle_pa":"stands","capacity":8,"covered":"no","fee":"no","operator":"","nameSource":"junction"},"sourceId":"osm"},{"id":"osm:node:10298169216","latitude":41.4820804,"longitude":2.3286128,"name":"Carrer Uruguai near Jardins dels Països Catalans","properties":{"access":"unknown","bicycle_pa":"stands","capacity":6,"covered":"no","fee":"no","operator":"","nameSource":"junction"},"sourceId":"osm"},{"id":"osm:node:10309152214","latitude":41.4819566,"longitude":2.3257058,"name":"Carrer Capità Maristany Noms near Carrer Santiago Rusiñol","properties":{"access":"unknown","bicycle_pa":"stands","capacity":5,"covered":"no","fee":"no","operator":"","nameSource":"junction"},"sourceId":"osm"},{"id":"osm:node:10313717206","latitude":41.4796591,"longitude":2.3181553,"name":"Carrer de Roger de Flor near Carrer de B. Bassegoda i Amigó","properties":{"access":"yes","bicycle_pa":"stands","capacity":8,"covered":"no","fee":"no","operator":"","nameSource":"junction"},"sourceId":"osm"},{"id":"osm:node:10543727387","latitude":41.4910953,"longitude":2.3542478,"name":"Gran Via de Lluís Companys near Carrer de la Marina","properties":{"access":"yes","bicycle_pa":"stands","capacity":2,"covered":"no","fee":"no","operator":"","nameSource":"junction"},"sourceId":"osm"},{"id":"osm:node:10543727389","latitude":41.4916119,"longitude":2.3555025,"name":"Gran Via de Lluís Companys near Carrer de la Plaça","properties":{"access":"yes","bicycle_pa":"stands","capacity":4,"covered":"no","fee":"no","operator":"","nameSource":"junction"},"sourceId":"osm"},{"id":"osm:node:10543727398","latitude":41.4925075,"longitude":2.3575989,"name":"Gran Via de Lluís Companys near Carrer del Doctor Fleming","properties":{"access":"yes","bicycle_pa":"stands","capacity":2,"covered":"no","fee":"no","operator":"","nameSource":"junction"},"sourceId":"osm"},{"id":"osm:node:10543732712","latitude":41.4933601,"longitude":2.3596227,"name":"Gran Via de Lluís Companys near Carrer d'Elisenda de Moncada","properties":{"access":"yes","bicycle_pa":"bollard","capacity":2,"covered":"no","fee":"no","operator":"","nameSource":"junction"},"sourceId":"osm"},{"id":"osm:node:10562211227","latitude":41.4852249,"longitude":2.3142913,"name":"Carrer d'Eduard Toldrà near Torrent Vallmora","properties":{"access":"yes","bicycle_pa":"stands","capacity":8,"covered":"no","fee":"no","operator":"","nameSource":"junction"},"sourceId":"osm"},{"id":"osm:node:10599683035","latitude":41.4824891,"longitude":2.3174356,"name":"Plaça Nova de les Dones del Tèxtil by Can Colomé","properties":{"access":"yes","bicycle_pa":"stands","capacity":10,"covered":"no","fee":"no","operator":"","nameSource":"landmark"},"sourceId":"osm"},{"id":"osm:node:10599683036","latitude":41.4826334,"longitude":2.317865,"name":"Plaça Nova de les Dones del Tèxtil by Ashley","properties":{"access":"yes","bicycle_pa":"stands","capacity":10,"covered":"no","fee":"no","operator":"","nameSource":"landmark"},"sourceId":"osm"},{"id":"osm:node:10651594387","latitude":41.4812932,"longitude":2.3110153,"name":"Carrer de Joan Llampallas near Carrer de Pompeu Fabra","properties":{"access":"yes","bicycle_pa":"stands","capacity":8,"covered":"no","fee":"no","operator":"","nameSource":"junction"},"sourceId":"osm"},{"id":"osm:node:10661065727","latitude":41.4823421,"longitude":2.3186994,"name":"Plaça Nova de les Dones del Tèxtil by Bonpreu","properties":{"access":"yes","bicycle_pa":"stands","capacity":14,"covered":"no","fee":"no","operator":"","nameSource":"landmark"},"sourceId":"osm"},{"id":"osm:node:10690824449","latitude":41.4825101,"longitude":2.3307997,"name":"Avinguda Maresme near Torrent d'en Gaio","properties":{"access":"unknown","bicycle_pa":"stands","capacity":10,"covered":"no","fee":"no","operator":"","nameSource":"junction"},"sourceId":"osm"},{"id":"osm:node:10690824450","latitude":41.482923,"longitude":2.3159408,"name":"Torrent Vallmora near Carrer de J. Pujades i Truc","properties":{"access":"yes","bicycle_pa":"stands","capacity":10,"covered":"no","fee":"no","operator":"","nameSource":"junction"},"sourceId":"osm"},{"id":"osm:node:10695731499","latitude":41.4814072,"longitude":2.3288543,"name":"Carrer de Brasil near Carrer Àngel Guimerà","properties":{"access":"yes","bicycle_pa":"stands","capacity":8,"covered":"no","fee":"no","operator":"","nameSource":"junction"},"sourceId":"osm"},{"id":"osm:node:10697374794","latitude":41.4796619,"longitude":2.3041426,"name":"Carrer Rosa Sensat near Passeig del Bellresguard","properties":{"access":"yes","bicycle_pa":"stands","capacity":8,"covered":"no","fee":"no","operator":"","nameSource":"junction"},"sourceId":"osm"},{"id":"osm:node:10721059345","latitude":41.4799927,"longitude":2.3246096,"name":"N-2 cycle parking","properties":{"access":"yes","bicycle_pa":"stands","capacity":8,"covered":"no","fee":"no","operator":"","nameSource":"street"},"sourceId":"osm"},{"id":"osm:node:10724189775","latitude":41.484722,"longitude":2.3177713,"name":"Carrer Ciutat Sant Sebastià near Carrer Roger de Llúria","properties":{"access":"yes","bicycle_pa":"stands","capacity":12,"covered":"yes","fee":"no","operator":"","nameSource":"junction"},"sourceId":"osm"},{"id":"osm:node:13431429978","latitude":41.4686839,"longitude":2.2864246,"name":"Camí Ral near Carrer del Mar","properties":{"access":"unknown","bicycle_pa":"stands","capacity":15,"covered":"no","fee":"","operator":"","nameSource":"junction"},"sourceId":"osm"},{"id":"osm:node:13431436945","latitude":41.4686784,"longitude":2.2863396,"name":"Carrer del Mar near Camí Ral","properties":{"access":"yes","bicycle_pa":"lockers","capacity":15,"covered":"","fee":"yes","operator":"","nameSource":"junction"},"sourceId":"osm"},{"id":"osm:node:5600186353","latitude":41.4909229,"longitude":2.3537735,"name":"Gran Via de Lluís Companys near Riera de Premià","properties":{"access":"unknown","bicycle_pa":"stands","capacity":4,"covered":"","fee":"","operator":"","nameSource":"junction"},"sourceId":"osm"},{"id":"osm:node:5600219298","latitude":41.4875716,"longitude":2.3545447,"name":"Camí Ral near BV-5024","properties":{"access":"yes","bicycle_pa":"stands","capacity":20,"covered":"no","fee":"no","operator":"","nameSource":"junction"},"sourceId":"osm"}],"schemaVersion":2}
