{"key":"12/2008/1267","points":[{"id":"osm:node:12197168926","latitude":56.4027978,"longitude":-3.4337972,"name":"North Inch cycle parking","properties":{"access":"unknown","bicycle_pa":"stands","capacity":0,"covered":"no","fee":"","operator":"","nameSource":"landmark"},"sourceId":"osm"},{"id":"osm:node:12248456468","latitude":56.3966513,"longitude":-3.4302736,"name":"High Street near King Edward Street","properties":{"access":"unknown","bicycle_pa":"stands","capacity":4,"covered":"no","fee":"","operator":"","nameSource":"junction"},"sourceId":"osm"},{"id":"osm:node:12278923939","latitude":56.3970236,"longitude":-3.4378693,"name":"High Street near Lickley Street","properties":{"access":"unknown","bicycle_pa":"stands","capacity":10,"covered":"no","fee":"","operator":"","nameSource":"junction"},"sourceId":"osm"},{"id":"osm:node:12293394376","latitude":56.3985598,"longitude":-3.4399557,"name":"St Catherine's Road near Monart Road","properties":{"access":"unknown","bicycle_pa":"stands","capacity":10,"covered":"yes","fee":"","operator":"","nameSource":"junction"},"sourceId":"osm"},{"id":"osm:node:12331484271","latitude":56.3990029,"longitude":-3.4286785,"name":"Charlotte Street near Charlotte Place","properties":{"access":"unknown","bicycle_pa":"stands","capacity":8,"covered":"no","fee":"","operator":"","nameSource":"junction"},"sourceId":"osm"},{"id":"osm:node:12823379717","latitude":56.4078842,"longitude":-3.4482425,"name":"Dunkeld Road near Rae Place","properties":{"access":"unknown","bicycle_pa":"stands","capacity":4,"covered":"no","fee":"","operator":"","nameSource":"junction"},"sourceId":"osm"},{"id":"osm:node:12913974634","latitude":56.3988211,"longitude":-3.4363121,"name":"Black Watch Gardens near Drumhar Court","properties":{"access":"unknown","bicycle_pa":"stands","capacity":10,"covered":"yes","fee":"","operator":"","nameSource":"junction"},"sourceId":"osm"},{"id":"osm:node:12915340886","latitude":56.3866845,"longitude":-3.479613,"name":"Broxden Avenue cycle parking","properties":{"access":"unknown","bicycle_pa":"","capacity":10,"covered":"yes","fee":"no","operator":"","nameSource":"street"},"sourceId":"osm"},{"id":"osm:node:12951929450","latitude":56.396054,"longitude":-3.4300671,"name":"King Edward Street near St John's Place","properties":{"access":"unknown","bicycle_pa":"","capacity":6,"covered":"no","fee":"","operator":"","nameSource":"junction"},"sourceId":"osm"},{"id":"osm:node:13040724530","latitude":56.4072787,"longitude":-3.4475968,"name":"Dunkeld Road near Carlile Place","properties":{"access":"unknown","bicycle_pa":"stands","capacity":4,"covered":"no","fee":"","operator":"","nameSource":"junction"},"sourceId":"osm"},{"id":"osm:node:13524712272","latitude":56.3983289,"longitude":-3.4403159,"name":"Longcauseway near Old Market Place","properties":{"access":"unknown","bicycle_pa":"","capacity":0,"covered":"","fee":"","operator":"","nameSource":"junction"},"sourceId":"osm"},{"id":"osm:node:13607165196","latitude":56.3964468,"longitude":-3.4376987,"name":"Lickley Street near High Street","properties":{"access":"unknown","bicycle_pa":"shed","capacity":12,"covered":"","fee":"","operator":"","nameSource":"junction"},"sourceId":"osm"},{"id":"osm:node:13841648068","latitude":56.3894532,"longitude":-3.4395721,"name":"Priory Place near Abbot Street","properties":{"access":"yes","bicycle_pa":"stands","capacity":10,"covered":"no","fee":"","operator":"","nameSource":"junction"},"sourceId":"osm"},{"id":"osm:node:13841648069","latitude":56.3914319,"longitude":-3.4351898,"name":"King's Place by Pavilion Cafe","properties":{"access":"yes","bicycle_pa":"stands","capacity":10,"covered":"no","fee":"","operator":"","nameSource":"landmark"},"sourceId":"osm"},{"id":"osm:node:13917909889","latitude":56.3945265,"longitude":-3.4434861,"name":"Glover Street cycle parking","properties":{"access":"unknown","bicycle_pa":"stands","capacity":10,"covered":"no","fee":"no","operator":"","nameSource":"street"},"sourceId":"osm"},{"id":"osm:node:13987622926","latitude":56.3983056,"longitude":-3.4353555,"name":"Drumhar Court near Black Watch Gardens","properties":{"access":"unknown","bicycle_pa":"stands","capacity":10,"covered":"no","fee":"","operator":"","nameSource":"junction"},"sourceId":"osm"},{"id":"osm:node:13992151676","latitude":56.4128388,"longitude":-3.4498314,"name":"Argyll Road by North Muirton Community Centre","properties":{"access":"unknown","bicycle_pa":"stands","capacity":6,"covered":"no","fee":"","operator":"","nameSource":"landmark"},"sourceId":"osm"},{"id":"osm:node:13992151677","latitude":56.4128391,"longitude":-3.4498549,"name":"Argyll Road by North Muirton Community Centre","properties":{"access":"unknown","bicycle_pa":"shed","capacity":6,"covered":"","fee":"","operator":"","nameSource":"landmark"},"sourceId":"osm"},{"id":"osm:node:13992151691","latitude":56.3991418,"longitude":-3.4284856,"name":"Charlotte Street near Charlotte Place","properties":{"access":"unknown","bicycle_pa":"shed","capacity":6,"covered":"","fee":"","operator":"","nameSource":"junction"},"sourceId":"osm"},{"id":"osm:node:13997548743","latitude":56.3982667,"longitude":-3.4278142,"name":"George Street near Bridge Lane","properties":{"access":"unknown","bicycle_pa":"stands","capacity":2,"covered":"","fee":"","operator":"","nameSource":"junction"},"sourceId":"osm"},{"id":"osm:node:13997548744","latitude":56.3981891,"longitude":-3.4278229,"name":"Bridge Lane near George Street","properties":{"access":"unknown","bicycle_pa":"stands","capacity":2,"covered":"","fee":"","operator":"","nameSource":"junction"},"sourceId":"osm"},{"id":"osm:node:14002216636","latitude":56.3942267,"longitude":-3.4281883,"name":"Princes Street near Canal Street","properties":{"access":"unknown","bicycle_pa":"stands","capacity":4,"covered":"no","fee":"","operator":"","nameSource":"junction"},"sourceId":"osm"},{"id":"osm:node:1418211073","latitude":56.3960796,"longitude":-3.442918,"name":"Whitefriars Crescent near Glasgow Road","properties":{"access":"unknown","bicycle_pa":"stands","capacity":4,"covered":"no","fee":"","operator":"","nameSource":"junction"},"sourceId":"osm"},{"id":"osm:node:1418211079","latitude":56.397208,"longitude":-3.4442622,"name":"Whitefriars Crescent cycle parking","properties":{"access":"unknown","bicycle_pa":"stands","capacity":10,"covered":"yes","fee":"","operator":"","nameSource":"street"},"sourceId":"osm"},{"id":"osm:node:1418211085","latitude":56.3967837,"longitude":-3.4438601,"name":"Whitefriars Crescent cycle parking","properties":{"access":"unknown","bicycle_pa":"stands","capacity":6,"covered":"yes","fee":"","operator":"","nameSource":"street"},"sourceId":"osm"},{"id":"osm:node:1418211096","latitude":56.3965849,"longitude":-3.4398797,"name":"Caledonian Road by Morrisons Cafe","properties":{"access":"unknown","bicycle_pa":"","capacity":10,"covered":"no","fee":"","operator":"","nameSource":"landmark"},"sourceId":"osm"},{"id":"osm:node:1418213199","latitude":56.3952786,"longitude":-3.4363499,"name":"York Place near County Place","properties":{"access":"unknown","bicycle_pa":"stands","capacity":4,"covered":"no","fee":"","operator":"","nameSource":"junction"},"sourceId":"osm"},{"id":"osm:node:1438651771","latitude":56.3976031,"longitude":-3.4443132,"name":"Whitefriars Crescent near Whitefriars Street","properties":{"access":"unknown","bicycle_pa":"stands","capacity":8,"covered":"yes","fee":"","operator":"","nameSource":"junction"},"sourceId":"osm"},{"id":"osm:node:1506759913","latitude":56.3955235,"longitude":-3.4433531,"name":"Glasgow Road near Whitefriars Crescent","properties":{"access":"unknown","bicycle_pa":"","capacity":10,"covered":"no","fee":"","operator":"","nameSource":"junction"},"sourceId":"osm"},{"id":"osm:node:1992836674","latitude":56.3918741,"longitude":-3.4381743,"name":"King's Place near Leonard Street","properties":{"access":"yes","bicycle_pa":"stands","capacity":7,"covered":"no","fee":"no","operator":"","nameSource":"junction"},"sourceId":"osm"},{"id":"osm:node:2146955490","latitude":56.394766,"longitude":-3.4399523,"name":"Kinnoull Causeway near Earl's Dykes","properties":{"access":"unknown","bicycle_pa":"wall_loops","capacity":6,"covered":"yes","fee":"","operator":"","nameSource":"junction"},"sourceId":"osm"},{"id":"osm:node:2176110892","latitude":56.3972143,"longitude":-3.4441875,"name":"Whitefriars Crescent cycle parking","properties":{"access":"unknown","bicycle_pa":"lockers","capacity":1,"covered":"yes","fee":"","operator":"","nameSource":"street"},"sourceId":"osm"},{"id":"osm:node:265294822","latitude":56.3981005,"longitude":-3.4320826,"name":"Kinnoull Street near Foundry Lane","properties":{"access":"unknown","bicycle_pa":"","capacity":36,"covered":"yes","fee":"","operator":"","nameSource":"junction"},"sourceId":"osm"},{"id":"osm:node:265294825","latitude":56.3970215,"longitude":-3.4295158,"name":"High Street near Kirk Close","properties":{"access":"unknown","bicycle_pa":"","capacity":36,"covered":"","fee":"","operator":"","nameSource":"junction"},"sourceId":"osm"},{"id":"osm:node:266375635","latitude":56.3937034,"longitude":-3.4368711,"name":"Pomarium Street near Leonard Street","properties":{"access":"unknown","bicycle_pa":"stands","capacity":10,"covered":"yes","fee":"","operator":"","nameSource":"junction"},"sourceId":"osm"},{"id":"osm:node:266503725","latitude":56.395214,"longitude":-3.4374638,"name":"York Place by AK Bell Library Cafe","properties":{"access":"unknown","bicycle_pa":"stands","capacity":8,"covered":"no","fee":"","operator":"","nameSource":"landmark"},"sourceId":"osm"},{"id":"osm:node:266503749","latitude":56.3961208,"longitude":-3.4301897,"name":"King Edward Street near St John's Place","properties":{"access":"unknown","bicycle_pa":"","capacity":6,"covered":"","fee":"","operator":"","nameSource":"junction"},"sourceId":"osm"},{"id":"osm:node:266503756","latitude":56.3960491,"longitude":-3.433066,"name":"Scott Street by Indigo Sun","properties":{"access":"unknown","bicycle_pa":"","capacity":2,"covered":"","fee":"","operator":"","nameSource":"landmark"},"sourceId":"osm"},{"id":"osm:node:269237577","latitude":56.3945084,"longitude":-3.4433035,"name":"Glover Street by Perth Leisure Pool","properties":{"access":"unknown","bicycle_pa":"stands","capacity":4,"covered":"yes","fee":"","operator":"","nameSource":"landmark"},"sourceId":"osm"},{"id":"osm:node:269983739","latitude":56.3931639,"longitude":-3.4403947,"name":"Caledonian Road cycle parking","properties":{"access":"unknown","bicycle_pa":"stands","capacity":10,"covered":"no","fee":"","operator":"","nameSource":"street"},"sourceId":"osm"},{"id":"osm:node:3443084608","latitude":56.3951909,"longitude":-3.4341852,"name":"Canal Crescent by The Bunker Golf Lounge & Bar","properties":{"access":"yes","bicycle_pa":"stands","capacity":4,"covered":"no","fee":"no","operator":"","nameSource":"landmark"},"sourceId":"osm"},{"id":"osm:node:3484499494","latitude":56.3965913,"longitude":-3.4325945,"name":"High Street near Kinnoull Street","properties":{"access":"unknown","bicycle_pa":"stands","capacity":4,"covered":"no","fee":"","operator":"","nameSource":"junction"},"sourceId":"osm"},{"id":"osm:node:3564355813","latitude":56.4068959,"longitude":-3.4773953,"name":"Newhouse Road near Strathtay Road","properties":{"access":"unknown","bicycle_pa":"","capacity":16,"covered":"yes","fee":"","operator":"","nameSource":"junction"},"sourceId":"osm"},{"id":"osm:node:3725494546","latitude":56.3935818,"longitude":-3.4312187,"name":"Charles Street near Victoria Street","properties":{"access":"unknown","bicycle_pa":"stands","capacity":6,"covered":"no","fee":"","operator":"","nameSource":"junction"},"sourceId":"osm"},{"id":"osm:node:4094096808","latitude":56.4028608,"longitude":-3.4340649,"name":"North Inch cycle parking","properties":{"access":"unknown","bicycle_pa":"","capacity":0,"covered":"","fee":"","operator":"","nameSource":"landmark"},"sourceId":"osm"},{"id":"osm:node:4265486297","latitude":56.4097036,"longitude":-3.4380355,"name":"Malvina Place cycle parking","properties":{"access":"unknown","bicycle_pa":"stands","capacity":0,"covered":"yes","fee":"","operator":"","nameSource":"street"},"sourceId":"osm"},{"id":"osm:node:4279240350","latitude":56.4030044,"longitude":-3.4344535,"name":"Cafe Active cycle parking","properties":{"access":"unknown","bicycle_pa":"","capacity":0,"covered":"","fee":"","operator":"","nameSource":"landmark"},"sourceId":"osm"},{"id":"osm:node:4284690306","latitude":56.3952251,"longitude":-3.4300439,"name":"King Edward Street near South Street","properties":{"access":"unknown","bicycle_pa":"stands","capacity":4,"covered":"no","fee":"","operator":"","nameSource":"junction"},"sourceId":"osm"},{"id":"osm:node:5088786421","latitude":56.381579,"longitude":-3.4331334,"name":"Edinburgh Road cycle parking","properties":{"access":"unknown","bicycle_pa":"","capacity":0,"covered":"","fee":"","operator":"","nameSource":"street"},"sourceId":"osm"},{"id":"osm:node:561381375","latitude":56.3918031,"longitude":-3.4386886,"name":"King's Place near Leonard Street","properties":{"access":"yes","bicycle_pa":"two-tier","capacity":18,"covered":"yes","fee":"no","operator":"","nameSource":"junction"},"sourceId":"osm"},{"id":"osm:node:6936174348","latitude":56.397514,"longitude":-3.431076,"name":"Mill Street near Curfew Row","properties":{"access":"unknown","bicycle_pa":"stands","capacity":4,"covered":"no","fee":"","operator":"","nameSource":"junction"},"sourceId":"osm"},{"id":"osm:node:6936174349","latitude":56.3975072,"longitude":-3.4317054,"name":"Cutlog Vennel near Mill Street","properties":{"access":"unknown","bicycle_pa":"stands","capacity":10,"covered":"no","fee":"","operator":"","nameSource":"junction"},"sourceId":"osm"},{"id":"osm:node:6944022840","latitude":56.3975043,"longitude":-3.4299934,"name":"Guard Vennel near Mill Street","properties":{"access":"unknown","bicycle_pa":"stands","capacity":4,"covered":"no","fee":"","operator":"","nameSource":"junction"},"sourceId":"osm"},{"id":"osm:node:7143753514","latitude":56.3957126,"longitude":-3.4279928,"name":"South St John's Place near St Ann's Lane","properties":{"access":"unknown","bicycle_pa":"stands","capacity":6,"covered":"no","fee":"","operator":"","nameSource":"junction"},"sourceId":"osm"},{"id":"osm:node:9770198257","latitude":56.3978514,"longitude":-3.455543,"name":"Jeanfield Road cycle parking","properties":{"access":"unknown","bicycle_pa":"stands","capacity":18,"covered":"no","fee":"","operator":"","nameSource":"street"},"sourceId":"osm"},{"id":"osm:node:9770198261","latitude":56.3980504,"longitude":-3.4551145,"name":"Jeanfield Road cycle parking","properties":{"access":"unknown","bicycle_pa":"stands","capacity":6,"covered":"yes","fee":"","operator":"","nameSource":"street"},"sourceId":"osm"},{"id":"osm:way:1155907502","latitude":56.39177062,"longitude":-3.46851364,"name":"Oakbank Road near Upper Woodlands","properties":{"access":"unknown","bicycle_pa":"","capacity":0,"covered":"yes","fee":"","operator":"","nameSource":"junction"},"sourceId":"osm"},{"id":"osm:way:1259372475","latitude":56.3867723,"longitude":-3.47873356,"name":"Broxden - Low Carbon Hub cycle parking","properties":{"access":"yes","bicycle_pa":"building","capacity":10,"covered":"yes","fee":"no","operator":"","nameSource":"landmark"},"sourceId":"osm"},{"id":"osm:way:1315598999","latitude":56.397427119999996,"longitude":-3.45618256,"name":"Perth Royal Infirmary cycle parking","properties":{"access":"unknown","bicycle_pa":"stands","capacity":0,"covered":"yes","fee":"","operator":"","nameSource":"landmark"},"sourceId":"osm"},{"id":"osm:way:341066724","latitude":56.40484122,"longitude":-3.4600397000000003,"name":"Crieff Road by Perth College UHI Nursery","properties":{"access":"unknown","bicycle_pa":"shed","capacity":0,"covered":"yes","fee":"","operator":"","nameSource":"landmark"},"sourceId":"osm"},{"id":"osm:way:341066728","latitude":56.40476782,"longitude":-3.4602200000000005,"name":"UHI Perth cycle parking","properties":{"access":"unknown","bicycle_pa":"shed","capacity":0,"covered":"yes","fee":"","operator":"","nameSource":"landmark"},"sourceId":"osm"}],"schemaVersion":2}
