{"key":"12/2008/1375","points":[{"id":"osm:node:10651903585","latitude":50.7916363,"longitude":-3.4536036,"name":"Secomd-Hand Bookshop cycle parking","properties":{"access":"customers","bicycle_pa":"stands","capacity":8,"covered":"no","fee":"no","operator":"","nameSource":"landmark"},"sourceId":"osm"},{"id":"osm:node:307780287","latitude":50.7387633,"longitude":-3.5119827,"name":"Stoke Hill near Widecombe Way","properties":{"access":"unknown","bicycle_pa":"","capacity":0,"covered":"","fee":"","operator":"","nameSource":"junction"},"sourceId":"osm"},{"id":"osm:node:8948738098","latitude":50.7915465,"longitude":-3.4532241,"name":"Secomd-Hand Bookshop cycle parking","properties":{"access":"customers","bicycle_pa":"stands","capacity":14,"covered":"no","fee":"","operator":"","nameSource":"landmark"},"sourceId":"osm"},{"id":"osm:way:1014498524","latitude":50.74632924000001,"longitude":-3.46212844,"name":"Coaker Road near Pinn Hill","properties":{"access":"yes","bicycle_pa":"building","capacity":10,"covered":"yes","fee":"no","operator":"","nameSource":"junction"},"sourceId":"osm"},{"id":"osm:way:1016734642","latitude":50.74616422,"longitude":-3.465962,"name":"Seldon Crescent near Harris Place","properties":{"access":"private","bicycle_pa":"stands","capacity":0,"covered":"yes","fee":"","operator":"Cornerstone Academy Trust","nameSource":"junction"},"sourceId":"osm"},{"id":"osm:way:1306261456","latitude":50.7416235,"longitude":-3.4625002166666667,"name":"Coaker Road near Poundpark Gardens","properties":{"access":"private","bicycle_pa":"shed","capacity":9,"covered":"","fee":"","operator":"","nameSource":"junction"},"sourceId":"osm"},{"id":"osm:way:668590972","latitude":50.74932238,"longitude":-3.4576974199999997,"name":"Poltimore Way near B3181","properties":{"access":"private","bicycle_pa":"shed","capacity":8,"covered":"yes","fee":"","operator":"","nameSource":"junction"},"sourceId":"osm"}],"schemaVersion":2}
