{"key":"12/2008/1378","points":[{"id":"osm:node:10202643056","latitude":50.5810803,"longitude":-3.4667247,"name":"The Strand near A379","properties":{"access":"unknown","bicycle_pa":"stands","capacity":4,"covered":"no","fee":"","operator":"","nameSource":"junction"},"sourceId":"osm"},{"id":"osm:node:10202643058","latitude":50.5811672,"longitude":-3.4673145,"name":"The Strand near A379","properties":{"access":"unknown","bicycle_pa":"","capacity":0,"covered":"","fee":"","operator":"","nameSource":"junction"},"sourceId":"osm"},{"id":"osm:node:10202643061","latitude":50.5811921,"longitude":-3.4703628,"name":"The Strand near Lawn Hill","properties":{"access":"unknown","bicycle_pa":"stands","capacity":4,"covered":"no","fee":"","operator":"","nameSource":"junction"},"sourceId":"osm"},{"id":"osm:node:10202643138","latitude":50.5811541,"longitude":-3.4667949,"name":"The Strand near A379","properties":{"access":"unknown","bicycle_pa":"stands","capacity":4,"covered":"no","fee":"","operator":"","nameSource":"junction"},"sourceId":"osm"},{"id":"osm:node:10202643139","latitude":50.5811782,"longitude":-3.4692378,"name":"Lawn Hill near The Strand","properties":{"access":"unknown","bicycle_pa":"stands","capacity":8,"covered":"no","fee":"","operator":"","nameSource":"junction"},"sourceId":"osm"},{"id":"osm:node:10202643253","latitude":50.5812034,"longitude":-3.4679549,"name":"The Strand by Ryder’s Bakery","properties":{"access":"unknown","bicycle_pa":"stands","capacity":4,"covered":"no","fee":"","operator":"","nameSource":"landmark"},"sourceId":"osm"},{"id":"osm:node:10202643254","latitude":50.5811672,"longitude":-3.4685278,"name":"The Strand by The Strand cafe","properties":{"access":"unknown","bicycle_pa":"stands","capacity":8,"covered":"no","fee":"","operator":"","nameSource":"landmark"},"sourceId":"osm"},{"id":"osm:node:10202643255","latitude":50.5812317,"longitude":-3.468875,"name":"The Strand near Lawn Hill","properties":{"access":"unknown","bicycle_pa":"stands","capacity":4,"covered":"no","fee":"","operator":"","nameSource":"junction"},"sourceId":"osm"},{"id":"osm:node:10251827110","latitude":50.5808311,"longitude":-3.4644725,"name":"Richmond Place near Beach Street","properties":{"access":"unknown","bicycle_pa":"stands","capacity":0,"covered":"","fee":"","operator":"","nameSource":"junction"},"sourceId":"osm"},{"id":"osm:node:10252212225","latitude":50.6167831,"longitude":-3.450131,"name":"Church Road by The Ship Inn","properties":{"access":"unknown","bicycle_pa":"","capacity":0,"covered":"","fee":"","operator":"","nameSource":"landmark"},"sourceId":"osm"},{"id":"osm:node:12884473082","latitude":50.5976489,"longitude":-3.4423756,"name":"Beach Walk near Beach Road","properties":{"access":"unknown","bicycle_pa":"stands","capacity":16,"covered":"no","fee":"","operator":"","nameSource":"junction"},"sourceId":"osm"},{"id":"osm:node:13649974101","latitude":50.6012753,"longitude":-3.4384141,"name":"Dawlish Warren cycle parking","properties":{"access":"unknown","bicycle_pa":"","capacity":0,"covered":"","fee":"","operator":"","nameSource":"place"},"sourceId":"osm"},{"id":"osm:node:6458306018","latitude":50.5974893,"longitude":-3.4442273,"name":"Beach Road near Station Road","properties":{"access":"yes","bicycle_pa":"stands","capacity":16,"covered":"no","fee":"","operator":"","nameSource":"junction"},"sourceId":"osm"}],"schemaVersion":2}
