{"key":"12/2008/1506","points":[{"id":"osm:node:10026505731","latitude":42.88887,"longitude":-3.466091,"name":"Vía Verde Santander-Mediterráneo cycle parking","properties":{"access":"yes","bicycle_pa":"stands","capacity":4,"covered":"no","fee":"","operator":"","nameSource":"street"},"sourceId":"osm"},{"id":"osm:node:13673229100","latitude":42.9145161,"longitude":-3.4932354,"name":"Vía Verde Santander-Mediterráneo cycle parking","properties":{"access":"yes","bicycle_pa":"stands","capacity":8,"covered":"no","fee":"","operator":"","nameSource":"street"},"sourceId":"osm"},{"id":"osm:node:2423421397","latitude":42.9374537,"longitude":-3.5026257,"name":"Calle Juan Carlos I near Calle Alcalde Arrimadas","properties":{"access":"unknown","bicycle_pa":"ground_slots","capacity":0,"covered":"","fee":"","operator":"","nameSource":"junction"},"sourceId":"osm"},{"id":"osm:node:3196155597","latitude":42.9267686,"longitude":-3.4844824,"name":"Paseo La Virgen near Paseo de la Virgen","properties":{"access":"unknown","bicycle_pa":"wall_loops","capacity":8,"covered":"no","fee":"","operator":"","nameSource":"junction"},"sourceId":"osm"},{"id":"osm:node:3196155598","latitude":42.9271266,"longitude":-3.4836314,"name":"Paseo de la Virgen near Paseo La Virgen","properties":{"access":"unknown","bicycle_pa":"wall_loops","capacity":8,"covered":"no","fee":"","operator":"","nameSource":"junction"},"sourceId":"osm"},{"id":"osm:node:3196155600","latitude":42.9272673,"longitude":-3.4838429,"name":"Paseo de la Virgen near Paseo La Virgen","properties":{"access":"unknown","bicycle_pa":"wall_loops","capacity":16,"covered":"no","fee":"","operator":"","nameSource":"junction"},"sourceId":"osm"},{"id":"osm:node:3196156493","latitude":42.9281913,"longitude":-3.482067,"name":"entrada piscina near Paseo La Virgen","properties":{"access":"unknown","bicycle_pa":"wall_loops","capacity":8,"covered":"no","fee":"","operator":"","nameSource":"junction"},"sourceId":"osm"},{"id":"osm:node:3327131310","latitude":42.931623,"longitude":-3.4853208,"name":"Calle Briviesca near Avenida Burgos","properties":{"access":"unknown","bicycle_pa":"stands","capacity":6,"covered":"no","fee":"","operator":"","nameSource":"junction"},"sourceId":"osm"},{"id":"osm:node:3428770348","latitude":42.9316673,"longitude":-3.4861359,"name":"Plaza Somovilla near Calle Laín Calvo","properties":{"access":"unknown","bicycle_pa":"stands","capacity":6,"covered":"no","fee":"","operator":"","nameSource":"junction"},"sourceId":"osm"},{"id":"osm:node:3428770349","latitude":42.9327659,"longitude":-3.4857719,"name":"Calle Algorta near Calle Príncipe de Asturias","properties":{"access":"unknown","bicycle_pa":"stands","capacity":6,"covered":"no","fee":"","operator":"","nameSource":"junction"},"sourceId":"osm"},{"id":"osm:node:6174784920","latitude":42.9338318,"longitude":-3.4877525,"name":"Calle Belorado near Calle Doctor Fleming","properties":{"access":"unknown","bicycle_pa":"stands","capacity":6,"covered":"no","fee":"","operator":"","nameSource":"junction"},"sourceId":"osm"},{"id":"osm:node:6737341821","latitude":42.9335204,"longitude":-3.4875403,"name":"Calle Pedro de Medina near Calle Doctor Fleming","properties":{"access":"unknown","bicycle_pa":"stands","capacity":6,"covered":"no","fee":"","operator":"","nameSource":"junction"},"sourceId":"osm"},{"id":"osm:node:7943220759","latitude":42.9314976,"longitude":-3.4854864,"name":"Calle Briviesca near Avenida Burgos","properties":{"access":"unknown","bicycle_pa":"","capacity":0,"covered":"","fee":"","operator":"","nameSource":"junction"},"sourceId":"osm"}],"schemaVersion":2}
