{"key":"12/2008/1597","points":[{"id":"osm:node:11234171822","latitude":36.7411672,"longitude":-3.5117681,"name":"Calle Tegucigalpa near Calle Bolivia","properties":{"access":"unknown","bicycle_pa":"","capacity":0,"covered":"","fee":"","operator":"","nameSource":"junction"},"sourceId":"osm"},{"id":"osm:way:1441508632","latitude":36.74196596,"longitude":-3.51013418,"name":"Calle Generosidad near GR-5209","properties":{"access":"customers","bicycle_pa":"","capacity":4,"covered":"no","fee":"no","operator":"","nameSource":"junction"},"sourceId":"osm"},{"id":"osm:way:1441508642","latitude":36.74141934,"longitude":-3.5093793,"name":"Calle Piedad by Lidl","properties":{"access":"customers","bicycle_pa":"","capacity":4,"covered":"no","fee":"no","operator":"","nameSource":"landmark"},"sourceId":"osm"},{"id":"osm:way:1471104140","latitude":36.75084592,"longitude":-3.50906818,"name":"Calle Galicia near Calle Comunidad Castilla la Mancha","properties":{"access":"yes","bicycle_pa":"bollard","capacity":8,"covered":"no","fee":"no","operator":"","nameSource":"junction"},"sourceId":"osm"},{"id":"osm:way:1471104141","latitude":36.7518928,"longitude":-3.5090433599999997,"name":"Calle Amado Nervo near Avenida Rambla de los Álamos","properties":{"access":"customers","bicycle_pa":"lockers","capacity":6,"covered":"no","fee":"no","operator":"","nameSource":"junction"},"sourceId":"osm"}],"schemaVersion":2}
