{"key":"12/2081/1516","points":[{"categories":["shop"],"id":"osm:node:11222012140","latitude":42.2654234,"longitude":2.9653789,"name":"Olympia 2","properties":{},"sourceId":"osm"},{"categories":["repair"],"id":"osm:node:13982473323","latitude":42.2654276,"longitude":2.9687107,"name":"Bicycle repair station","properties":{},"sourceId":"osm"},{"categories":["shop"],"id":"osm:node:1688736756","latitude":42.2633015,"longitude":2.9616546,"name":"EO bikes","properties":{},"sourceId":"osm"},{"categories":["shop"],"id":"osm:node:3187004452","latitude":42.2626638,"longitude":2.966294,"name":"Surià Bicis","properties":{},"sourceId":"osm"},{"categories":["shop"],"id":"osm:node:5268161664","latitude":42.2672445,"longitude":2.9580631,"name":"Caula","properties":{},"sourceId":"osm"},{"categories":["repair"],"id":"osm:node:9684360805","latitude":42.2625699,"longitude":2.9658374,"name":"Surià bicis","properties":{"serviceRepair":"yes","website":"http://www.suriabicis.com/ca/bicicletes"},"sourceId":"osm"}],"schemaVersion":2}
