{"key":"12/1960/1346","points":[{"id":"osm:node:10008516084","latitude":52.3596428,"longitude":-7.6652749,"name":"Frank Drohan Road near Moangarriff Roundabout","properties":{"access":"yes","bicycle_pa":"rack","capacity":0,"covered":"","fee":"no","operator":"","nameSource":"junction"},"sourceId":"osm"},{"id":"osm:node:10827514153","latitude":52.3547554,"longitude":-7.6950615,"name":"Davis Road near O'Connell Terrace","properties":{"access":"yes","bicycle_pa":"stands","capacity":8,"covered":"no","fee":"no","operator":"","nameSource":"junction"},"sourceId":"osm"},{"id":"osm:node:10827535448","latitude":52.354375,"longitude":-7.6955148,"name":"Davis Road near O'Connell Terrace","properties":{"access":"yes","bicycle_pa":"stands","capacity":12,"covered":"no","fee":"no","operator":"","nameSource":"junction"},"sourceId":"osm"},{"id":"osm:node:10827553451","latitude":52.3552239,"longitude":-7.6930541,"name":"Davis Road by EasyGo Fast Charger","properties":{"access":"yes","bicycle_pa":"stands","capacity":10,"covered":"no","fee":"","operator":"","nameSource":"landmark"},"sourceId":"osm"},{"id":"osm:node:7781885053","latitude":52.3549682,"longitude":-7.6928747,"name":"Davis Road by Red Nose","properties":{"access":"unknown","bicycle_pa":"","capacity":5,"covered":"no","fee":"no","operator":"","nameSource":"landmark"},"sourceId":"osm"},{"id":"osm:node:7835879741","latitude":52.3534226,"longitude":-7.6997592,"name":"Emmet Street near Mitchel Street","properties":{"access":"unknown","bicycle_pa":"stands","capacity":10,"covered":"no","fee":"","operator":"","nameSource":"junction"},"sourceId":"osm"},{"id":"osm:way:1450747642","latitude":52.35387214,"longitude":-7.72002876,"name":"Western Road by South Tipperary General Hospital","properties":{"access":"unknown","bicycle_pa":"shed","capacity":0,"covered":"","fee":"","operator":"","nameSource":"landmark"},"sourceId":"osm"},{"id":"osm:way:1450747643","latitude":52.35384282,"longitude":-7.72002116,"name":"Western Road by South Tipperary General Hospital","properties":{"access":"unknown","bicycle_pa":"shed","capacity":0,"covered":"","fee":"","operator":"","nameSource":"landmark"},"sourceId":"osm"}],"schemaVersion":2}
