{"key":"12/2000/1330","points":[{"id":"osm:node:10815336538","latitude":53.1803136,"longitude":-4.1963189,"name":"Lôn Llwyn cycle parking","properties":{"access":"unknown","bicycle_pa":"stands","capacity":8,"covered":"no","fee":"no","operator":"","nameSource":"street"},"sourceId":"osm"},{"id":"osm:node:12488291821","latitude":53.2254683,"longitude":-4.1645109,"name":"Wood Street near Maes y Coed","properties":{"access":"unknown","bicycle_pa":"stands","capacity":4,"covered":"no","fee":"","operator":"","nameSource":"junction"},"sourceId":"osm"},{"id":"osm:node:12736636729","latitude":53.2220198,"longitude":-4.2062287,"name":"Ffordd Penmynydd cycle parking","properties":{"access":"unknown","bicycle_pa":"stands","capacity":12,"covered":"no","fee":"","operator":"","nameSource":"street"},"sourceId":"osm"},{"id":"osm:node:13705940160","latitude":53.2169921,"longitude":-4.1694437,"name":"South African border cycle parking","properties":{"access":"unknown","bicycle_pa":"stands","capacity":4,"covered":"no","fee":"","operator":"","nameSource":"landmark"},"sourceId":"osm"},{"id":"osm:node:1497451288","latitude":53.2230023,"longitude":-4.1363691,"name":"Convent Lane by Station","properties":{"access":"unknown","bicycle_pa":"lockers","capacity":12,"covered":"","fee":"","operator":"","nameSource":"landmark"},"sourceId":"osm"},{"id":"osm:node:1573414859","latitude":53.2066577,"longitude":-4.1537716,"name":"Caernarfon Road by Tesco Café","properties":{"access":"unknown","bicycle_pa":"stands","capacity":3,"covered":"no","fee":"","operator":"","nameSource":"landmark"},"sourceId":"osm"},{"id":"osm:node:1693347812","latitude":53.2231163,"longitude":-4.1668045,"name":"Mona Road near Lôn Cei Bont","properties":{"access":"unknown","bicycle_pa":"stands","capacity":6,"covered":"no","fee":"","operator":"","nameSource":"junction"},"sourceId":"osm"},{"id":"osm:node:1848263060","latitude":53.2215597,"longitude":-4.2054188,"name":"Ffordd Caergybi / Holyhead Road near Holyhead Road","properties":{"access":"unknown","bicycle_pa":"stands","capacity":10,"covered":"no","fee":"","operator":"","nameSource":"junction"},"sourceId":"osm"},{"id":"osm:node:1856963530","latitude":53.2225952,"longitude":-4.1325996,"name":"High Street near Caernarfon Road","properties":{"access":"unknown","bicycle_pa":"stands","capacity":6,"covered":"no","fee":"","operator":"","nameSource":"junction"},"sourceId":"osm"},{"id":"osm:node:8280198727","latitude":53.2209309,"longitude":-4.2094629,"name":"Holyhead Road near Penucheldre","properties":{"access":"unknown","bicycle_pa":"stands","capacity":5,"covered":"yes","fee":"","operator":"","nameSource":"junction"},"sourceId":"osm"},{"id":"osm:way:482272190","latitude":53.225474059999996,"longitude":-4.14151674,"name":"Rhodfa Menai cycle parking","properties":{"access":"unknown","bicycle_pa":"","capacity":0,"covered":"","fee":"","operator":"","nameSource":"street"},"sourceId":"osm"},{"id":"osm:way:482272191","latitude":53.22496298,"longitude":-4.14265764,"name":"Canolfan Brailsford cycle parking","properties":{"access":"unknown","bicycle_pa":"","capacity":0,"covered":"","fee":"","operator":"","nameSource":"landmark"},"sourceId":"osm"}],"schemaVersion":2}
