{"key":"12/2000/1370","points":[{"id":"osm:node:10927244202","latitude":51.0197296,"longitude":-4.2042118,"name":"The Quay near Bridgeland Street","properties":{"access":"unknown","bicycle_pa":"stands","capacity":6,"covered":"no","fee":"","operator":"","nameSource":"junction"},"sourceId":"osm"},{"id":"osm:node:10948809862","latitude":51.021022,"longitude":-4.2046751,"name":"Kingsley Road near The Quay","properties":{"access":"unknown","bicycle_pa":"stands","capacity":6,"covered":"","fee":"","operator":"","nameSource":"junction"},"sourceId":"osm"},{"id":"osm:node:11808190500","latitude":51.0159897,"longitude":-4.2008865,"name":"Tarka Trail near Embery's Drang","properties":{"access":"yes","bicycle_pa":"stands","capacity":8,"covered":"no","fee":"","operator":"","nameSource":"junction"},"sourceId":"osm"},{"id":"osm:node:12691582920","latitude":51.0603224,"longitude":-4.2138668,"name":"Watertown cycle parking","properties":{"access":"unknown","bicycle_pa":"","capacity":0,"covered":"no","fee":"","operator":"","nameSource":"place"},"sourceId":"osm"},{"id":"osm:node:12692118334","latitude":51.0401223,"longitude":-4.2093999,"name":"Windmill Lane near Churchill Way","properties":{"access":"unknown","bicycle_pa":"stands","capacity":0,"covered":"","fee":"","operator":"","nameSource":"junction"},"sourceId":"osm"},{"id":"osm:node:12793571310","latitude":51.0205195,"longitude":-4.2036102,"name":"Landivisiau Walk near The Quay","properties":{"access":"unknown","bicycle_pa":"","capacity":0,"covered":"","fee":"","operator":"","nameSource":"junction"},"sourceId":"osm"},{"id":"osm:node:12793571324","latitude":51.0496518,"longitude":-4.1790708,"name":"Tarka Trail near Marine Parade","properties":{"access":"unknown","bicycle_pa":"","capacity":0,"covered":"","fee":"","operator":"","nameSource":"junction"},"sourceId":"osm"},{"id":"osm:node:12793571325","latitude":51.0501035,"longitude":-4.1792083,"name":"Tarka Trail near Marine Parade","properties":{"access":"unknown","bicycle_pa":"","capacity":0,"covered":"","fee":"","operator":"","nameSource":"junction"},"sourceId":"osm"},{"id":"osm:node:12793571328","latitude":51.0503943,"longitude":-4.1794899,"name":"Marine Parade near Tarka Trail","properties":{"access":"unknown","bicycle_pa":"","capacity":0,"covered":"","fee":"","operator":"","nameSource":"junction"},"sourceId":"osm"},{"id":"osm:node:3966608052","latitude":51.0205519,"longitude":-4.2037612,"name":"The Quay near Landivisiau Walk","properties":{"access":"unknown","bicycle_pa":"stands","capacity":6,"covered":"no","fee":"","operator":"","nameSource":"junction"},"sourceId":"osm"},{"id":"osm:node:434341878","latitude":51.0170014,"longitude":-4.2046436,"name":"The Quay near B3233","properties":{"access":"unknown","bicycle_pa":"stands","capacity":6,"covered":"no","fee":"","operator":"","nameSource":"junction"},"sourceId":"osm"}],"schemaVersion":2}
