{"key":"12/2000/1382","points":[{"id":"osm:node:10025823222","latitude":50.3684597,"longitude":-4.1460534,"name":"B3240 near Athenaeum Lane","properties":{"access":"unknown","bicycle_pa":"stands","capacity":4,"covered":"no","fee":"","operator":"","nameSource":"junction"},"sourceId":"osm"},{"id":"osm:node:10025823320","latitude":50.3684042,"longitude":-4.1455774,"name":"Athenaeum Street near B3240","properties":{"access":"unknown","bicycle_pa":"stands","capacity":6,"covered":"no","fee":"","operator":"","nameSource":"junction"},"sourceId":"osm"},{"id":"osm:node:10043599017","latitude":50.3666864,"longitude":-4.1524487,"name":"West Hoe Road cycle parking","properties":{"access":"unknown","bicycle_pa":"stands","capacity":10,"covered":"no","fee":"","operator":"","nameSource":"street"},"sourceId":"osm"},{"id":"osm:node:10057166217","latitude":50.3701162,"longitude":-4.1414157,"name":"Guildhall Square near Armada Way","properties":{"access":"private","bicycle_pa":"lockers","capacity":0,"covered":"","fee":"","operator":"","nameSource":"junction"},"sourceId":"osm"},{"id":"osm:node:10140477317","latitude":50.3686118,"longitude":-4.1584408,"name":"George Place near Stonehouse Street","properties":{"access":"unknown","bicycle_pa":"stands","capacity":8,"covered":"no","fee":"","operator":"","nameSource":"junction"},"sourceId":"osm"},{"id":"osm:node:10184385017","latitude":50.360252,"longitude":-4.175057,"name":"B3247 by Edgcumbe Arms","properties":{"access":"unknown","bicycle_pa":"","capacity":0,"covered":"","fee":"","operator":"","nameSource":"landmark"},"sourceId":"osm"},{"id":"osm:node:10239358112","latitude":50.3682707,"longitude":-4.1410388,"name":"Notte Street near Princess Street Ope","properties":{"access":"unknown","bicycle_pa":"stands","capacity":10,"covered":"no","fee":"","operator":"","nameSource":"junction"},"sourceId":"osm"},{"id":"osm:node:10553222309","latitude":50.3704482,"longitude":-4.1370464,"name":"Bretonside near How Street","properties":{"access":"unknown","bicycle_pa":"stands","capacity":10,"covered":"yes","fee":"","operator":"","nameSource":"junction"},"sourceId":"osm"},{"id":"osm:node:10788789109","latitude":50.3744906,"longitude":-4.1383748,"name":"Glanville Street cycle parking","properties":{"access":"unknown","bicycle_pa":"stands","capacity":10,"covered":"yes","fee":"","operator":"","nameSource":"street"},"sourceId":"osm"},{"id":"osm:node:10788789206","latitude":50.3740985,"longitude":-4.1373823,"name":"Tavistock Place near Chapel Street","properties":{"access":"unknown","bicycle_pa":"","capacity":0,"covered":"","fee":"","operator":"","nameSource":"junction"},"sourceId":"osm"},{"id":"osm:node:10791140405","latitude":50.3787001,"longitude":-4.1485985,"name":"Monroe Gardens cycle parking","properties":{"access":"unknown","bicycle_pa":"stands","capacity":16,"covered":"yes","fee":"","operator":"","nameSource":"street"},"sourceId":"osm"},{"id":"osm:node:10813028706","latitude":50.3705956,"longitude":-4.1363191,"name":"Bretonside near Bilbury Street","properties":{"access":"unknown","bicycle_pa":"stands","capacity":10,"covered":"no","fee":"","operator":"","nameSource":"junction"},"sourceId":"osm"},{"id":"osm:node:10909472205","latitude":50.3643884,"longitude":-4.150215,"name":"Radford Road near Garden Crescent","properties":{"access":"customers","bicycle_pa":"wall_loops","capacity":4,"covered":"no","fee":"","operator":"","nameSource":"junction"},"sourceId":"osm"},{"id":"osm:node:10980244400","latitude":50.3733403,"longitude":-4.141975,"name":"Armada Way near Mayflower Street","properties":{"access":"unknown","bicycle_pa":"stands","capacity":6,"covered":"no","fee":"no","operator":"","nameSource":"junction"},"sourceId":"osm"},{"id":"osm:node:11049310806","latitude":50.3781749,"longitude":-4.142708,"name":"Glen Park Avenue cycle parking","properties":{"access":"unknown","bicycle_pa":"","capacity":30,"covered":"","fee":"","operator":"","nameSource":"street"},"sourceId":"osm"},{"id":"osm:node:11060637705","latitude":50.3705649,"longitude":-4.1362779,"name":"Bretonside near Bilbury Street","properties":{"access":"unknown","bicycle_pa":"stands","capacity":10,"covered":"no","fee":"","operator":"","nameSource":"junction"},"sourceId":"osm"},{"id":"osm:node:11108166144","latitude":50.3728786,"longitude":-4.1432141,"name":"Armada Way near Mayflower Street","properties":{"access":"unknown","bicycle_pa":"stands","capacity":0,"covered":"","fee":"","operator":"10","nameSource":"junction"},"sourceId":"osm"},{"id":"osm:node:11123969642","latitude":50.3735368,"longitude":-4.1404248,"name":"Mayflower Street near Cobourg Street","properties":{"access":"unknown","bicycle_pa":"stands","capacity":6,"covered":"no","fee":"","operator":"","nameSource":"junction"},"sourceId":"osm"},{"id":"osm:node:11161975352","latitude":50.3738095,"longitude":-4.1377589,"name":"Tavistock Place near Regent Street","properties":{"access":"unknown","bicycle_pa":"","capacity":0,"covered":"","fee":"","operator":"","nameSource":"junction"},"sourceId":"osm"},{"id":"osm:node:11166450478","latitude":50.3703481,"longitude":-4.1770314,"name":"Duke Street near Duncan Street","properties":{"access":"yes","bicycle_pa":"","capacity":0,"covered":"yes","fee":"no","operator":"","nameSource":"junction"},"sourceId":"osm"},{"id":"osm:node:11172741442","latitude":50.3957827,"longitude":-4.1630967,"name":"Ham Green near Ham Green Court","properties":{"access":"customers","bicycle_pa":"","capacity":6,"covered":"no","fee":"no","operator":"","nameSource":"junction"},"sourceId":"osm"},{"id":"osm:node:11172741447","latitude":50.3928178,"longitude":-4.1672849,"name":"Foliot Road near Cookworthy Road","properties":{"access":"unknown","bicycle_pa":"stands","capacity":22,"covered":"yes","fee":"no","operator":"","nameSource":"junction"},"sourceId":"osm"},{"id":"osm:node:11178692627","latitude":50.3655378,"longitude":-4.1521467,"name":"Soap Street near Trinity Street","properties":{"access":"unknown","bicycle_pa":"stands","capacity":20,"covered":"yes","fee":"","operator":"","nameSource":"junction"},"sourceId":"osm"},{"id":"osm:node:11462572861","latitude":50.3648995,"longitude":-4.166859,"name":"Richmond Walk cycle parking","properties":{"access":"unknown","bicycle_pa":"stands","capacity":8,"covered":"","fee":"","operator":"","nameSource":"street"},"sourceId":"osm"},{"id":"osm:node:11514265212","latitude":50.3783563,"longitude":-4.2074803,"name":"A374 cycle parking","properties":{"access":"unknown","bicycle_pa":"stands","capacity":40,"covered":"yes","fee":"","operator":"","nameSource":"street"},"sourceId":"osm"},{"id":"osm:node:12006450193","latitude":50.3994106,"longitude":-4.1839505,"name":"Wolseley Road by KFC","properties":{"access":"unknown","bicycle_pa":"stands","capacity":10,"covered":"","fee":"","operator":"","nameSource":"landmark"},"sourceId":"osm"},{"id":"osm:node:12089595505","latitude":50.3701347,"longitude":-4.1314713,"name":"North East Quay near East Quay North","properties":{"access":"unknown","bicycle_pa":"stands","capacity":10,"covered":"yes","fee":"","operator":"","nameSource":"junction"},"sourceId":"osm"},{"id":"osm:node:12097801272","latitude":50.3613064,"longitude":-4.1593789,"name":"Nazareth House Retirement Home cycle parking","properties":{"access":"unknown","bicycle_pa":"stands","capacity":8,"covered":"no","fee":"","operator":"","nameSource":"landmark"},"sourceId":"osm"},{"id":"osm:node:12125500494","latitude":50.3756789,"longitude":-4.137878,"name":"Sherwell Lane by Sherwell Church","properties":{"access":"unknown","bicycle_pa":"stands","capacity":10,"covered":"no","fee":"","operator":"","nameSource":"landmark"},"sourceId":"osm"},{"id":"osm:node:12163221867","latitude":50.3729126,"longitude":-4.1406951,"name":"Mayflower Street by evapo","properties":{"access":"unknown","bicycle_pa":"lockers","capacity":0,"covered":"","fee":"","operator":"","nameSource":"landmark"},"sourceId":"osm"},{"id":"osm:node:12163221868","latitude":50.3728325,"longitude":-4.1407173,"name":"Cornwall Street by evapo","properties":{"access":"unknown","bicycle_pa":"lockers","capacity":0,"covered":"","fee":"","operator":"","nameSource":"landmark"},"sourceId":"osm"},{"id":"osm:node:12222810003","latitude":50.3695596,"longitude":-4.1420983,"name":"Armada Way near Guildhall Square","properties":{"access":"unknown","bicycle_pa":"stands","capacity":0,"covered":"no","fee":"no","operator":"","nameSource":"junction"},"sourceId":"osm"},{"id":"osm:node:12292179632","latitude":50.3656631,"longitude":-4.1627325,"name":"Admiral's Hard near Cremyll Street","properties":{"access":"unknown","bicycle_pa":"stands","capacity":4,"covered":"","fee":"","operator":"","nameSource":"junction"},"sourceId":"osm"},{"id":"osm:node:12321399927","latitude":50.3712947,"longitude":-4.1389409,"name":"Old Town Street near New George Street","properties":{"access":"unknown","bicycle_pa":"stands","capacity":10,"covered":"no","fee":"","operator":"","nameSource":"junction"},"sourceId":"osm"},{"id":"osm:node:12321399934","latitude":50.3714209,"longitude":-4.1396271,"name":"New George Street near Old Town Street","properties":{"access":"unknown","bicycle_pa":"stands","capacity":8,"covered":"no","fee":"","operator":"","nameSource":"junction"},"sourceId":"osm"},{"id":"osm:node:12321399937","latitude":50.3715185,"longitude":-4.140089,"name":"New George Street near Bedford Way","properties":{"access":"unknown","bicycle_pa":"stands","capacity":10,"covered":"no","fee":"","operator":"","nameSource":"junction"},"sourceId":"osm"},{"id":"osm:node:12321399942","latitude":50.3714937,"longitude":-4.1406827,"name":"Bedford Way near New George Street","properties":{"access":"unknown","bicycle_pa":"stands","capacity":10,"covered":"no","fee":"","operator":"","nameSource":"junction"},"sourceId":"osm"},{"id":"osm:node:12321399943","latitude":50.3714019,"longitude":-4.1410311,"name":"New George Street near Bedford Way","properties":{"access":"unknown","bicycle_pa":"stands","capacity":10,"covered":"no","fee":"","operator":"","nameSource":"junction"},"sourceId":"osm"},{"id":"osm:node:12339720049","latitude":50.3708954,"longitude":-4.1388313,"name":"Old Town Street near St Andrew's Cross","properties":{"access":"unknown","bicycle_pa":"stands","capacity":10,"covered":"no","fee":"","operator":"","nameSource":"junction"},"sourceId":"osm"},{"id":"osm:node:12339720057","latitude":50.3705286,"longitude":-4.1420292,"name":"Royal Parade near Armada Way","properties":{"access":"unknown","bicycle_pa":"stands","capacity":8,"covered":"","fee":"","operator":"","nameSource":"junction"},"sourceId":"osm"},{"id":"osm:node:12368202606","latitude":50.39322,"longitude":-4.1731739,"name":"Woodville Road near Wordsworth Road","properties":{"access":"unknown","bicycle_pa":"","capacity":0,"covered":"","fee":"","operator":"","nameSource":"junction"},"sourceId":"osm"},{"id":"osm:node:12427410726","latitude":50.3612074,"longitude":-4.162296,"name":"Admiralty Road near Durnford Street","properties":{"access":"unknown","bicycle_pa":"","capacity":0,"covered":"","fee":"","operator":"","nameSource":"junction"},"sourceId":"osm"},{"id":"osm:node:12498165565","latitude":50.3758636,"longitude":-4.1403883,"name":"James Street near John Lane","properties":{"access":"unknown","bicycle_pa":"","capacity":40,"covered":"","fee":"","operator":"","nameSource":"junction"},"sourceId":"osm"},{"id":"osm:node:13264009405","latitude":50.3734758,"longitude":-4.1422932,"name":"Mayflower Street near Armada Way","properties":{"access":"unknown","bicycle_pa":"stands","capacity":0,"covered":"no","fee":"","operator":"","nameSource":"junction"},"sourceId":"osm"},{"id":"osm:node:13310992066","latitude":50.3845695,"longitude":-4.1517493,"name":"Adventure Path cycle parking","properties":{"access":"unknown","bicycle_pa":"stands","capacity":6,"covered":"no","fee":"no","operator":"","nameSource":"street"},"sourceId":"osm"},{"id":"osm:node:1333978247","latitude":50.3768129,"longitude":-4.1383493,"name":"Endsleigh Gardens near Endsleigh Place","properties":{"access":"unknown","bicycle_pa":"stands","capacity":10,"covered":"no","fee":"","operator":"","nameSource":"junction"},"sourceId":"osm"},{"id":"osm:node:1349535676","latitude":50.3662499,"longitude":-4.1479829,"name":"Leigham Terrace Lane West cycle parking","properties":{"access":"unknown","bicycle_pa":"","capacity":0,"covered":"","fee":"","operator":"","nameSource":"street"},"sourceId":"osm"},{"id":"osm:node:1377036304","latitude":50.3651965,"longitude":-4.1399452,"name":"Hoe Road near Hoe Promenade","properties":{"access":"unknown","bicycle_pa":"stands","capacity":20,"covered":"no","fee":"","operator":"","nameSource":"junction"},"sourceId":"osm"},{"id":"osm:node:13988165197","latitude":50.3716117,"longitude":-4.1422528,"name":"Armada Way near New George Street","properties":{"access":"unknown","bicycle_pa":"stands","capacity":16,"covered":"no","fee":"","operator":"","nameSource":"junction"},"sourceId":"osm"},{"id":"osm:node:13988165198","latitude":50.3714877,"longitude":-4.1422471,"name":"Armada Way near New George Street","properties":{"access":"unknown","bicycle_pa":"stands","capacity":18,"covered":"no","fee":"","operator":"","nameSource":"junction"},"sourceId":"osm"},{"id":"osm:node:14002114887","latitude":50.3726159,"longitude":-4.1426474,"name":"Armada Way near Cornwall Street","properties":{"access":"unknown","bicycle_pa":"","capacity":0,"covered":"","fee":"","operator":"","nameSource":"junction"},"sourceId":"osm"},{"id":"osm:node:14002116121","latitude":50.3743974,"longitude":-4.142332,"name":"Armada Way by The Ground Coffee House","properties":{"access":"unknown","bicycle_pa":"stands","capacity":0,"covered":"","fee":"","operator":"","nameSource":"landmark"},"sourceId":"osm"},{"id":"osm:node:14002116136","latitude":50.3705161,"longitude":-4.1427786,"name":"Armada Way near Royal Parade","properties":{"access":"unknown","bicycle_pa":"stands","capacity":8,"covered":"","fee":"","operator":"","nameSource":"junction"},"sourceId":"osm"},{"id":"osm:node:4870501274","latitude":50.3760218,"longitude":-4.1404287,"name":"James Street near John Lane","properties":{"access":"unknown","bicycle_pa":"","capacity":40,"covered":"","fee":"","operator":"","nameSource":"junction"},"sourceId":"osm"},{"id":"osm:node:4872756483","latitude":50.3686063,"longitude":-4.1354468,"name":"Vauxhall Street near Exchange Street","properties":{"access":"unknown","bicycle_pa":"stands","capacity":8,"covered":"no","fee":"","operator":"","nameSource":"junction"},"sourceId":"osm"},{"id":"osm:node:4872756487","latitude":50.3699769,"longitude":-4.1389548,"name":"Whimple Street near St Andrew Street","properties":{"access":"unknown","bicycle_pa":"stands","capacity":10,"covered":"no","fee":"","operator":"","nameSource":"junction"},"sourceId":"osm"},{"id":"osm:node:4874925620","latitude":50.3733961,"longitude":-4.1412948,"name":"Mayflower Street near Armada Way","properties":{"access":"unknown","bicycle_pa":"stands","capacity":6,"covered":"no","fee":"","operator":"","nameSource":"junction"},"sourceId":"osm"},{"id":"osm:node:4874934052","latitude":50.3735175,"longitude":-4.1429115,"name":"Armada Way near Mayflower Street","properties":{"access":"unknown","bicycle_pa":"stands","capacity":4,"covered":"no","fee":"","operator":"","nameSource":"junction"},"sourceId":"osm"},{"id":"osm:node:4874934082","latitude":50.3723788,"longitude":-4.1421369,"name":"Armada Way near Cornwall Street","properties":{"access":"unknown","bicycle_pa":"stands","capacity":1,"covered":"no","fee":"","operator":"","nameSource":"junction"},"sourceId":"osm"},{"id":"osm:node:4874934353","latitude":50.3725535,"longitude":-4.142341,"name":"Armada Way near Cornwall Street","properties":{"access":"unknown","bicycle_pa":"stands","capacity":8,"covered":"no","fee":"","operator":"","nameSource":"junction"},"sourceId":"osm"},{"id":"osm:node:4874934537","latitude":50.3652274,"longitude":-4.1438596,"name":"Promenade near Lockyer Street","properties":{"access":"unknown","bicycle_pa":"stands","capacity":12,"covered":"no","fee":"","operator":"","nameSource":"junction"},"sourceId":"osm"},{"id":"osm:node:4874934666","latitude":50.3716824,"longitude":-4.1426578,"name":"Armada Way near New George Street","properties":{"access":"unknown","bicycle_pa":"stands","capacity":8,"covered":"no","fee":"","operator":"","nameSource":"junction"},"sourceId":"osm"},{"id":"osm:node:4900315432","latitude":50.3711834,"longitude":-4.1407747,"name":"Bedford Way near New George Street","properties":{"access":"unknown","bicycle_pa":"stands","capacity":12,"covered":"no","fee":"","operator":"","nameSource":"junction"},"sourceId":"osm"},{"id":"osm:node:4909239899","latitude":50.3723485,"longitude":-4.1413669,"name":"Cornwall Street near Armada Way","properties":{"access":"unknown","bicycle_pa":"stands","capacity":1,"covered":"no","fee":"","operator":"","nameSource":"junction"},"sourceId":"osm"},{"id":"osm:node:4909243381","latitude":50.3774436,"longitude":-4.1426587,"name":"Glen Park Avenue cycle parking","properties":{"access":"unknown","bicycle_pa":"stands","capacity":6,"covered":"yes","fee":"","operator":"","nameSource":"street"},"sourceId":"osm"},{"id":"osm:node:5211360226","latitude":50.3758936,"longitude":-4.1733671,"name":"Devonport Cafe cycle parking","properties":{"access":"unknown","bicycle_pa":"stands","capacity":6,"covered":"no","fee":"","operator":"","nameSource":"landmark"},"sourceId":"osm"},{"id":"osm:node:6783181796","latitude":50.3967032,"longitude":-4.140826,"name":"Torr Lane by Timpson","properties":{"access":"customers","bicycle_pa":"stands","capacity":4,"covered":"no","fee":"no","operator":"","nameSource":"landmark"},"sourceId":"osm"},{"id":"osm:node:6819754921","latitude":50.3487207,"longitude":-4.2159046,"name":"New Street near Dawes Lane","properties":{"access":"yes","bicycle_pa":"stands","capacity":9,"covered":"no","fee":"no","operator":"Millbrook Parish Council","nameSource":"junction"},"sourceId":"osm"},{"id":"osm:node:687984496","latitude":50.3721732,"longitude":-4.1325792,"name":"Beaumont Road near Ebrington Street","properties":{"access":"unknown","bicycle_pa":"stands","capacity":6,"covered":"no","fee":"","operator":"","nameSource":"junction"},"sourceId":"osm"},{"id":"osm:node:691766264","latitude":50.3723958,"longitude":-4.1395234,"name":"Eastlake Street near Cornwall Street","properties":{"access":"unknown","bicycle_pa":"stands","capacity":10,"covered":"no","fee":"","operator":"","nameSource":"junction"},"sourceId":"osm"},{"id":"osm:node:8267919280","latitude":50.3760247,"longitude":-4.138889,"name":"Sherwell Lane cycle parking","properties":{"access":"unknown","bicycle_pa":"stands","capacity":12,"covered":"yes","fee":"","operator":"","nameSource":"street"},"sourceId":"osm"},{"id":"osm:node:8268209092","latitude":50.3765156,"longitude":-4.138182,"name":"Endsleigh Place near Portland Square Lane North","properties":{"access":"private","bicycle_pa":"building","capacity":0,"covered":"yes","fee":"","operator":"","nameSource":"junction"},"sourceId":"osm"},{"id":"osm:node:8895567824","latitude":50.3725617,"longitude":-4.1433524,"name":"Cornwall Street near Armada Way","properties":{"access":"customers","bicycle_pa":"lockers","capacity":8,"covered":"yes","fee":"yes","operator":"","nameSource":"junction"},"sourceId":"osm"},{"id":"osm:node:8895567825","latitude":50.372433,"longitude":-4.1433078,"name":"Cornwall Street near Armada Way","properties":{"access":"yes","bicycle_pa":"stands","capacity":2,"covered":"no","fee":"no","operator":"","nameSource":"junction"},"sourceId":"osm"},{"id":"osm:node:9109486152","latitude":50.3658574,"longitude":-4.1768976,"name":"James Street near St Michael's Close","properties":{"access":"customers","bicycle_pa":"shed","capacity":4,"covered":"yes","fee":"yes","operator":"","nameSource":"junction"},"sourceId":"osm"},{"id":"osm:node:9109486210","latitude":50.3753999,"longitude":-4.1753127,"name":"St Aubyn Road cycle parking","properties":{"access":"unknown","bicycle_pa":"stands","capacity":6,"covered":"no","fee":"no","operator":"","nameSource":"street"},"sourceId":"osm"},{"id":"osm:node:9112213172","latitude":50.3654572,"longitude":-4.1747629,"name":"Garrison Close cycle parking","properties":{"access":"unknown","bicycle_pa":"rack","capacity":8,"covered":"no","fee":"","operator":"","nameSource":"street"},"sourceId":"osm"},{"id":"osm:node:9140444369","latitude":50.3857153,"longitude":-4.1516913,"name":"Brittany Way by Meadow Cafe","properties":{"access":"unknown","bicycle_pa":"rack","capacity":12,"covered":"no","fee":"no","operator":"","nameSource":"landmark"},"sourceId":"osm"},{"id":"osm:node:9170562637","latitude":50.3865234,"longitude":-4.1532385,"name":"Mayflower Drive cycle parking","properties":{"access":"yes","bicycle_pa":"shed","capacity":44,"covered":"","fee":"no","operator":"","nameSource":"street"},"sourceId":"osm"},{"id":"osm:node:9178894523","latitude":50.3755139,"longitude":-4.1704117,"name":"Exmouth Road near St Michael's Terrace","properties":{"access":"unknown","bicycle_pa":"stands","capacity":6,"covered":"no","fee":"no","operator":"","nameSource":"junction"},"sourceId":"osm"},{"id":"osm:node:9178894595","latitude":50.374065,"longitude":-4.1793642,"name":"Marlborough Street near New Passage Hill","properties":{"access":"unknown","bicycle_pa":"stands","capacity":8,"covered":"no","fee":"no","operator":"","nameSource":"junction"},"sourceId":"osm"},{"id":"osm:node:9206290479","latitude":50.3877609,"longitude":-4.152598,"name":"Jack Leslie Way cycle parking","properties":{"access":"yes","bicycle_pa":"stands","capacity":24,"covered":"yes","fee":"no","operator":"","nameSource":"street"},"sourceId":"osm"},{"id":"osm:node:9287202074","latitude":50.3885477,"longitude":-4.1536664,"name":"Outland Road cycle parking","properties":{"access":"private","bicycle_pa":"lockers","capacity":0,"covered":"yes","fee":"yes","operator":"","nameSource":"street"},"sourceId":"osm"},{"id":"osm:node:9307400419","latitude":50.3856847,"longitude":-4.1502889,"name":"Jubilee Row near Cascade Parh","properties":{"access":"yes","bicycle_pa":"stands","capacity":12,"covered":"no","fee":"","operator":"","nameSource":"junction"},"sourceId":"osm"},{"id":"osm:node:9307401719","latitude":50.3857054,"longitude":-4.1515746,"name":"Brittany Way by Meadow Cafe","properties":{"access":"unknown","bicycle_pa":"stands","capacity":10,"covered":"no","fee":"","operator":"","nameSource":"landmark"},"sourceId":"osm"},{"id":"osm:node:9311174023","latitude":50.3694776,"longitude":-4.1594747,"name":"Edgcombe Street near Edgcumbe Street","properties":{"access":"unknown","bicycle_pa":"stands","capacity":8,"covered":"no","fee":"","operator":"","nameSource":"junction"},"sourceId":"osm"},{"id":"osm:node:9311174028","latitude":50.3695313,"longitude":-4.1577551,"name":"Union Street by HomeFrame","properties":{"access":"unknown","bicycle_pa":"stands","capacity":6,"covered":"no","fee":"","operator":"","nameSource":"landmark"},"sourceId":"osm"},{"id":"osm:node:9311246524","latitude":50.3714126,"longitude":-4.1439801,"name":"New George Street near Courtenay Street","properties":{"access":"unknown","bicycle_pa":"stands","capacity":4,"covered":"no","fee":"","operator":"","nameSource":"junction"},"sourceId":"osm"},{"id":"osm:node:9328657925","latitude":50.3753369,"longitude":-4.1381226,"name":"Sherwell Lane cycle parking","properties":{"access":"unknown","bicycle_pa":"stands","capacity":34,"covered":"no","fee":"","operator":"","nameSource":"street"},"sourceId":"osm"},{"id":"osm:node:9335770521","latitude":50.3872965,"longitude":-4.1604095,"name":"North Prospect Road near Furneaux Road","properties":{"access":"unknown","bicycle_pa":"stands","capacity":6,"covered":"yes","fee":"","operator":"","nameSource":"junction"},"sourceId":"osm"},{"id":"osm:node:9335777327","latitude":50.3922125,"longitude":-4.1706597,"name":"Grassendale Avenue near Cookworthy Road","properties":{"access":"unknown","bicycle_pa":"stands","capacity":8,"covered":"no","fee":"","operator":"","nameSource":"junction"},"sourceId":"osm"},{"id":"osm:node:9367026918","latitude":50.3733457,"longitude":-4.137951,"name":"Charles Street near Drake Circus","properties":{"access":"unknown","bicycle_pa":"stands","capacity":14,"covered":"no","fee":"","operator":"","nameSource":"junction"},"sourceId":"osm"},{"id":"osm:node:9367026919","latitude":50.3738887,"longitude":-4.1382048,"name":"Drake Circus near Charles Street","properties":{"access":"unknown","bicycle_pa":"stands","capacity":4,"covered":"no","fee":"","operator":"","nameSource":"junction"},"sourceId":"osm"},{"id":"osm:node:9397623520","latitude":50.3807217,"longitude":-4.166304,"name":"Devonport Road near Masterman Road","properties":{"access":"yes","bicycle_pa":"stands","capacity":8,"covered":"no","fee":"no","operator":"","nameSource":"junction"},"sourceId":"osm"},{"id":"osm:node:9397886020","latitude":50.3877433,"longitude":-4.1527373,"name":"Jack Leslie Way cycle parking","properties":{"access":"unknown","bicycle_pa":"stands","capacity":8,"covered":"yes","fee":"","operator":"","nameSource":"street"},"sourceId":"osm"},{"id":"osm:node:9403599723","latitude":50.362782,"longitude":-4.1641406,"name":"Admiralty Road by The Royal William Bakery","properties":{"access":"yes","bicycle_pa":"stands","capacity":12,"covered":"no","fee":"","operator":"","nameSource":"landmark"},"sourceId":"osm"},{"id":"osm:node:9403599823","latitude":50.3626386,"longitude":-4.1646188,"name":"News Cafe cycle parking","properties":{"access":"unknown","bicycle_pa":"stands","capacity":6,"covered":"no","fee":"","operator":"","nameSource":"landmark"},"sourceId":"osm"},{"id":"osm:node:9403599847","latitude":50.3697043,"longitude":-4.1591134,"name":"Union Street near Edgcombe Street","properties":{"access":"unknown","bicycle_pa":"stands","capacity":4,"covered":"no","fee":"","operator":"","nameSource":"junction"},"sourceId":"osm"},{"id":"osm:node:9403600718","latitude":50.3618236,"longitude":-4.1669433,"name":"River Cottage Canteen, Plymouth cycle parking","properties":{"access":"unknown","bicycle_pa":"stands","capacity":2,"covered":"no","fee":"","operator":"","nameSource":"landmark"},"sourceId":"osm"},{"id":"osm:node:9406344359","latitude":50.3611538,"longitude":-4.1664502,"name":"River Cottage Canteen, Plymouth cycle parking","properties":{"access":"unknown","bicycle_pa":"stands","capacity":8,"covered":"no","fee":"","operator":"","nameSource":"landmark"},"sourceId":"osm"},{"id":"osm:node:9435170726","latitude":50.4008016,"longitude":-4.1852204,"name":"Wolseley Road near Fletemoor Road","properties":{"access":"unknown","bicycle_pa":"wall_loops","capacity":18,"covered":"no","fee":"","operator":"","nameSource":"junction"},"sourceId":"osm"},{"id":"osm:node:9438300925","latitude":50.3697001,"longitude":-4.1586275,"name":"Union Street near Edgcombe Street","properties":{"access":"unknown","bicycle_pa":"stands","capacity":4,"covered":"no","fee":"","operator":"","nameSource":"junction"},"sourceId":"osm"},{"id":"osm:node:9438301117","latitude":50.3720618,"longitude":-4.1482597,"name":"Western Approach near King Street","properties":{"access":"private","bicycle_pa":"lockers","capacity":0,"covered":"","fee":"","operator":"","nameSource":"junction"},"sourceId":"osm"},{"id":"osm:node:9439900554","latitude":50.3640994,"longitude":-4.1411747,"name":"Hoe Road near Madeira Road","properties":{"access":"unknown","bicycle_pa":"stands","capacity":8,"covered":"no","fee":"","operator":"","nameSource":"junction"},"sourceId":"osm"},{"id":"osm:node:9439922944","latitude":50.3638244,"longitude":-4.1468238,"name":"Hoe Road near Grand Parade","properties":{"access":"unknown","bicycle_pa":"stands","capacity":4,"covered":"no","fee":"","operator":"","nameSource":"junction"},"sourceId":"osm"},{"id":"osm:node:9456798417","latitude":50.3763656,"longitude":-4.1571637,"name":"Crawford Road near Wilton Street","properties":{"access":"unknown","bicycle_pa":"stands","capacity":8,"covered":"no","fee":"","operator":"","nameSource":"junction"},"sourceId":"osm"},{"id":"osm:node:9492443818","latitude":50.3816723,"longitude":-4.1763924,"name":"Herbert Street near Cross Hill","properties":{"access":"unknown","bicycle_pa":"","capacity":0,"covered":"","fee":"","operator":"","nameSource":"junction"},"sourceId":"osm"},{"id":"osm:node:9520808453","latitude":50.3832091,"longitude":-4.1341491,"name":"Mutley Plain near Belgrave Road","properties":{"access":"yes","bicycle_pa":"stands","capacity":14,"covered":"no","fee":"","operator":"","nameSource":"junction"},"sourceId":"osm"},{"id":"osm:node:9521837617","latitude":50.3760662,"longitude":-4.1825717,"name":"Pottery Road near Waterside Mews","properties":{"access":"private","bicycle_pa":"lockers","capacity":0,"covered":"","fee":"","operator":"","nameSource":"junction"},"sourceId":"osm"},{"id":"osm:node:9537425381","latitude":50.3723406,"longitude":-4.1362922,"name":"Charles Street near Charles Cross","properties":{"access":"unknown","bicycle_pa":"stands","capacity":8,"covered":"no","fee":"","operator":"","nameSource":"junction"},"sourceId":"osm"},{"id":"osm:node:9553103520","latitude":50.371415,"longitude":-4.1469627,"name":"Market Avenue near New George Street","properties":{"access":"unknown","bicycle_pa":"stands","capacity":8,"covered":"no","fee":"","operator":"","nameSource":"junction"},"sourceId":"osm"},{"id":"osm:node:9563733221","latitude":50.3770466,"longitude":-4.1383084,"name":"Endsleigh Gardens near Endsleigh Place","properties":{"access":"unknown","bicycle_pa":"stands","capacity":8,"covered":"yes","fee":"","operator":"","nameSource":"junction"},"sourceId":"osm"},{"id":"osm:node:9563733324","latitude":50.3746242,"longitude":-4.1398791,"name":"Glanville Street near James Street","properties":{"access":"unknown","bicycle_pa":"stands","capacity":12,"covered":"yes","fee":"","operator":"","nameSource":"junction"},"sourceId":"osm"},{"id":"osm:node:9563733325","latitude":50.3746635,"longitude":-4.1401499,"name":"Glanville Street near James Street","properties":{"access":"unknown","bicycle_pa":"stands","capacity":12,"covered":"yes","fee":"","operator":"","nameSource":"junction"},"sourceId":"osm"},{"id":"osm:node:9563733327","latitude":50.3708674,"longitude":-4.1373378,"name":"Exeter Street near Eastlake Ope","properties":{"access":"unknown","bicycle_pa":"stands","capacity":10,"covered":"yes","fee":"","operator":"","nameSource":"junction"},"sourceId":"osm"},{"id":"osm:node:9634060518","latitude":50.371337,"longitude":-4.1434027,"name":"New George Street near Armada Way","properties":{"access":"unknown","bicycle_pa":"stands","capacity":0,"covered":"no","fee":"","operator":"","nameSource":"junction"},"sourceId":"osm"},{"id":"osm:node:9634060918","latitude":50.3724675,"longitude":-4.1409674,"name":"Cornwall Street by Grape Tree","properties":{"access":"unknown","bicycle_pa":"stands","capacity":4,"covered":"no","fee":"","operator":"","nameSource":"landmark"},"sourceId":"osm"},{"id":"osm:node:9634060919","latitude":50.3724696,"longitude":-4.1410203,"name":"Cornwall Street by Grape Tree","properties":{"access":"unknown","bicycle_pa":"stands","capacity":2,"covered":"no","fee":"","operator":"","nameSource":"landmark"},"sourceId":"osm"},{"id":"osm:node:9644418134","latitude":50.3840606,"longitude":-4.1350139,"name":"B3250 near Hyde Park Road","properties":{"access":"unknown","bicycle_pa":"wall_loops","capacity":3,"covered":"no","fee":"","operator":"","nameSource":"junction"},"sourceId":"osm"},{"id":"osm:node:9687012667","latitude":50.3905499,"longitude":-4.1640238,"name":"North Prospect Road near Beacon Park Road","properties":{"access":"unknown","bicycle_pa":"stands","capacity":12,"covered":"no","fee":"","operator":"","nameSource":"junction"},"sourceId":"osm"},{"id":"osm:node:9699143017","latitude":50.3871505,"longitude":-4.1612658,"name":"Wolseley Road near Crantock Terrace","properties":{"access":"unknown","bicycle_pa":"stands","capacity":4,"covered":"no","fee":"","operator":"","nameSource":"junction"},"sourceId":"osm"},{"id":"osm:node:9704259536","latitude":50.3928905,"longitude":-4.1664629,"name":"North Prospect Road near Lark Hill","properties":{"access":"unknown","bicycle_pa":"stands","capacity":12,"covered":"yes","fee":"","operator":"","nameSource":"junction"},"sourceId":"osm"},{"id":"osm:node:9704259537","latitude":50.3928166,"longitude":-4.1664113,"name":"North Prospect Road near Lark Hill","properties":{"access":"unknown","bicycle_pa":"stands","capacity":12,"covered":"yes","fee":"","operator":"","nameSource":"junction"},"sourceId":"osm"},{"id":"osm:node:9704259921","latitude":50.3962777,"longitude":-4.1767665,"name":"Ferndale Road near Ferndale Avenue","properties":{"access":"unknown","bicycle_pa":"","capacity":0,"covered":"","fee":"","operator":"","nameSource":"junction"},"sourceId":"osm"},{"id":"osm:node:9719266118","latitude":50.365604,"longitude":-4.1634164,"name":"Admiral's Hard near Strand Street","properties":{"access":"private","bicycle_pa":"lockers","capacity":0,"covered":"","fee":"","operator":"","nameSource":"junction"},"sourceId":"osm"},{"id":"osm:node:9719266817","latitude":50.3653419,"longitude":-4.162657,"name":"Cremyll Street near Admiral's Hard","properties":{"access":"private","bicycle_pa":"lockers","capacity":0,"covered":"","fee":"","operator":"","nameSource":"junction"},"sourceId":"osm"},{"id":"osm:node:9722477717","latitude":50.3772723,"longitude":-4.1439278,"name":"Caprera Place near Caprera Terrace Lane","properties":{"access":"unknown","bicycle_pa":"stands","capacity":6,"covered":"yes","fee":"","operator":"","nameSource":"junction"},"sourceId":"osm"},{"id":"osm:node:9773868720","latitude":50.3683003,"longitude":-4.1415801,"name":"Notte Street near Princess Street Ope","properties":{"access":"unknown","bicycle_pa":"stands","capacity":6,"covered":"no","fee":"","operator":"","nameSource":"junction"},"sourceId":"osm"},{"id":"osm:node:9773880635","latitude":50.3635815,"longitude":-4.1423263,"name":"Hoe Road cycle parking","properties":{"access":"unknown","bicycle_pa":"stands","capacity":6,"covered":"no","fee":"","operator":"","nameSource":"street"},"sourceId":"osm"},{"id":"osm:node:9773880820","latitude":50.3633937,"longitude":-4.1347899,"name":"Madeira Road cycle parking","properties":{"access":"yes","bicycle_pa":"stands","capacity":10,"covered":"no","fee":"no","operator":"","nameSource":"street"},"sourceId":"osm"},{"id":"osm:node:9797132617","latitude":50.3671914,"longitude":-4.1772286,"name":"James Street near Prospect Row","properties":{"access":"private","bicycle_pa":"","capacity":0,"covered":"","fee":"","operator":"","nameSource":"junction"},"sourceId":"osm"},{"id":"osm:node:9811202442","latitude":50.3748679,"longitude":-4.1411395,"name":"Cobourg Street near James Street","properties":{"access":"unknown","bicycle_pa":"stands","capacity":16,"covered":"yes","fee":"no","operator":"","nameSource":"junction"},"sourceId":"osm"},{"id":"osm:node:9811202443","latitude":50.3748903,"longitude":-4.1412469,"name":"Cobourg Street near James Street","properties":{"access":"permissive","bicycle_pa":"stands","capacity":14,"covered":"no","fee":"no","operator":"","nameSource":"junction"},"sourceId":"osm"},{"id":"osm:node:9859286121","latitude":50.368616,"longitude":-4.1355457,"name":"Vauxhall Street near Exchange Street","properties":{"access":"private","bicycle_pa":"lockers","capacity":0,"covered":"","fee":"","operator":"","nameSource":"junction"},"sourceId":"osm"},{"id":"osm:node:9864805017","latitude":50.3749377,"longitude":-4.1406285,"name":"James Street near Glanville Street","properties":{"access":"unknown","bicycle_pa":"stands","capacity":12,"covered":"no","fee":"","operator":"","nameSource":"junction"},"sourceId":"osm"},{"id":"osm:node:9873277832","latitude":50.3693812,"longitude":-4.157781,"name":"Union Street cycle parking","properties":{"access":"unknown","bicycle_pa":"stands","capacity":14,"covered":"yes","fee":"","operator":"","nameSource":"street"},"sourceId":"osm"},{"id":"osm:node:9873278223","latitude":50.370238,"longitude":-4.173898,"name":"Chapel Street near Cumberland Road","properties":{"access":"unknown","bicycle_pa":"stands","capacity":6,"covered":"no","fee":"","operator":"","nameSource":"junction"},"sourceId":"osm"},{"id":"osm:node:9875364517","latitude":50.3928354,"longitude":-4.1727435,"name":"Wordsworth Road near Woodville Road","properties":{"access":"unknown","bicycle_pa":"","capacity":0,"covered":"","fee":"","operator":"","nameSource":"junction"},"sourceId":"osm"},{"id":"osm:node:9884035419","latitude":50.3691189,"longitude":-4.1758444,"name":"Ker Street near Monument Street","properties":{"access":"unknown","bicycle_pa":"stands","capacity":4,"covered":"no","fee":"","operator":"","nameSource":"junction"},"sourceId":"osm"},{"id":"osm:node:9898349725","latitude":50.3692983,"longitude":-4.1588115,"name":"Union Street near Edgcombe Street","properties":{"access":"private","bicycle_pa":"lockers","capacity":0,"covered":"","fee":"","operator":"","nameSource":"junction"},"sourceId":"osm"},{"id":"osm:node:9902929917","latitude":50.3686323,"longitude":-4.1413415,"name":"Princess Street Ope near Princess Street","properties":{"access":"unknown","bicycle_pa":"stands","capacity":10,"covered":"no","fee":"","operator":"","nameSource":"junction"},"sourceId":"osm"},{"id":"osm:node:9910275624","latitude":50.3596891,"longitude":-4.1316253,"name":"Lawrence Road by Koala Karlous Bagel Co.","properties":{"access":"private","bicycle_pa":"lockers","capacity":0,"covered":"","fee":"","operator":"","nameSource":"landmark"},"sourceId":"osm"},{"id":"osm:node:9915909830","latitude":50.3632084,"longitude":-4.1372446,"name":"Madeira Road cycle parking","properties":{"access":"unknown","bicycle_pa":"stands","capacity":2,"covered":"no","fee":"","operator":"","nameSource":"street"},"sourceId":"osm"},{"id":"osm:node:9915909831","latitude":50.3632983,"longitude":-4.1373141,"name":"Madeira Road cycle parking","properties":{"access":"unknown","bicycle_pa":"stands","capacity":2,"covered":"no","fee":"","operator":"","nameSource":"street"},"sourceId":"osm"},{"id":"osm:node:9915910021","latitude":50.363197,"longitude":-4.1370217,"name":"Madeira Road cycle parking","properties":{"access":"unknown","bicycle_pa":"stands","capacity":2,"covered":"no","fee":"","operator":"","nameSource":"street"},"sourceId":"osm"},{"id":"osm:node:9915910119","latitude":50.3631962,"longitude":-4.1371759,"name":"Madeira Road cycle parking","properties":{"access":"unknown","bicycle_pa":"stands","capacity":2,"covered":"no","fee":"","operator":"","nameSource":"street"},"sourceId":"osm"},{"id":"osm:node:9915910321","latitude":50.3628178,"longitude":-4.1483838,"name":"Grand Parade near Radford Road","properties":{"access":"unknown","bicycle_pa":"stands","capacity":2,"covered":"no","fee":"","operator":"","nameSource":"junction"},"sourceId":"osm"},{"id":"osm:node:9915910818","latitude":50.3688348,"longitude":-4.1564194,"name":"George Place near Battery Street","properties":{"access":"unknown","bicycle_pa":"wall_loops","capacity":5,"covered":"yes","fee":"","operator":"","nameSource":"junction"},"sourceId":"osm"},{"id":"osm:node:9930344318","latitude":50.3722552,"longitude":-4.14696,"name":"Cornwall Street near Market Avenue","properties":{"access":"unknown","bicycle_pa":"stands","capacity":8,"covered":"no","fee":"","operator":"","nameSource":"junction"},"sourceId":"osm"},{"id":"osm:node:9943543918","latitude":50.3700705,"longitude":-4.1445468,"name":"Royal Parade near Courtenay Street","properties":{"access":"unknown","bicycle_pa":"stands","capacity":6,"covered":"no","fee":"","operator":"","nameSource":"junction"},"sourceId":"osm"},{"id":"osm:node:9980658617","latitude":50.3643102,"longitude":-4.1448115,"name":"Hoe Road by The Coffee Shack","properties":{"access":"unknown","bicycle_pa":"stands","capacity":4,"covered":"no","fee":"","operator":"","nameSource":"landmark"},"sourceId":"osm"},{"id":"osm:node:9980658618","latitude":50.3651835,"longitude":-4.1458647,"name":"Promenade cycle parking","properties":{"access":"unknown","bicycle_pa":"stands","capacity":8,"covered":"no","fee":"","operator":"","nameSource":"street"},"sourceId":"osm"},{"id":"osm:node:9980658717","latitude":50.3643056,"longitude":-4.1447823,"name":"Hoe Road by The Coffee Shack","properties":{"access":"unknown","bicycle_pa":"stands","capacity":4,"covered":"no","fee":"","operator":"","nameSource":"landmark"},"sourceId":"osm"},{"id":"osm:way:1217571309","latitude":50.39434752,"longitude":-4.18902754,"name":"Fleet Accomodation Centre cycle parking","properties":{"access":"unknown","bicycle_pa":"shed","capacity":0,"covered":"yes","fee":"","operator":"","nameSource":"place"},"sourceId":"osm"},{"id":"osm:way:1217571310","latitude":50.39430564,"longitude":-4.1890037,"name":"Fleet Accomodation Centre cycle parking","properties":{"access":"unknown","bicycle_pa":"shed","capacity":0,"covered":"yes","fee":"","operator":"","nameSource":"place"},"sourceId":"osm"},{"id":"osm:way:1217571311","latitude":50.39426176,"longitude":-4.18898042,"name":"Fleet Accomodation Centre cycle parking","properties":{"access":"unknown","bicycle_pa":"shed","capacity":0,"covered":"yes","fee":"","operator":"","nameSource":"place"},"sourceId":"osm"},{"id":"osm:way:343494576","latitude":50.37531138000001,"longitude":-4.1379661599999995,"name":"Sherwell Lane cycle parking","properties":{"access":"unknown","bicycle_pa":"stands","capacity":20,"covered":"no","fee":"","operator":"","nameSource":"street"},"sourceId":"osm"},{"id":"osm:way:496454355","latitude":50.37496714,"longitude":-4.139552419999999,"name":"Glanville Street cycle parking","properties":{"access":"unknown","bicycle_pa":"stands","capacity":64,"covered":"no","fee":"","operator":"","nameSource":"street"},"sourceId":"osm"},{"id":"osm:way:923839998","latitude":50.37468035999999,"longitude":-4.13973866,"name":"Glanville Street near James Street","properties":{"access":"unknown","bicycle_pa":"stands","capacity":12,"covered":"no","fee":"","operator":"","nameSource":"junction"},"sourceId":"osm"}],"schemaVersion":2}
