{"key":"12/1947/1510","points":[{"id":"osm:node:12532101390","latitude":42.6540719,"longitude":-8.8175278,"name":"Paseo Marítimo by Albarellos","properties":{"access":"yes","bicycle_pa":"wall_loops","capacity":6,"covered":"no","fee":"no","operator":"","nameSource":"landmark"},"sourceId":"osm"},{"id":"osm:node:12532101397","latitude":42.6618551,"longitude":-8.8143648,"name":"Paseo Marítimo cycle parking","properties":{"access":"yes","bicycle_pa":"wall_loops","capacity":6,"covered":"no","fee":"no","operator":"","nameSource":"street"},"sourceId":"osm"},{"id":"osm:node:12532114403","latitude":42.6646694,"longitude":-8.8151926,"name":"Paseo Marítimo cycle parking","properties":{"access":"yes","bicycle_pa":"wall_loops","capacity":6,"covered":"no","fee":"no","operator":"","nameSource":"street"},"sourceId":"osm"},{"id":"osm:node:12532114404","latitude":42.6641945,"longitude":-8.8146922,"name":"Paseo Marítimo cycle parking","properties":{"access":"yes","bicycle_pa":"wall_loops","capacity":6,"covered":"no","fee":"no","operator":"","nameSource":"street"},"sourceId":"osm"},{"id":"osm:node:12532114460","latitude":42.6571226,"longitude":-8.8153493,"name":"Paseo Marítimo cycle parking","properties":{"access":"yes","bicycle_pa":"wall_loops","capacity":6,"covered":"no","fee":"no","operator":"","nameSource":"street"},"sourceId":"osm"},{"id":"osm:node:13703926435","latitude":42.6658903,"longitude":-8.8176703,"name":"Paseo Marítimo cycle parking","properties":{"access":"yes","bicycle_pa":"wall_loops","capacity":8,"covered":"no","fee":"no","operator":"","nameSource":"street"},"sourceId":"osm"},{"id":"osm:node:8600520036","latitude":42.6749817,"longitude":-8.8556966,"name":"DP-1106 cycle parking","properties":{"access":"unknown","bicycle_pa":"","capacity":4,"covered":"","fee":"","operator":"","nameSource":"street"},"sourceId":"osm"},{"id":"osm:node:8649186717","latitude":42.635579,"longitude":-8.8750108,"name":"DP-1107 by Centro de Saúde e Punto de Atención Continuada de Boiro","properties":{"access":"unknown","bicycle_pa":"stands","capacity":8,"covered":"","fee":"","operator":"","nameSource":"landmark"},"sourceId":"osm"},{"id":"osm:node:8691409616","latitude":42.6381601,"longitude":-8.8499528,"name":"Centro Social de Abanqueiro cycle parking","properties":{"access":"unknown","bicycle_pa":"stands","capacity":0,"covered":"","fee":"","operator":"","nameSource":"landmark"},"sourceId":"osm"},{"id":"osm:node:9960005682","latitude":42.655755,"longitude":-8.8760324,"name":"Rúa de Cimadevila by Tanatorio Santa Eulalia","properties":{"access":"unknown","bicycle_pa":"stands","capacity":8,"covered":"no","fee":"","operator":"","nameSource":"landmark"},"sourceId":"osm"}],"schemaVersion":2}
