{"key":"12/1947/1512","points":[{"id":"osm:node:10890446922","latitude":42.4965194,"longitude":-8.8649594,"name":"Praza Ventura Ferrer by Concello do Grove","properties":{"access":"yes","bicycle_pa":"wall_loops","capacity":6,"covered":"no","fee":"no","operator":"","nameSource":"landmark"},"sourceId":"osm"},{"id":"osm:node:10890446930","latitude":42.4931882,"longitude":-8.8638601,"name":"Rúa de Castelao near Rúa Pratería","properties":{"access":"yes","bicycle_pa":"stands","capacity":8,"covered":"no","fee":"no","operator":"","nameSource":"junction"},"sourceId":"osm"},{"id":"osm:node:10890446940","latitude":42.4935428,"longitude":-8.8650375,"name":"Rúa de Castelao near Rúa de Concepción Arenal","properties":{"access":"yes","bicycle_pa":"stands","capacity":8,"covered":"no","fee":"no","operator":"","nameSource":"junction"},"sourceId":"osm"},{"id":"osm:node:11335627661","latitude":42.5457731,"longitude":-8.8645883,"name":"Restaurante Evolet cycle parking","properties":{"access":"yes","bicycle_pa":"stands","capacity":10,"covered":"yes","fee":"no","operator":"","nameSource":"landmark"},"sourceId":"osm"},{"id":"osm:node:5028041546","latitude":42.4955546,"longitude":-8.8608681,"name":"Avenida de Beiramar by La Estación","properties":{"access":"unknown","bicycle_pa":"","capacity":0,"covered":"","fee":"","operator":"","nameSource":"landmark"},"sourceId":"osm"}],"schemaVersion":2}
