{"key":"12/2025/1320","points":[{"id":"osm:node:11178900613","latitude":53.7302245,"longitude":-1.9823684,"name":"New Road near Coiners Wharfe","properties":{"access":"unknown","bicycle_pa":"stands","capacity":4,"covered":"no","fee":"","operator":"","nameSource":"junction"},"sourceId":"osm"},{"id":"osm:node:11178934435","latitude":53.7289796,"longitude":-1.9817511,"name":"Royal Fold by Mytholmroyd","properties":{"access":"unknown","bicycle_pa":"stands","capacity":8,"covered":"no","fee":"","operator":"","nameSource":"landmark"},"sourceId":"osm"},{"id":"osm:node:11178950805","latitude":53.7292119,"longitude":-1.9828544,"name":"New Road near Royal Fold","properties":{"access":"unknown","bicycle_pa":"stands","capacity":8,"covered":"yes","fee":"","operator":"","nameSource":"junction"},"sourceId":"osm"},{"id":"osm:node:12140240469","latitude":53.7378652,"longitude":-2.0086851,"name":"Station Road by Coffee Station","properties":{"access":"yes","bicycle_pa":"stands","capacity":8,"covered":"yes","fee":"no","operator":"","nameSource":"landmark"},"sourceId":"osm"},{"id":"osm:node:12140240470","latitude":53.7398461,"longitude":-2.0130991,"name":"Hebden Bridge Visitor and Canal Centre by Park Life Cafe","properties":{"access":"yes","bicycle_pa":"stands","capacity":8,"covered":"no","fee":"no","operator":"","nameSource":"landmark"},"sourceId":"osm"},{"id":"osm:node:12140240471","latitude":53.7415721,"longitude":-2.0135399,"name":"Bridge Gate near Hebden Old Bridge","properties":{"access":"yes","bicycle_pa":"stands","capacity":2,"covered":"no","fee":"no","operator":"","nameSource":"junction"},"sourceId":"osm"},{"id":"osm:node:12140240472","latitude":53.7421862,"longitude":-2.0125214,"name":"Bridge Gate near St George's Square","properties":{"access":"unknown","bicycle_pa":"stands","capacity":2,"covered":"no","fee":"no","operator":"","nameSource":"junction"},"sourceId":"osm"},{"id":"osm:node:12876509080","latitude":53.7411859,"longitude":-2.0145466,"name":"West End near Market Street","properties":{"access":"customers","bicycle_pa":"stands","capacity":2,"covered":"no","fee":"","operator":"","nameSource":"junction"},"sourceId":"osm"},{"id":"osm:node:13071350788","latitude":53.7405655,"longitude":-2.0119246,"name":"Hebden Bridge Visitor and Canal Centre by Calder Kindness","properties":{"access":"yes","bicycle_pa":"stands","capacity":8,"covered":"no","fee":"no","operator":"","nameSource":"landmark"},"sourceId":"osm"},{"id":"osm:node:13168150701","latitude":53.740938,"longitude":-2.0134627,"name":"Crown Street near New Road","properties":{"access":"unknown","bicycle_pa":"","capacity":0,"covered":"","fee":"","operator":"","nameSource":"junction"},"sourceId":"osm"},{"id":"osm:node:8805455600","latitude":53.7290848,"longitude":-1.981464,"name":"George Street by Mytholmroyd","properties":{"access":"unknown","bicycle_pa":"stands","capacity":4,"covered":"no","fee":"no","operator":"","nameSource":"landmark"},"sourceId":"osm"},{"id":"osm:way:100055741","latitude":53.738136440000005,"longitude":-2.0095194800000002,"name":"Station Road cycle parking","properties":{"access":"yes","bicycle_pa":"covered","capacity":10,"covered":"yes","fee":"no","operator":"Northern Rail","nameSource":"street"},"sourceId":"osm"}],"schemaVersion":2}
