{"key":"12/2025/1351","points":[{"id":"osm:node:12020135431","latitude":52.092313,"longitude":-1.9505916,"name":"Bourne's Place near Merstow Green","properties":{"access":"unknown","bicycle_pa":"stands","capacity":6,"covered":"yes","fee":"","operator":"","nameSource":"junction"},"sourceId":"osm"},{"id":"osm:node:12918817119","latitude":52.0945845,"longitude":-1.946911,"name":"Avon Street near High Street","properties":{"access":"unknown","bicycle_pa":"stands","capacity":6,"covered":"no","fee":"","operator":"","nameSource":"junction"},"sourceId":"osm"},{"id":"osm:node:2283281781","latitude":52.0882422,"longitude":-1.9540806,"name":"Rivers Cafe cycle parking","properties":{"access":"unknown","bicycle_pa":"stands","capacity":20,"covered":"","fee":"","operator":"","nameSource":"landmark"},"sourceId":"osm"},{"id":"osm:node:313165126","latitude":52.0905086,"longitude":-1.9382916,"name":"Port Street near Shor Street","properties":{"access":"unknown","bicycle_pa":"stands","capacity":4,"covered":"no","fee":"","operator":"","nameSource":"junction"},"sourceId":"osm"},{"id":"osm:node:313165127","latitude":52.0919001,"longitude":-1.9442786,"name":"Mill Street near Bridge Street","properties":{"access":"unknown","bicycle_pa":"wall_loops","capacity":4,"covered":"no","fee":"","operator":"","nameSource":"junction"},"sourceId":"osm"},{"id":"osm:node:4213117642","latitude":52.0922925,"longitude":-1.947712,"name":"Market Square near Vine Street","properties":{"access":"unknown","bicycle_pa":"stands","capacity":6,"covered":"no","fee":"","operator":"","nameSource":"junction"},"sourceId":"osm"},{"id":"osm:node:5725994525","latitude":52.0933269,"longitude":-1.9469772,"name":"High Street near Oat Street","properties":{"access":"unknown","bicycle_pa":"stands","capacity":4,"covered":"no","fee":"","operator":"","nameSource":"junction"},"sourceId":"osm"},{"id":"osm:way:294354551","latitude":52.098361440000005,"longitude":-1.9470277,"name":"Worcester Road near Goodalls Grove","properties":{"access":"yes","bicycle_pa":"lockers","capacity":6,"covered":"","fee":"no","operator":"","nameSource":"junction"},"sourceId":"osm"}],"schemaVersion":2}
