{"key":"12/2025/1501","points":[{"id":"osm:node:10294799195","latitude":43.2242996,"longitude":-2.0214154,"name":"Illarramendi Etorbidea near Ama Kandida Etorbidea","properties":{"access":"unknown","bicycle_pa":"wall_loops","capacity":8,"covered":"no","fee":"","operator":"","nameSource":"junction"},"sourceId":"osm"},{"id":"osm:node:11569437736","latitude":43.2227374,"longitude":-2.016269,"name":"Gudarien etorbidea near Guarden etorbidea","properties":{"access":"yes","bicycle_pa":"safe_loops","capacity":3,"covered":"no","fee":"no","operator":"","nameSource":"junction"},"sourceId":"osm"},{"id":"osm:node:11569437738","latitude":43.2227881,"longitude":-2.0161544,"name":"Gudarien etorbidea near Guarden etorbidea","properties":{"access":"yes","bicycle_pa":"safe_loops","capacity":3,"covered":"no","fee":"no","operator":"","nameSource":"junction"},"sourceId":"osm"},{"id":"osm:node:9612982335","latitude":43.2182558,"longitude":-2.0174747,"name":"Galardi kalea by ️ Parking PMR [discapacitados]","properties":{"access":"yes","bicycle_pa":"wall_loops","capacity":6,"covered":"no","fee":"","operator":"","nameSource":"landmark"},"sourceId":"osm"},{"id":"osm:way:1031628583","latitude":43.2180501,"longitude":-2.021048583333333,"name":"Kale Nagusia near Juan Bautista Erro kalea","properties":{"access":"yes","bicycle_pa":"wall_loops","capacity":5,"covered":"no","fee":"","operator":"","nameSource":"junction"},"sourceId":"osm"},{"id":"osm:way:1062995521","latitude":43.21607414,"longitude":-2.0193682799999997,"name":"Plazaolako Bide Berdea cycle parking","properties":{"access":"unknown","bicycle_pa":"wall_loops","capacity":15,"covered":"no","fee":"","operator":"","nameSource":"street"},"sourceId":"osm"},{"id":"osm:way:1458306577","latitude":43.22215198,"longitude":-2.01916062,"name":"Ama Kandida etorbidea near Buruntza auzoa","properties":{"access":"yes","bicycle_pa":"stands","capacity":10,"covered":"no","fee":"no","operator":"","nameSource":"junction"},"sourceId":"osm"},{"id":"osm:way:1460228979","latitude":43.222548620000005,"longitude":-2.01979226,"name":"Ama Kandida etorbidea near ama kandida etorbidea","properties":{"access":"unknown","bicycle_pa":"stands","capacity":5,"covered":"no","fee":"","operator":"","nameSource":"junction"},"sourceId":"osm"},{"id":"osm:way:1460228997","latitude":43.22199612499999,"longitude":-2.0182262874999997,"name":"Ama Kandida etorbidea near Buruntza auzoa","properties":{"access":"unknown","bicycle_pa":"stands","capacity":15,"covered":"no","fee":"","operator":"","nameSource":"junction"},"sourceId":"osm"}],"schemaVersion":2}
