{"key":"12/1982/1527","points":[{"id":"osm:node:11977827307","latitude":41.5160891,"longitude":-5.7391954,"name":"Carretera de la Estación cycle parking","properties":{"access":"yes","bicycle_pa":"stands","capacity":24,"covered":"no","fee":"no","operator":"","nameSource":"street"},"sourceId":"osm"},{"id":"osm:node:11977827309","latitude":41.5160035,"longitude":-5.7388359,"name":"Carretera de la Estación cycle parking","properties":{"access":"yes","bicycle_pa":"shed","capacity":6,"covered":"yes","fee":"yes","operator":"ADIF","nameSource":"street"},"sourceId":"osm"},{"id":"osm:node:12985717664","latitude":41.5137461,"longitude":-5.7569441,"name":"Camino de la Lobata near Calle de la Cierva","properties":{"access":"yes","bicycle_pa":"stands","capacity":0,"covered":"no","fee":"no","operator":"","nameSource":"junction"},"sourceId":"osm"},{"id":"osm:node:13294710728","latitude":41.5130285,"longitude":-5.7400835,"name":"Avenida de Federico Cantero Villamil near Calle de Brahones","properties":{"access":"unknown","bicycle_pa":"stands","capacity":6,"covered":"no","fee":"","operator":"","nameSource":"junction"},"sourceId":"osm"},{"id":"osm:node:13294710729","latitude":41.5158011,"longitude":-5.7390942,"name":"Carretera de la Estación cycle parking","properties":{"access":"unknown","bicycle_pa":"stands","capacity":8,"covered":"","fee":"","operator":"","nameSource":"street"},"sourceId":"osm"}],"schemaVersion":2}
