{"key":"12/2079/1520","points":[{"id":"osm:node:10308547646","latitude":41.9757462,"longitude":2.7983755,"name":"Carrer de l'Abat Oliba near Plaça del Veïnat","properties":{"access":"unknown","bicycle_pa":"stands","capacity":1,"covered":"","fee":"","operator":"","nameSource":"junction"},"sourceId":"osm"},{"id":"osm:node:13982919230","latitude":41.9683507,"longitude":2.7438957,"name":"Via Verda Olot - Girona by Espai jove Bescanó","properties":{"access":"unknown","bicycle_pa":"wall_loops","capacity":6,"covered":"","fee":"","operator":"","nameSource":"landmark"},"sourceId":"osm"},{"id":"osm:node:13988118855","latitude":41.9814041,"longitude":2.8102189,"name":"Carrer del Poble Sahrauí near Avinguda de Josep Tarradellas i Joan","properties":{"access":"yes","bicycle_pa":"stands","capacity":16,"covered":"no","fee":"no","operator":"","nameSource":"junction"},"sourceId":"osm"},{"id":"osm:node:1769765908","latitude":41.9833863,"longitude":2.8117418,"name":"Carrer del Torín near Carrer Mossèn Joan Pons","properties":{"access":"unknown","bicycle_pa":"wall_loops","capacity":6,"covered":"no","fee":"","operator":"","nameSource":"junction"},"sourceId":"osm"},{"id":"osm:node:1942516092","latitude":41.9781511,"longitude":2.80675,"name":"Carrer dels Marfà near Carrer de la Marfà","properties":{"access":"unknown","bicycle_pa":"","capacity":0,"covered":"","fee":"","operator":"","nameSource":"junction"},"sourceId":"osm"},{"id":"osm:node:4714156188","latitude":41.9775879,"longitude":2.8071565,"name":"Carrer de Santa Eugènia near Carrer de Francesc Estival i Cisa","properties":{"access":"unknown","bicycle_pa":"stands","capacity":7,"covered":"no","fee":"no","operator":"","nameSource":"junction"},"sourceId":"osm"},{"id":"osm:node:4714163723","latitude":41.9770778,"longitude":2.8012306,"name":"Carrer de Manel Viñas Graugés near Carrer de Santa Eugènia","properties":{"access":"unknown","bicycle_pa":"Pàrquing bicicletes","capacity":0,"covered":"","fee":"","operator":"","nameSource":"junction"},"sourceId":"osm"},{"id":"osm:node:4721159726","latitude":41.9776329,"longitude":2.8077777,"name":"Carrer de Santa Eugènia near Carrer d'Orient","properties":{"access":"unknown","bicycle_pa":"stands","capacity":3,"covered":"no","fee":"","operator":"","nameSource":"junction"},"sourceId":"osm"},{"id":"osm:node:5357033820","latitude":41.9845645,"longitude":2.8105111,"name":"Passeig de la Devesa near Plaça de l'Assemblea de Catalunya","properties":{"access":"unknown","bicycle_pa":"stands","capacity":10,"covered":"","fee":"","operator":"","nameSource":"junction"},"sourceId":"osm"},{"id":"osm:node:5357038821","latitude":41.9831529,"longitude":2.8108947,"name":"Carrer Mossèn Joan Pons near Carrer de l'Illa","properties":{"access":"unknown","bicycle_pa":"stands","capacity":4,"covered":"no","fee":"","operator":"","nameSource":"junction"},"sourceId":"osm"},{"id":"osm:node:6544272558","latitude":41.9684438,"longitude":2.7857362,"name":"Carrer del Pla de Salt by Comissaria dels Mossos d'Esquadra a Salt","properties":{"access":"unknown","bicycle_pa":"","capacity":6,"covered":"","fee":"","operator":"","nameSource":"landmark"},"sourceId":"osm"},{"id":"osm:node:6544272559","latitude":41.9682427,"longitude":2.7808788,"name":"Carrer de Sant Roc near Carrer de Rocacorba","properties":{"access":"unknown","bicycle_pa":"","capacity":4,"covered":"","fee":"","operator":"","nameSource":"junction"},"sourceId":"osm"},{"id":"osm:node:6544272560","latitude":41.9699497,"longitude":2.7831571,"name":"Carrer Miquel Martí i Pol cycle parking","properties":{"access":"unknown","bicycle_pa":"","capacity":12,"covered":"","fee":"","operator":"","nameSource":"street"},"sourceId":"osm"},{"id":"osm:node:6544272561","latitude":41.9699444,"longitude":2.7830991,"name":"Carrer Miquel Martí i Pol cycle parking","properties":{"access":"unknown","bicycle_pa":"","capacity":8,"covered":"","fee":"","operator":"","nameSource":"street"},"sourceId":"osm"},{"id":"osm:node:6544272562","latitude":41.9709071,"longitude":2.7833441,"name":"Via Verda Olot - Girona cycle parking","properties":{"access":"unknown","bicycle_pa":"stands","capacity":12,"covered":"no","fee":"","operator":"","nameSource":"street"},"sourceId":"osm"},{"id":"osm:node:6544272563","latitude":41.970061,"longitude":2.7867167,"name":"Passeig del Marquès de Camps near Carrer de les Guilleries","properties":{"access":"unknown","bicycle_pa":"","capacity":6,"covered":"","fee":"","operator":"","nameSource":"junction"},"sourceId":"osm"},{"id":"osm:node:6544272564","latitude":41.9685373,"longitude":2.7874482,"name":"Carrer Josep Maria Folch i Torres near Passeig del Marquès de Camps","properties":{"access":"unknown","bicycle_pa":"","capacity":6,"covered":"","fee":"","operator":"","nameSource":"junction"},"sourceId":"osm"},{"id":"osm:node:6544272565","latitude":41.9707399,"longitude":2.7893087,"name":"Carrer de les Guilleries near Carrer Xavier Montsalvatge","properties":{"access":"unknown","bicycle_pa":"","capacity":6,"covered":"","fee":"","operator":"","nameSource":"junction"},"sourceId":"osm"},{"id":"osm:node:6544272566","latitude":41.9711923,"longitude":2.7890746,"name":"Carrer del Montseny near Plaça del Canigó","properties":{"access":"unknown","bicycle_pa":"","capacity":6,"covered":"","fee":"","operator":"","nameSource":"junction"},"sourceId":"osm"},{"id":"osm:node:6544272567","latitude":41.9718215,"longitude":2.7912329,"name":"Carrer Tres de Març near Via Verda Olot - Girona","properties":{"access":"unknown","bicycle_pa":"","capacity":6,"covered":"","fee":"","operator":"","nameSource":"junction"},"sourceId":"osm"},{"id":"osm:node:6544272568","latitude":41.9720089,"longitude":2.7927519,"name":"Passatge del Telleret de Salt near Via Verda Olot - Girona","properties":{"access":"unknown","bicycle_pa":"","capacity":6,"covered":"","fee":"","operator":"","nameSource":"junction"},"sourceId":"osm"},{"id":"osm:node:6544272569","latitude":41.9731992,"longitude":2.8006355,"name":"Carrer d'Alfons Moré near Via Verda Olot - Girona","properties":{"access":"unknown","bicycle_pa":"","capacity":6,"covered":"","fee":"","operator":"","nameSource":"junction"},"sourceId":"osm"},{"id":"osm:node:6544272570","latitude":41.973853,"longitude":2.8009828,"name":"Carril bici near Carrer d'Alfons Moré","properties":{"access":"unknown","bicycle_pa":"","capacity":6,"covered":"","fee":"","operator":"","nameSource":"junction"},"sourceId":"osm"},{"id":"osm:node:6544272571","latitude":41.9740396,"longitude":2.7976019,"name":"Carrer de Sant Romà near Carrer del Mossèn Sebastià Puig","properties":{"access":"unknown","bicycle_pa":"","capacity":4,"covered":"","fee":"","operator":"","nameSource":"junction"},"sourceId":"osm"},{"id":"osm:node:6544272572","latitude":41.9736628,"longitude":2.7963633,"name":"Carrer de Miguel de Cervantes near Carrer dels Països Catalans","properties":{"access":"unknown","bicycle_pa":"","capacity":12,"covered":"","fee":"","operator":"","nameSource":"junction"},"sourceId":"osm"},{"id":"osm:node:6544491517","latitude":41.9742854,"longitude":2.7920502,"name":"Passatge de la Sagrada Família near Carrer d'Àngel Guimerà","properties":{"access":"unknown","bicycle_pa":"","capacity":4,"covered":"","fee":"","operator":"","nameSource":"junction"},"sourceId":"osm"},{"id":"osm:node:6544491518","latitude":41.9744945,"longitude":2.7928616,"name":"Carrer d'Àngel Guimerà near Plaça del President Lluís Companys","properties":{"access":"unknown","bicycle_pa":"","capacity":6,"covered":"","fee":"","operator":"","nameSource":"junction"},"sourceId":"osm"},{"id":"osm:node:6544491519","latitude":41.9746742,"longitude":2.7928429,"name":"Plaça del President Lluís Companys near Carrer d'Àngel Guimerà","properties":{"access":"unknown","bicycle_pa":"","capacity":16,"covered":"","fee":"","operator":"","nameSource":"junction"},"sourceId":"osm"},{"id":"osm:node:6544491520","latitude":41.9722776,"longitude":2.7867423,"name":"Carrer de Josep Torras i Bages near Passatge d'Elisenda de Montcada","properties":{"access":"unknown","bicycle_pa":"","capacity":6,"covered":"","fee":"","operator":"","nameSource":"junction"},"sourceId":"osm"},{"id":"osm:node:6544491521","latitude":41.9721514,"longitude":2.786789,"name":"Passeig Països Catalans by Mercadona","properties":{"access":"unknown","bicycle_pa":"","capacity":6,"covered":"","fee":"","operator":"","nameSource":"landmark"},"sourceId":"osm"},{"id":"osm:node:6544491522","latitude":41.9724762,"longitude":2.7861117,"name":"Carrer del Greco near Passeig del Marquès de Camps","properties":{"access":"unknown","bicycle_pa":"","capacity":5,"covered":"","fee":"","operator":"","nameSource":"junction"},"sourceId":"osm"},{"id":"osm:node:6544491523","latitude":41.9734774,"longitude":2.7847168,"name":"Carrer Major near Plaça de Verdaguer","properties":{"access":"unknown","bicycle_pa":"","capacity":5,"covered":"","fee":"","operator":"","nameSource":"junction"},"sourceId":"osm"},{"id":"osm:node:6544491524","latitude":41.97353,"longitude":2.7852529,"name":"Carrer Major near Plaça de l'Onze de Setembre","properties":{"access":"unknown","bicycle_pa":"","capacity":5,"covered":"","fee":"","operator":"","nameSource":"junction"},"sourceId":"osm"},{"id":"osm:node:6544491525","latitude":41.973987,"longitude":2.7867611,"name":"Carrer Major near Carrer Curt","properties":{"access":"unknown","bicycle_pa":"","capacity":5,"covered":"","fee":"","operator":"","nameSource":"junction"},"sourceId":"osm"},{"id":"osm:node:6544491526","latitude":41.9745274,"longitude":2.7885046,"name":"Carrer Major near Carrer del Doctor Ferran","properties":{"access":"unknown","bicycle_pa":"","capacity":5,"covered":"","fee":"","operator":"","nameSource":"junction"},"sourceId":"osm"},{"id":"osm:node:6544491527","latitude":41.9741881,"longitude":2.7798446,"name":"Carrer Lluís Moreno near Carrer de Joan Salvat-Papasseit","properties":{"access":"unknown","bicycle_pa":"","capacity":6,"covered":"","fee":"","operator":"","nameSource":"junction"},"sourceId":"osm"},{"id":"osm:node:6544491528","latitude":41.974168,"longitude":2.7816786,"name":"plaça de la Vila near Carrer Doctor Fleming","properties":{"access":"unknown","bicycle_pa":"","capacity":6,"covered":"","fee":"","operator":"","nameSource":"junction"},"sourceId":"osm"},{"id":"osm:node:6544491529","latitude":41.9746041,"longitude":2.7827602,"name":"Carrer de Josep Aguilera near Carrer Llarg","properties":{"access":"unknown","bicycle_pa":"","capacity":2,"covered":"","fee":"","operator":"","nameSource":"junction"},"sourceId":"osm"},{"id":"osm:node:6544491530","latitude":41.9748555,"longitude":2.7833603,"name":"Carrer de Sant Joan near Carrer Llarg","properties":{"access":"unknown","bicycle_pa":"","capacity":2,"covered":"","fee":"","operator":"","nameSource":"junction"},"sourceId":"osm"},{"id":"osm:node:6544491531","latitude":41.9747738,"longitude":2.7840832,"name":"Carrer de Santa Afra near Carrer Llarg","properties":{"access":"unknown","bicycle_pa":"","capacity":2,"covered":"","fee":"","operator":"","nameSource":"junction"},"sourceId":"osm"},{"id":"osm:node:6544491532","latitude":41.975096,"longitude":2.7914952,"name":"Carrer del President Francesc Macià near Carrer Major","properties":{"access":"unknown","bicycle_pa":"","capacity":5,"covered":"","fee":"","operator":"","nameSource":"junction"},"sourceId":"osm"},{"id":"osm:node:6544491533","latitude":41.9754241,"longitude":2.7934948,"name":"Carrer de Pere Gallostra near Carrer Major","properties":{"access":"unknown","bicycle_pa":"wall_loops","capacity":5,"covered":"","fee":"","operator":"","nameSource":"junction"},"sourceId":"osm"},{"id":"osm:node:6544491534","latitude":41.9755675,"longitude":2.7945492,"name":"Passeig Ciutat de Girona near Carrer Joan de la Cierva","properties":{"access":"unknown","bicycle_pa":"wall_loops","capacity":5,"covered":"","fee":"","operator":"","nameSource":"junction"},"sourceId":"osm"},{"id":"osm:node:6544491535","latitude":41.975774,"longitude":2.7959569,"name":"Carrer Major near Carrer de Miguel de Cervantes","properties":{"access":"unknown","bicycle_pa":"wall_loops","capacity":4,"covered":"","fee":"","operator":"","nameSource":"junction"},"sourceId":"osm"},{"id":"osm:node:6544491536","latitude":41.975874,"longitude":2.7967347,"name":"Carrer del Doctor Castany near Carrer Major","properties":{"access":"unknown","bicycle_pa":"wall_loops","capacity":5,"covered":"","fee":"","operator":"","nameSource":"junction"},"sourceId":"osm"},{"id":"osm:node:6544491537","latitude":41.9763417,"longitude":2.8002618,"name":"Travessia de Santa Eugènia near Carrer de Santa Eugènia","properties":{"access":"unknown","bicycle_pa":"","capacity":5,"covered":"","fee":"","operator":"","nameSource":"junction"},"sourceId":"osm"},{"id":"osm:node:6544491538","latitude":41.9753353,"longitude":2.7909668,"name":"Carrer Major near Carrer del President Francesc Macià","properties":{"access":"unknown","bicycle_pa":"","capacity":6,"covered":"","fee":"","operator":"","nameSource":"junction"},"sourceId":"osm"},{"id":"osm:node:6544491539","latitude":41.9757509,"longitude":2.791232,"name":"Carrer de Pius XII near Passeig Ciutat de Girona","properties":{"access":"unknown","bicycle_pa":"","capacity":8,"covered":"","fee":"","operator":"","nameSource":"junction"},"sourceId":"osm"},{"id":"osm:node:6544491540","latitude":41.9757101,"longitude":2.7917229,"name":"Carrer de Pius XII near Passeig Ciutat de Girona","properties":{"access":"unknown","bicycle_pa":"","capacity":3,"covered":"","fee":"","operator":"","nameSource":"junction"},"sourceId":"osm"},{"id":"osm:node:6544491541","latitude":41.9762209,"longitude":2.7906385,"name":"Carrer de Sant Dionís cycle parking","properties":{"access":"unknown","bicycle_pa":"","capacity":6,"covered":"","fee":"","operator":"","nameSource":"street"},"sourceId":"osm"},{"id":"osm:node:6544491542","latitude":41.9757575,"longitude":2.7922275,"name":"Carrer de Manuel de Falla near Carrer Pau Casals","properties":{"access":"unknown","bicycle_pa":"","capacity":3,"covered":"","fee":"","operator":"","nameSource":"junction"},"sourceId":"osm"},{"id":"osm:node:6544491543","latitude":41.9760659,"longitude":2.7925418,"name":"Carrer Pau Casals near Carrer de Manuel de Falla","properties":{"access":"unknown","bicycle_pa":"","capacity":6,"covered":"","fee":"","operator":"","nameSource":"junction"},"sourceId":"osm"},{"id":"osm:node:6544491544","latitude":41.977375,"longitude":2.7958524,"name":"Plaça U d'Octubre near Carrer Sant Antoni","properties":{"access":"unknown","bicycle_pa":"","capacity":6,"covered":"no","fee":"no","operator":"","nameSource":"junction"},"sourceId":"osm"},{"id":"osm:node:6544491545","latitude":41.977509,"longitude":2.7968827,"name":"Carrer Sant Antoni near Carrer de Jaume Vicenç Vives","properties":{"access":"unknown","bicycle_pa":"","capacity":2,"covered":"","fee":"","operator":"","nameSource":"junction"},"sourceId":"osm"},{"id":"osm:node:6544491546","latitude":41.977521,"longitude":2.7969435,"name":"Carrer Sant Antoni near Carrer de Jaume Vicenç Vives","properties":{"access":"unknown","bicycle_pa":"","capacity":2,"covered":"","fee":"","operator":"","nameSource":"junction"},"sourceId":"osm"},{"id":"osm:node:6544491547","latitude":41.9775325,"longitude":2.7969928,"name":"Carrer de les Filadores near Carrer de Jaume Vicenç Vives","properties":{"access":"unknown","bicycle_pa":"","capacity":2,"covered":"","fee":"","operator":"","nameSource":"junction"},"sourceId":"osm"},{"id":"osm:node:6544491548","latitude":41.9783009,"longitude":2.7990753,"name":"Carrer de les Teixidores near Carrer de les Filadores","properties":{"access":"unknown","bicycle_pa":"","capacity":6,"covered":"","fee":"","operator":"","nameSource":"junction"},"sourceId":"osm"},{"id":"osm:node:6544491549","latitude":41.9774275,"longitude":2.7932361,"name":"Passatge de la Fàbrica Tèxtil Coma Cros cycle parking","properties":{"access":"unknown","bicycle_pa":"","capacity":6,"covered":"","fee":"","operator":"","nameSource":"street"},"sourceId":"osm"},{"id":"osm:node:6544491550","latitude":41.9771952,"longitude":2.7926393,"name":"Passatge de la Fàbrica Tèxtil Coma Cros cycle parking","properties":{"access":"unknown","bicycle_pa":"","capacity":6,"covered":"","fee":"","operator":"","nameSource":"street"},"sourceId":"osm"},{"id":"osm:node:6544491551","latitude":41.977908,"longitude":2.7936894,"name":"Passatge de la Fàbrica Tèxtil Coma Cros cycle parking","properties":{"access":"unknown","bicycle_pa":"","capacity":20,"covered":"","fee":"","operator":"","nameSource":"street"},"sourceId":"osm"},{"id":"osm:node:6544491552","latitude":41.9778223,"longitude":2.7925468,"name":"Passatge de la Fàbrica Tèxtil Coma Cros cycle parking","properties":{"access":"unknown","bicycle_pa":"","capacity":8,"covered":"","fee":"","operator":"","nameSource":"street"},"sourceId":"osm"},{"id":"osm:node:6544491553","latitude":41.9779429,"longitude":2.7925119,"name":"Passatge de la Fàbrica Tèxtil Coma Cros by Institut Vallvera","properties":{"access":"unknown","bicycle_pa":"","capacity":48,"covered":"","fee":"","operator":"","nameSource":"landmark"},"sourceId":"osm"},{"id":"osm:node:6584347621","latitude":41.9906731,"longitude":2.7603877,"name":"Plaça del Poble by Parada Bus","properties":{"access":"unknown","bicycle_pa":"","capacity":0,"covered":"","fee":"","operator":"","nameSource":"landmark"},"sourceId":"osm"},{"id":"osm:node:783947843","latitude":41.9733965,"longitude":2.807007,"name":"Carrer de Campcardós near Carrer d'Orient","properties":{"access":"unknown","bicycle_pa":"wall_loops","capacity":0,"covered":"","fee":"","operator":"","nameSource":"junction"},"sourceId":"osm"},{"id":"osm:node:812530565","latitude":41.977285,"longitude":2.8104838,"name":"Carril bici near Carrer de la Mare de Déu dels Àngels","properties":{"access":"unknown","bicycle_pa":"stands","capacity":0,"covered":"","fee":"","operator":"","nameSource":"junction"},"sourceId":"osm"},{"id":"osm:node:812530583","latitude":41.9783178,"longitude":2.8109115,"name":"Carrer del Riu Güell near Carrer de la Mare de Déu del Remei","properties":{"access":"unknown","bicycle_pa":"","capacity":0,"covered":"","fee":"","operator":"","nameSource":"junction"},"sourceId":"osm"},{"id":"osm:node:825068532","latitude":41.9847695,"longitude":2.8122438,"name":"Passeig de la Devesa near Rotonda de Joaquim Vayreda","properties":{"access":"unknown","bicycle_pa":"stands","capacity":6,"covered":"no","fee":"","operator":"","nameSource":"junction"},"sourceId":"osm"},{"id":"osm:node:837149739","latitude":41.9750103,"longitude":2.811242,"name":"Plaça de l'Assumpció near Carrer de la Mare de Déu de la Salut","properties":{"access":"unknown","bicycle_pa":"","capacity":0,"covered":"","fee":"","operator":"","nameSource":"junction"},"sourceId":"osm"},{"id":"osm:node:9048208566","latitude":41.9703739,"longitude":2.7970173,"name":"Pla de Salt cycle parking","properties":{"access":"unknown","bicycle_pa":"","capacity":0,"covered":"","fee":"","operator":"","nameSource":"place"},"sourceId":"osm"},{"id":"osm:node:9269624100","latitude":41.970874,"longitude":2.7981111,"name":"Carril bici near Carrer Doctor Castany","properties":{"access":"unknown","bicycle_pa":"","capacity":0,"covered":"","fee":"","operator":"","nameSource":"junction"},"sourceId":"osm"}],"schemaVersion":2}
