{"key":"12/2079/1555","points":[{"id":"osm:node:11357024180","latitude":39.7052369,"longitude":2.7930175,"name":"Carrer de Joan Alcover near Carrer de Joan Mir","properties":{"access":"unknown","bicycle_pa":"stands","capacity":8,"covered":"no","fee":"no","operator":"","nameSource":"junction"},"sourceId":"osm"},{"id":"osm:node:9658366696","latitude":39.6510645,"longitude":2.7728269,"name":"Campeonato Baleares Máster - Salida y Meta","properties":{"access":"permissive","bicycle_pa":"stands","capacity":40,"covered":"no","fee":"no","operator":"","nameSource":"source"},"sourceId":"osm"},{"id":"osm:way:1005693189","latitude":39.64275352,"longitude":2.7793117,"name":"Avinguda de Margalida Calafat by Institut d'Educació Secundària Santa Maria","properties":{"access":"yes","bicycle_pa":"rack","capacity":66,"covered":"no","fee":"","operator":"","nameSource":"landmark"},"sourceId":"osm"},{"id":"osm:way:1012079462","latitude":39.64736018,"longitude":2.77125034,"name":"Avinguda de Josep Verd i Sastre near Carrer de Batle Andreu Bestard","properties":{"access":"yes","bicycle_pa":"wall_loops","capacity":6,"covered":"no","fee":"no","operator":"","nameSource":"junction"},"sourceId":"osm"},{"id":"osm:way:1012592876","latitude":39.64893882,"longitude":2.77848816,"name":"Carrer de Joan Rosselló de Son Fortesa near Plaça Nova","properties":{"access":"yes","bicycle_pa":"rack","capacity":2,"covered":"no","fee":"no","operator":"","nameSource":"junction"},"sourceId":"osm"},{"id":"osm:way:1012729766","latitude":39.64680206,"longitude":2.7796131199999996,"name":"Carrer de Rector Caldentey near Carrer des Sol","properties":{"access":"yes","bicycle_pa":"wall_loops","capacity":5,"covered":"no","fee":"no","operator":"","nameSource":"junction"},"sourceId":"osm"},{"id":"osm:way:1012759661","latitude":39.64711512,"longitude":2.77827402,"name":"Plaça de la Vila near Carrer del Pare Miquel Cabot","properties":{"access":"yes","bicycle_pa":"wall_loops","capacity":12,"covered":"no","fee":"no","operator":"","nameSource":"junction"},"sourceId":"osm"},{"id":"osm:way:1033590759","latitude":39.659778025,"longitude":2.7697009500000003,"name":"Plaça de Josep Maria Llompart near Camí de Coanegra","properties":{"access":"yes","bicycle_pa":"wall_loops","capacity":6,"covered":"no","fee":"no","operator":"","nameSource":"junction"},"sourceId":"osm"}],"schemaVersion":2}
