{"key":"12/2084/1559","points":[{"categories":["shop"],"id":"osm:node:3138798953","latitude":39.3800075,"longitude":3.2406724,"name":"Canyon.Base","properties":{},"sourceId":"osm"},{"categories":["hire"],"id":"osm:node:3138800886","latitude":39.3832103,"longitude":3.2417966,"name":"Canyon.Base (Robinson Club Cala Serena)","properties":{"brand":"Canyon","openingHours":"09:00-11:00,16:00-17:00; Tu off; Dec,Jan: 10:00-12:00; Dec,Jan: Tu off","serviceRental":"yes"},"sourceId":"osm"},{"categories":["hire"],"id":"osm:node:4212532422","latitude":39.3786454,"longitude":3.2368363,"name":"marimonte Mallorca bikecenter & watersports","properties":{"openingHours":"09:00-19:00","operator":"Fabian Runge"},"sourceId":"osm"},{"categories":["hire"],"id":"osm:node:7114324064","latitude":39.3796402,"longitude":3.2257842,"name":"Danilo Hondo ePoint","properties":{"operator":"Danilo Hondo ePoint"},"sourceId":"osm"},{"categories":["hire"],"id":"osm:way:208261609","latitude":39.37202418888889,"longitude":3.2264309555555553,"name":"Cycle hire","properties":{},"sourceId":"osm"}],"schemaVersion":2}
