{"key":"12/2010/1364","points":[{"id":"osm:node:11529433995","latitude":51.3909946,"longitude":-3.2754311,"name":"Friars Road near Paget Road","properties":{"access":"yes","bicycle_pa":"","capacity":6,"covered":"no","fee":"no","operator":"","nameSource":"junction"},"sourceId":"osm"},{"id":"osm:node:11529433996","latitude":51.3909261,"longitude":-3.2759859,"name":"Paget Road near Friars Road","properties":{"access":"yes","bicycle_pa":"","capacity":8,"covered":"no","fee":"no","operator":"","nameSource":"junction"},"sourceId":"osm"},{"id":"osm:node:11907970553","latitude":51.3945504,"longitude":-3.2787998,"name":"Ffordd Y Mileniwm cycle parking","properties":{"access":"unknown","bicycle_pa":"","capacity":6,"covered":"","fee":"","operator":"","nameSource":"street"},"sourceId":"osm"},{"id":"osm:node:11907970666","latitude":51.3975941,"longitude":-3.2786133,"name":"Ffordd Y Mileniwm by Asda Opticians","properties":{"access":"unknown","bicycle_pa":"","capacity":12,"covered":"","fee":"","operator":"","nameSource":"landmark"},"sourceId":"osm"},{"id":"osm:node:11907970667","latitude":51.397547,"longitude":-3.2786062,"name":"Ffordd Y Mileniwm by Asda Café","properties":{"access":"unknown","bicycle_pa":"","capacity":12,"covered":"","fee":"","operator":"","nameSource":"landmark"},"sourceId":"osm"}],"schemaVersion":2}
