{"key":"12/2077/1557","points":[{"categories":["shop","hire"],"id":"osm:node:10141275316","latitude":39.543616,"longitude":2.595465,"name":"Lolo’s Bike","properties":{"serviceRental":"yes","website":"https://www.lolosbike.com/"},"sourceId":"osm"},{"categories":["hire"],"id":"osm:node:10703112814","latitude":39.5703922,"longitude":2.6336429,"name":"Bicipalma 61","properties":{"fee":"yes","network":"Bicipalma","operator":"SMAP","website":"https://www.bicipalma.com/ca/palma/"},"sourceId":"osm"},{"categories":["hire"],"id":"osm:node:10703112815","latitude":39.5683874,"longitude":2.6300308,"name":"Bicipalma 10","properties":{"network":"Bicipalma","operator":"SMAP","website":"https://www.bicipalma.com/ca/palma/"},"sourceId":"osm"},{"categories":["hire"],"id":"osm:node:10703112816","latitude":39.5605996,"longitude":2.6247978,"name":"Bicipalma 8","properties":{"network":"Bicipalma","operator":"SMAP","website":"https://www.bicipalma.com/ca/palma/"},"sourceId":"osm"},{"categories":["hire"],"id":"osm:node:10703112817","latitude":39.5519365,"longitude":2.6209152,"name":"Bicipalma 57","properties":{"fee":"yes","network":"Bicipalma","operator":"SMAP","website":"https://www.bicipalma.com/ca/palma/"},"sourceId":"osm"},{"categories":["hire"],"id":"osm:node:10782756843","latitude":39.5652022,"longitude":2.6269564,"name":"Bicipalma 79","properties":{"fee":"yes","network":"Bicipalma","operator":"SMAP","website":"https://www.bicipalma.com/ca/palma/"},"sourceId":"osm"},{"categories":["hire"],"id":"osm:node:11140408460","latitude":39.5681561,"longitude":2.6309118,"name":"Palma Bicycle","properties":{"openingHours":"Mo-Sa 09:00-14:00, 15:00-18:00","website":"https://palmabicycletours.com/"},"sourceId":"osm"},{"categories":["shop","repair","hire"],"id":"osm:node:11581636411","latitude":39.5439769,"longitude":2.5949469,"name":"tienda de bici","properties":{"serviceRental":"yes","serviceRepair":"yes"},"sourceId":"osm"},{"categories":["shop","repair","hire"],"id":"osm:node:12433051734","latitude":39.533942,"longitude":2.566751,"name":"LibertySport","properties":{"serviceRental":"yes","serviceRepair":"yes"},"sourceId":"osm"},{"categories":["hire"],"id":"osm:node:2649795872","latitude":39.5677077,"longitude":2.6301063,"name":"palma on bike","properties":{"website":"https://palmaonbike.com/"},"sourceId":"osm"},{"categories":["shop","hire"],"id":"osm:node:6069256472","latitude":39.5696069,"longitude":2.6315877,"name":"Workshop Cafe & Cycles","properties":{"website":"http://theworkshopalma.cc/"},"sourceId":"osm"},{"categories":["shop","repair","hire"],"id":"osm:node:6641168418","latitude":39.5435833,"longitude":2.5954663,"name":"Liberty Sport","properties":{"openingHours":"09:00-13:30,15:30-19:00","servicePump":"yes","serviceRental":"yes","serviceRepair":"yes","serviceTools":"yes","website":"https://www.libertysport.es/"},"sourceId":"osm"},{"categories":["shop","hire"],"id":"osm:way:661260817","latitude":39.553942160000005,"longitude":2.6051266400000004,"name":"Speed Bike","properties":{"openingHours":"Mo-Sa 09:00-14:00,16:00-18:00","serviceRental":"yes","website":"https://speedbikemallorca.com/"},"sourceId":"osm"}],"schemaVersion":2}
