{"key":"12/2021/1320","points":[{"id":"osm:node:12045666316","latitude":53.7022038,"longitude":-2.2853187,"name":"Bank Street near Kay Street","properties":{"access":"unknown","bicycle_pa":"stands","capacity":0,"covered":"","fee":"","operator":"","nameSource":"junction"},"sourceId":"osm"},{"id":"osm:node:12045666317","latitude":53.7018357,"longitude":-2.285927,"name":"Bank Street near Lord Street","properties":{"access":"unknown","bicycle_pa":"stands","capacity":0,"covered":"","fee":"","operator":"","nameSource":"junction"},"sourceId":"osm"},{"id":"osm:node:4698018196","latitude":53.7083566,"longitude":-2.3154607,"name":"Cribden End Lane cycle parking","properties":{"access":"unknown","bicycle_pa":"stands","capacity":2,"covered":"no","fee":"","operator":"","nameSource":"street"},"sourceId":"osm"},{"id":"osm:way:1124663828","latitude":53.69773712,"longitude":-2.2961527999999998,"name":"Swanney Lodge Road by Iceland","properties":{"access":"unknown","bicycle_pa":"stands","capacity":4,"covered":"yes","fee":"no","operator":"","nameSource":"landmark"},"sourceId":"osm"},{"id":"osm:way:1124663829","latitude":53.698311679999996,"longitude":-2.2951357999999997,"name":"A682 by Aldi","properties":{"access":"unknown","bicycle_pa":"stands","capacity":9,"covered":"no","fee":"no","operator":"","nameSource":"landmark"},"sourceId":"osm"}],"schemaVersion":2}
