{"key":"12/2021/1326","points":[{"id":"osm:node:10817007020","latitude":53.3855898,"longitude":-2.3511817,"name":"Railway Street near Goose Green","properties":{"access":"unknown","bicycle_pa":"stands","capacity":4,"covered":"no","fee":"no","operator":"","nameSource":"junction"},"sourceId":"osm"},{"id":"osm:node:10817007021","latitude":53.3854362,"longitude":-2.3504092,"name":"Goose Green near Railway Street","properties":{"access":"unknown","bicycle_pa":"stands","capacity":4,"covered":"no","fee":"no","operator":"","nameSource":"junction"},"sourceId":"osm"},{"id":"osm:node:10817007022","latitude":53.3862521,"longitude":-2.3473998,"name":"Moss Lane cycle parking","properties":{"access":"unknown","bicycle_pa":"stands","capacity":4,"covered":"no","fee":"no","operator":"Tesco","nameSource":"street"},"sourceId":"osm"},{"id":"osm:node:10817007024","latitude":53.387074,"longitude":-2.3522805,"name":"Pott Street near Greenwood Street","properties":{"access":"unknown","bicycle_pa":"stands","capacity":8,"covered":"no","fee":"no","operator":"","nameSource":"junction"},"sourceId":"osm"},{"id":"osm:node:10817007025","latitude":53.3873176,"longitude":-2.3510132,"name":"Central Way near Shaw's Road","properties":{"access":"unknown","bicycle_pa":"stands","capacity":4,"covered":"no","fee":"no","operator":"","nameSource":"junction"},"sourceId":"osm"},{"id":"osm:node:10817007026","latitude":53.3872249,"longitude":-2.3504178,"name":"Shaw's Road near George Street","properties":{"access":"unknown","bicycle_pa":"stands","capacity":4,"covered":"no","fee":"no","operator":"","nameSource":"junction"},"sourceId":"osm"},{"id":"osm:node:10817007027","latitude":53.3873024,"longitude":-2.3500878,"name":"George Street near Cross Street","properties":{"access":"unknown","bicycle_pa":"stands","capacity":4,"covered":"no","fee":"no","operator":"","nameSource":"junction"},"sourceId":"osm"},{"id":"osm:node:10817007028","latitude":53.3871344,"longitude":-2.3498068,"name":"Cross Street near The Causeway","properties":{"access":"unknown","bicycle_pa":"stands","capacity":4,"covered":"no","fee":"no","operator":"","nameSource":"junction"},"sourceId":"osm"},{"id":"osm:node:10817007029","latitude":53.3885073,"longitude":-2.3488956,"name":"George Street near Stamford Square","properties":{"access":"unknown","bicycle_pa":"wall_loops","capacity":2,"covered":"no","fee":"no","operator":"","nameSource":"junction"},"sourceId":"osm"},{"id":"osm:node:10817028055","latitude":53.3840789,"longitude":-2.3502329,"name":"Lloyd Street near Armitage Road","properties":{"access":"unknown","bicycle_pa":"stands","capacity":4,"covered":"yes","fee":"no","operator":"sainsburys","nameSource":"junction"},"sourceId":"osm"},{"id":"osm:node:10817028056","latitude":53.3925581,"longitude":-2.3568286,"name":"Oldfield Road cycle parking","properties":{"access":"unknown","bicycle_pa":"stands","capacity":2,"covered":"no","fee":"no","operator":"","nameSource":"street"},"sourceId":"osm"},{"id":"osm:node:10817028057","latitude":53.3913361,"longitude":-2.3572738,"name":"Hartley Road cycle parking","properties":{"access":"unknown","bicycle_pa":"stands","capacity":2,"covered":"no","fee":"no","operator":"","nameSource":"street"},"sourceId":"osm"},{"id":"osm:node:10817028058","latitude":53.3955044,"longitude":-2.3435439,"name":"Grosvenor Road near Navigation Road","properties":{"access":"unknown","bicycle_pa":"stands","capacity":4,"covered":"no","fee":"no","operator":"","nameSource":"junction"},"sourceId":"osm"},{"id":"osm:node:10938362879","latitude":53.405437,"longitude":-2.36377,"name":"Turnbull Road near Sinderland Road","properties":{"access":"yes","bicycle_pa":"stands","capacity":0,"covered":"yes","fee":"no","operator":"","nameSource":"junction"},"sourceId":"osm"},{"id":"osm:node:11200658752","latitude":53.4271462,"longitude":-2.3517981,"name":"Plymouth Road near Sidmouth Road","properties":{"access":"unknown","bicycle_pa":"stands","capacity":6,"covered":"no","fee":"","operator":"","nameSource":"junction"},"sourceId":"osm"},{"id":"osm:node:11339520825","latitude":53.429694,"longitude":-2.3420126,"name":"Green Lane near Farmfield","properties":{"access":"yes","bicycle_pa":"stands","capacity":2,"covered":"no","fee":"no","operator":"","nameSource":"junction"},"sourceId":"osm"},{"id":"osm:node:11676565933","latitude":53.414252,"longitude":-2.351204,"name":"Coppice Avenue near Manor Avenue","properties":{"access":"unknown","bicycle_pa":"wall_loops","capacity":2,"covered":"no","fee":"no","operator":"","nameSource":"junction"},"sourceId":"osm"},{"id":"osm:node:11817102101","latitude":53.4287468,"longitude":-2.2937041,"name":"Rifle Road near Cow Lane","properties":{"access":"unknown","bicycle_pa":"","capacity":6,"covered":"no","fee":"no","operator":"","nameSource":"junction"},"sourceId":"osm"},{"id":"osm:node:12095727733","latitude":53.3982688,"longitude":-2.3161927,"name":"Aimson Road West near Stockport Road","properties":{"access":"unknown","bicycle_pa":"stands","capacity":16,"covered":"no","fee":"no","operator":"","nameSource":"junction"},"sourceId":"osm"},{"id":"osm:node:12095727734","latitude":53.3982312,"longitude":-2.3163666,"name":"Aimson Road West near Stockport Road","properties":{"access":"unknown","bicycle_pa":"stands","capacity":8,"covered":"no","fee":"no","operator":"","nameSource":"junction"},"sourceId":"osm"},{"id":"osm:node:12125230474","latitude":53.4175504,"longitude":-2.320154,"name":"Marsland Road near The Grove","properties":{"access":"yes","bicycle_pa":"stands","capacity":1,"covered":"no","fee":"no","operator":"","nameSource":"junction"},"sourceId":"osm"},{"id":"osm:node:12172073708","latitude":53.3881188,"longitude":-2.3467072,"name":"Station Approach cycle parking","properties":{"access":"permissive","bicycle_pa":"stands","capacity":10,"covered":"yes","fee":"","operator":"","nameSource":"street"},"sourceId":"osm"},{"id":"osm:node:12172073709","latitude":53.3882619,"longitude":-2.3466142,"name":"Station Approach cycle parking","properties":{"access":"permissive","bicycle_pa":"lockers","capacity":5,"covered":"","fee":"","operator":"","nameSource":"street"},"sourceId":"osm"},{"id":"osm:node:12172073710","latitude":53.3881524,"longitude":-2.3466819,"name":"Station Approach cycle parking","properties":{"access":"permissive","bicycle_pa":"stands","capacity":8,"covered":"","fee":"","operator":"","nameSource":"street"},"sourceId":"osm"},{"id":"osm:node:12336865313","latitude":53.4302233,"longitude":-2.3422998,"name":"Green Lane near Derby Road","properties":{"access":"unknown","bicycle_pa":"wall_loops","capacity":0,"covered":"no","fee":"no","operator":"","nameSource":"junction"},"sourceId":"osm"},{"id":"osm:node:12355415806","latitude":53.4262754,"longitude":-2.3441463,"name":"Harboro Road near Stokesay Road","properties":{"access":"unknown","bicycle_pa":"stands","capacity":2,"covered":"no","fee":"","operator":"","nameSource":"junction"},"sourceId":"osm"},{"id":"osm:node:12551021126","latitude":53.4200799,"longitude":-2.3046259,"name":"Link Road near Northenden Road","properties":{"access":"yes","bicycle_pa":"stands","capacity":8,"covered":"no","fee":"","operator":"","nameSource":"junction"},"sourceId":"osm"},{"id":"osm:node:12551021128","latitude":53.4198292,"longitude":-2.3036738,"name":"Hampson Street near Northenden Road","properties":{"access":"yes","bicycle_pa":"stands","capacity":3,"covered":"no","fee":"","operator":"","nameSource":"junction"},"sourceId":"osm"},{"id":"osm:node:1256186850","latitude":53.4299264,"longitude":-2.3424084,"name":"Green Lane near Derby Road","properties":{"access":"unknown","bicycle_pa":"stands","capacity":4,"covered":"no","fee":"","operator":"","nameSource":"junction"},"sourceId":"osm"},{"id":"osm:node:12670170463","latitude":53.3978882,"longitude":-2.363607,"name":"George Richards Way by Asda Café","properties":{"access":"unknown","bicycle_pa":"stands","capacity":0,"covered":"yes","fee":"","operator":"","nameSource":"landmark"},"sourceId":"osm"},{"id":"osm:node:12777012994","latitude":53.3892215,"longitude":-2.2916909,"name":"Southmoor Road cycle parking","properties":{"access":"unknown","bicycle_pa":"lockers","capacity":0,"covered":"","fee":"","operator":"","nameSource":"street"},"sourceId":"osm"},{"id":"osm:node:12777012995","latitude":53.389277,"longitude":-2.2916855,"name":"Southmoor Road cycle parking","properties":{"access":"yes","bicycle_pa":"stands","capacity":0,"covered":"","fee":"no","operator":"","nameSource":"street"},"sourceId":"osm"},{"id":"osm:node:12986340075","latitude":53.3847117,"longitude":-2.3431737,"name":"Charter Road near Masse Road","properties":{"access":"unknown","bicycle_pa":"stands","capacity":0,"covered":"no","fee":"","operator":"","nameSource":"junction"},"sourceId":"osm"},{"id":"osm:node:13506465901","latitude":53.3882191,"longitude":-2.3478456,"name":"Bridge Place cycle parking","properties":{"access":"yes","bicycle_pa":"","capacity":0,"covered":"no","fee":"no","operator":"","nameSource":"street"},"sourceId":"osm"},{"id":"osm:node:1385801012","latitude":53.4254535,"longitude":-2.3271344,"name":"Cranleigh Drive near Ashton Lane","properties":{"access":"unknown","bicycle_pa":"","capacity":0,"covered":"","fee":"no","operator":"","nameSource":"junction"},"sourceId":"osm"},{"id":"osm:node:1426891517","latitude":53.4245106,"longitude":-2.3257384,"name":"Hayfield Street near Sibson Road","properties":{"access":"unknown","bicycle_pa":"","capacity":0,"covered":"","fee":"","operator":"","nameSource":"junction"},"sourceId":"osm"},{"id":"osm:node:1426891518","latitude":53.4244755,"longitude":-2.3236356,"name":"John Street near Hereford Street","properties":{"access":"unknown","bicycle_pa":"stands","capacity":0,"covered":"no","fee":"no","operator":"","nameSource":"junction"},"sourceId":"osm"},{"id":"osm:node:1586919317","latitude":53.4252855,"longitude":-2.3234038,"name":"Curzon Road near School Road","properties":{"access":"unknown","bicycle_pa":"stands","capacity":8,"covered":"no","fee":"","operator":"","nameSource":"junction"},"sourceId":"osm"},{"id":"osm:node:1711345447","latitude":53.3992211,"longitude":-2.3543515,"name":"George Richards Way near Davenport Lane","properties":{"access":"unknown","bicycle_pa":"stands","capacity":4,"covered":"no","fee":"","operator":"","nameSource":"junction"},"sourceId":"osm"},{"id":"osm:node:4837074871","latitude":53.4278274,"longitude":-2.292204,"name":"Rifle Road cycle parking","properties":{"access":"unknown","bicycle_pa":"stands","capacity":10,"covered":"yes","fee":"","operator":"","nameSource":"street"},"sourceId":"osm"},{"id":"osm:node:4889611579","latitude":53.4232624,"longitude":-2.3093175,"name":"Park House Drive cycle parking","properties":{"access":"unknown","bicycle_pa":"","capacity":0,"covered":"","fee":"","operator":"","nameSource":"street"},"sourceId":"osm"},{"id":"osm:node:4891589826","latitude":53.4304384,"longitude":-2.3131055,"name":"Bridgewater Way by Bridge Inn","properties":{"access":"unknown","bicycle_pa":"","capacity":0,"covered":"","fee":"","operator":"","nameSource":"landmark"},"sourceId":"osm"},{"id":"osm:node:5022734492","latitude":53.4004291,"longitude":-2.3556918,"name":"Princess Street by Currys","properties":{"access":"unknown","bicycle_pa":"stands","capacity":24,"covered":"no","fee":"","operator":"","nameSource":"landmark"},"sourceId":"osm"},{"id":"osm:node:5073370533","latitude":53.3988036,"longitude":-2.3520142,"name":"Manchester Road near Atlantic Street","properties":{"access":"unknown","bicycle_pa":"stands","capacity":4,"covered":"no","fee":"","operator":"","nameSource":"junction"},"sourceId":"osm"},{"id":"osm:node:5593257957","latitude":53.4135239,"longitude":-2.3312273,"name":"Bridgewater Way cycle parking","properties":{"access":"yes","bicycle_pa":"stands","capacity":0,"covered":"yes","fee":"","operator":"","nameSource":"street"},"sourceId":"osm"},{"id":"osm:node:7528615254","latitude":53.3862058,"longitude":-2.3467688,"name":"Moss Lane near Manor Road","properties":{"access":"unknown","bicycle_pa":"stands","capacity":30,"covered":"no","fee":"no","operator":"","nameSource":"junction"},"sourceId":"osm"},{"id":"osm:node:8711898665","latitude":53.4062267,"longitude":-2.3128318,"name":"Maple Road near Mitchels Hey Parade","properties":{"access":"unknown","bicycle_pa":"stands","capacity":6,"covered":"no","fee":"","operator":"","nameSource":"junction"},"sourceId":"osm"},{"id":"osm:node:8815145716","latitude":53.4349117,"longitude":-2.3084654,"name":"Perimeter Path: Sale Water Park cycle parking","properties":{"access":"unknown","bicycle_pa":"stands","capacity":6,"covered":"no","fee":"no","operator":"","nameSource":"street"},"sourceId":"osm"},{"id":"osm:node:9126956486","latitude":53.4133641,"longitude":-2.3447903,"name":"Meadway near Ashley Drive","properties":{"access":"unknown","bicycle_pa":"stands","capacity":0,"covered":"","fee":"","operator":"","nameSource":"junction"},"sourceId":"osm"},{"id":"osm:node:9126956487","latitude":53.4134688,"longitude":-2.3442198,"name":"Meadway near Ashley Drive","properties":{"access":"unknown","bicycle_pa":"stands","capacity":0,"covered":"","fee":"","operator":"","nameSource":"junction"},"sourceId":"osm"},{"id":"osm:node:9358385814","latitude":53.3980134,"longitude":-2.3543186,"name":"Atlantic Street by United Carpets and Beds","properties":{"access":"unknown","bicycle_pa":"stands","capacity":0,"covered":"","fee":"","operator":"","nameSource":"landmark"},"sourceId":"osm"},{"id":"osm:node:9358385815","latitude":53.3983193,"longitude":-2.3540104,"name":"Atlantic Street by United Carpets and Beds","properties":{"access":"unknown","bicycle_pa":"stands","capacity":0,"covered":"","fee":"","operator":"","nameSource":"landmark"},"sourceId":"osm"},{"id":"osm:node:9365485899","latitude":53.3899402,"longitude":-2.3475057,"name":"Barrington Road near Grosvenor Road","properties":{"access":"private","bicycle_pa":"","capacity":0,"covered":"","fee":"","operator":"","nameSource":"junction"},"sourceId":"osm"},{"id":"osm:node:9385324026","latitude":53.3884639,"longitude":-2.3501974,"name":"Post Office Street near Kingsway","properties":{"access":"unknown","bicycle_pa":"stands","capacity":8,"covered":"","fee":"","operator":"","nameSource":"junction"},"sourceId":"osm"},{"id":"osm:node:9422581696","latitude":53.3875994,"longitude":-2.3520527,"name":"Shaw's Road near Market Street","properties":{"access":"unknown","bicycle_pa":"stands","capacity":4,"covered":"no","fee":"no","operator":"","nameSource":"junction"},"sourceId":"osm"},{"id":"osm:way:1017638971","latitude":53.386939559999995,"longitude":-2.34786806,"name":"TFGM Cycle Hub","properties":{"access":"permit","bicycle_pa":"shed","capacity":0,"covered":"yes","fee":"yes","operator":"TFGM","nameSource":"source"},"sourceId":"osm"},{"id":"osm:way:1381617186","latitude":53.38993735,"longitude":-2.2939593,"name":"Southmoor Road cycle parking","properties":{"access":"yes","bicycle_pa":"stands","capacity":0,"covered":"yes","fee":"no","operator":"","nameSource":"street"},"sourceId":"osm"},{"id":"osm:way:1430473871","latitude":53.42084184,"longitude":-2.2943939,"name":"Massey Road near Worthington Road","properties":{"access":"private","bicycle_pa":"shed","capacity":0,"covered":"yes","fee":"","operator":"","nameSource":"junction"},"sourceId":"osm"},{"id":"osm:way:496512832","latitude":53.42547004000001,"longitude":-2.3191829999999998,"name":"Tatton Place near Chapel Road","properties":{"access":"unknown","bicycle_pa":"stands","capacity":0,"covered":"yes","fee":"","operator":"","nameSource":"junction"},"sourceId":"osm"},{"id":"osm:way:496881253","latitude":53.42540055999999,"longitude":-2.31864984,"name":"Bridgewater Way by Slug and Lettuce","properties":{"access":"yes","bicycle_pa":"stands","capacity":12,"covered":"no","fee":"","operator":"Trafford Council","nameSource":"landmark"},"sourceId":"osm"},{"id":"osm:way:497160542","latitude":53.42375023333333,"longitude":-2.319372233333333,"name":"Sale Station Approach cycle parking","properties":{"access":"unknown","bicycle_pa":"stands","capacity":4,"covered":"no","fee":"","operator":"","nameSource":"street"},"sourceId":"osm"},{"id":"osm:way:951999746","latitude":53.42582128,"longitude":-2.32270668,"name":"Wynnstay Road near Orchard Place","properties":{"access":"unknown","bicycle_pa":"stands","capacity":0,"covered":"no","fee":"","operator":"","nameSource":"junction"},"sourceId":"osm"}],"schemaVersion":2}
