{"key":"12/2021/1328","points":[{"id":"osm:node:11438732220","latitude":53.3032183,"longitude":-2.3729492,"name":"Church Hill near King Street","properties":{"access":"unknown","bicycle_pa":"","capacity":0,"covered":"","fee":"","operator":"","nameSource":"junction"},"sourceId":"osm"},{"id":"osm:node:6661223431","latitude":53.305053,"longitude":-2.3717075,"name":"Moorside near Malt Street","properties":{"access":"yes","bicycle_pa":"stands","capacity":3,"covered":"no","fee":"no","operator":"","nameSource":"junction"},"sourceId":"osm"},{"id":"osm:node:6699000170","latitude":53.3024846,"longitude":-2.3698916,"name":"King Street near Adams Hill","properties":{"access":"yes","bicycle_pa":"shed","capacity":0,"covered":"yes","fee":"no","operator":"","nameSource":"junction"},"sourceId":"osm"},{"id":"osm:way:1312983204","latitude":53.31388874,"longitude":-2.35125412,"name":"Haig Road cycle parking","properties":{"access":"unknown","bicycle_pa":"shed","capacity":0,"covered":"","fee":"","operator":"","nameSource":"street"},"sourceId":"osm"},{"id":"osm:way:1312983205","latitude":53.314262039999996,"longitude":-2.35046098,"name":"Haig Road cycle parking","properties":{"access":"unknown","bicycle_pa":"shed","capacity":0,"covered":"","fee":"","operator":"","nameSource":"street"},"sourceId":"osm"}],"schemaVersion":2}
