{"key":"12/2021/1364","points":[{"id":"osm:node:10103109647","latitude":51.3807767,"longitude":-2.3516923,"name":"North Parade Road near Pulteney Road","properties":{"access":"private","bicycle_pa":"stands","capacity":10,"covered":"yes","fee":"","operator":"","nameSource":"junction"},"sourceId":"osm"},{"id":"osm:node:10119587479","latitude":51.38075,"longitude":-2.3526084,"name":"North Parade Road cycle parking","properties":{"access":"private","bicycle_pa":"stands","capacity":40,"covered":"yes","fee":"","operator":"","nameSource":"street"},"sourceId":"osm"},{"id":"osm:node:10138648425","latitude":51.3816629,"longitude":-2.3665149,"name":"James Street West near Green Park Road","properties":{"access":"unknown","bicycle_pa":"stands","capacity":6,"covered":"yes","fee":"","operator":"","nameSource":"junction"},"sourceId":"osm"},{"id":"osm:node:10289529194","latitude":51.3787607,"longitude":-2.3661053,"name":"Foundry Lane near Foundary Lane","properties":{"access":"unknown","bicycle_pa":"stands","capacity":8,"covered":"no","fee":"","operator":"","nameSource":"junction"},"sourceId":"osm"},{"id":"osm:node:10289529195","latitude":51.3787443,"longitude":-2.3659846,"name":"Foundry Lane near Foundary Lane","properties":{"access":"unknown","bicycle_pa":"stands","capacity":4,"covered":"no","fee":"","operator":"","nameSource":"junction"},"sourceId":"osm"},{"id":"osm:node:10289529239","latitude":51.3787882,"longitude":-2.3665142,"name":"Foundry Lane near Foundary Lane","properties":{"access":"unknown","bicycle_pa":"stands","capacity":12,"covered":"no","fee":"","operator":"","nameSource":"junction"},"sourceId":"osm"},{"id":"osm:node:10289538362","latitude":51.3788049,"longitude":-2.3667958,"name":"Foundry Lane cycle parking","properties":{"access":"unknown","bicycle_pa":"stands","capacity":34,"covered":"no","fee":"","operator":"","nameSource":"street"},"sourceId":"osm"},{"id":"osm:node:10289540947","latitude":51.3786853,"longitude":-2.3655488,"name":"Foundary Lane near Foundry Lane","properties":{"access":"unknown","bicycle_pa":"stands","capacity":4,"covered":"no","fee":"","operator":"","nameSource":"junction"},"sourceId":"osm"},{"id":"osm:node:10289540949","latitude":51.378697,"longitude":-2.3656534,"name":"Foundary Lane near Foundry Lane","properties":{"access":"unknown","bicycle_pa":"stands","capacity":8,"covered":"no","fee":"","operator":"","nameSource":"junction"},"sourceId":"osm"},{"id":"osm:node:10289686962","latitude":51.3783999,"longitude":-2.3658156,"name":"Lower Bristol Road near The Square","properties":{"access":"unknown","bicycle_pa":"stands","capacity":4,"covered":"no","fee":"","operator":"","nameSource":"junction"},"sourceId":"osm"},{"id":"osm:node:10736990720","latitude":51.3797843,"longitude":-2.3711573,"name":"Sydenham Buildings near Westmoreland Drive","properties":{"access":"unknown","bicycle_pa":"stands","capacity":6,"covered":"no","fee":"","operator":"","nameSource":"junction"},"sourceId":"osm"},{"id":"osm:node:10893513958","latitude":51.3864978,"longitude":-2.3659502,"name":"Brock Street near Margaret's Buildings","properties":{"access":"unknown","bicycle_pa":"stands","capacity":2,"covered":"no","fee":"","operator":"","nameSource":"junction"},"sourceId":"osm"},{"id":"osm:node:10912655693","latitude":51.3842321,"longitude":-2.3716281,"name":"Upper Bristol Road near Marlborough Lane","properties":{"access":"unknown","bicycle_pa":"stands","capacity":4,"covered":"no","fee":"","operator":"","nameSource":"junction"},"sourceId":"osm"},{"id":"osm:node:11042827105","latitude":51.3849299,"longitude":-2.359635,"name":"Broad Street Place near Walcot Street","properties":{"access":"unknown","bicycle_pa":"stands","capacity":6,"covered":"no","fee":"","operator":"","nameSource":"junction"},"sourceId":"osm"},{"id":"osm:node:11099752069","latitude":51.3824427,"longitude":-2.3481716,"name":"Bathwick Hill near Sydney Buildings","properties":{"access":"private","bicycle_pa":"shed","capacity":6,"covered":"yes","fee":"","operator":"Falco","nameSource":"junction"},"sourceId":"osm"},{"id":"osm:node:11099752070","latitude":51.3824151,"longitude":-2.3481837,"name":"Bathwick Hill near Sydney Buildings","properties":{"access":"private","bicycle_pa":"shed","capacity":6,"covered":"yes","fee":"","operator":"Falco","nameSource":"junction"},"sourceId":"osm"},{"id":"osm:node:11099760334","latitude":51.3822033,"longitude":-2.3655953,"name":"New King Street near Cumberland Row","properties":{"access":"private","bicycle_pa":"shed","capacity":6,"covered":"yes","fee":"","operator":"Falco","nameSource":"junction"},"sourceId":"osm"},{"id":"osm:node:11099760335","latitude":51.3831256,"longitude":-2.3688183,"name":"Great Stanhope Street near Little Stanhope Street","properties":{"access":"private","bicycle_pa":"shed","capacity":6,"covered":"yes","fee":"","operator":"Falco","nameSource":"junction"},"sourceId":"osm"},{"id":"osm:node:11099774957","latitude":51.3926983,"longitude":-2.3684005,"name":"Somerset Lane near Somerset Place","properties":{"access":"private","bicycle_pa":"shed","capacity":6,"covered":"yes","fee":"","operator":"Falco","nameSource":"junction"},"sourceId":"osm"},{"id":"osm:node:11099774958","latitude":51.3839845,"longitude":-2.3518084,"name":"Vane Street near A36","properties":{"access":"private","bicycle_pa":"shed","capacity":6,"covered":"yes","fee":"","operator":"Falco","nameSource":"junction"},"sourceId":"osm"},{"id":"osm:node:11099797606","latitude":51.3843971,"longitude":-2.3577669,"name":"Grove Street near Spring Gardens Road","properties":{"access":"private","bicycle_pa":"shed","capacity":6,"covered":"yes","fee":"","operator":"Falco","nameSource":"junction"},"sourceId":"osm"},{"id":"osm:node:11099799400","latitude":51.3878159,"longitude":-2.3662112,"name":"Rivers Street near Upper Church Street","properties":{"access":"private","bicycle_pa":"shed","capacity":6,"covered":"yes","fee":"","operator":"Falco","nameSource":"junction"},"sourceId":"osm"},{"id":"osm:node:11099799401","latitude":51.3799258,"longitude":-2.3567235,"name":"Pierrepont Street near South Parade","properties":{"access":"private","bicycle_pa":"shed","capacity":6,"covered":"yes","fee":"","operator":"Falco","nameSource":"junction"},"sourceId":"osm"},{"id":"osm:node:11099810886","latitude":51.3891559,"longitude":-2.3648453,"name":"Burlington Street near Portland Place","properties":{"access":"private","bicycle_pa":"shed","capacity":6,"covered":"yes","fee":"","operator":"Falco","nameSource":"junction"},"sourceId":"osm"},{"id":"osm:node:11099810887","latitude":51.3924412,"longitude":-2.3584163,"name":"Camden Road near Gay's Hill","properties":{"access":"private","bicycle_pa":"shed","capacity":6,"covered":"yes","fee":"","operator":"Falco","nameSource":"junction"},"sourceId":"osm"},{"id":"osm:node:11099810893","latitude":51.3897047,"longitude":-2.3561048,"name":"Bathwick Street near Cleveland Place","properties":{"access":"private","bicycle_pa":"shed","capacity":6,"covered":"yes","fee":"","operator":"Falco","nameSource":"junction"},"sourceId":"osm"},{"id":"osm:node:11099815961","latitude":51.3798336,"longitude":-2.3579796,"name":"Henry Street near Old Orchard Street","properties":{"access":"private","bicycle_pa":"shed","capacity":6,"covered":"yes","fee":"","operator":"Falco","nameSource":"junction"},"sourceId":"osm"},{"id":"osm:node:11099818241","latitude":51.390084,"longitude":-2.3687157,"name":"Park Place near Park Street","properties":{"access":"private","bicycle_pa":"shed","capacity":6,"covered":"yes","fee":"","operator":"Falco","nameSource":"junction"},"sourceId":"osm"},{"id":"osm:node:11099818314","latitude":51.3937559,"longitude":-2.3469438,"name":"Grosvenor Place near Ringswell Gardens","properties":{"access":"private","bicycle_pa":"shed","capacity":6,"covered":"yes","fee":"","operator":"Falco","nameSource":"junction"},"sourceId":"osm"},{"id":"osm:node:11099822181","latitude":51.3869999,"longitude":-2.365475,"name":"Circus Mews near Rivers Street Mews","properties":{"access":"private","bicycle_pa":"shed","capacity":6,"covered":"yes","fee":"","operator":"Falco","nameSource":"junction"},"sourceId":"osm"},{"id":"osm:node:11099822182","latitude":51.3850029,"longitude":-2.3543532,"name":"Henrietta Mews cycle parking","properties":{"access":"private","bicycle_pa":"shed","capacity":6,"covered":"yes","fee":"","operator":"Falco","nameSource":"street"},"sourceId":"osm"},{"id":"osm:node:11099822184","latitude":51.378486,"longitude":-2.3524046,"name":"Archway Street near Excelsior Street","properties":{"access":"private","bicycle_pa":"shed","capacity":6,"covered":"yes","fee":"","operator":"Falco","nameSource":"junction"},"sourceId":"osm"},{"id":"osm:node:11151904316","latitude":51.3780894,"longitude":-2.3523181,"name":"Archway Street near Pulteney Road","properties":{"access":"private","bicycle_pa":"stands","capacity":10,"covered":"no","fee":"","operator":"","nameSource":"junction"},"sourceId":"osm"},{"id":"osm:node:11151904317","latitude":51.3781036,"longitude":-2.3523523,"name":"Archway Street near Excelsior Street","properties":{"access":"private","bicycle_pa":"stands","capacity":8,"covered":"yes","fee":"","operator":"","nameSource":"junction"},"sourceId":"osm"},{"id":"osm:node:11305980468","latitude":51.3786011,"longitude":-2.365238,"name":"Foundry Lane near Foundary Lane","properties":{"access":"unknown","bicycle_pa":"stands","capacity":14,"covered":"no","fee":"","operator":"","nameSource":"junction"},"sourceId":"osm"},{"id":"osm:node:11306008269","latitude":51.3786195,"longitude":-2.3653681,"name":"Foundry Lane near Foundary Lane","properties":{"access":"unknown","bicycle_pa":"stands","capacity":6,"covered":"no","fee":"","operator":"","nameSource":"junction"},"sourceId":"osm"},{"id":"osm:node:11306122103","latitude":51.3788849,"longitude":-2.3661003,"name":"Foundry Lane near Foundary Lane","properties":{"access":"unknown","bicycle_pa":"stands","capacity":6,"covered":"no","fee":"","operator":"","nameSource":"junction"},"sourceId":"osm"},{"id":"osm:node:11310820357","latitude":51.3978471,"longitude":-2.3448163,"name":"Saint Saviour's Road near Larkhall Place","properties":{"access":"unknown","bicycle_pa":"stands","capacity":6,"covered":"no","fee":"","operator":"","nameSource":"junction"},"sourceId":"osm"},{"id":"osm:node:11310895859","latitude":51.3979363,"longitude":-2.3508659,"name":"Bay Tree Road cycle parking","properties":{"access":"unknown","bicycle_pa":"stands","capacity":14,"covered":"yes","fee":"","operator":"","nameSource":"street"},"sourceId":"osm"},{"id":"osm:node:11310908355","latitude":51.3950595,"longitude":-2.3525222,"name":"Tyning Lane near Camden Road","properties":{"access":"unknown","bicycle_pa":"stands","capacity":4,"covered":"no","fee":"","operator":"","nameSource":"junction"},"sourceId":"osm"},{"id":"osm:node:11343281946","latitude":51.3981248,"longitude":-2.3413948,"name":"Gloucester Road near Pitman Court","properties":{"access":"unknown","bicycle_pa":"stands","capacity":4,"covered":"no","fee":"","operator":"","nameSource":"junction"},"sourceId":"osm"},{"id":"osm:node:11870119297","latitude":51.3811593,"longitude":-2.3545888,"name":"North Parade Road by Bath Sports and Leisure Centre","properties":{"access":"unknown","bicycle_pa":"stands","capacity":10,"covered":"yes","fee":"","operator":"","nameSource":"landmark"},"sourceId":"osm"},{"id":"osm:node:12046296289","latitude":51.3792728,"longitude":-2.3574955,"name":"Kingston Road near Henry Street","properties":{"access":"unknown","bicycle_pa":"stands","capacity":6,"covered":"","fee":"","operator":"","nameSource":"junction"},"sourceId":"osm"},{"id":"osm:node:12046296290","latitude":51.3793373,"longitude":-2.3575383,"name":"Kingston Road near Henry Street","properties":{"access":"unknown","bicycle_pa":"stands","capacity":10,"covered":"yes","fee":"","operator":"","nameSource":"junction"},"sourceId":"osm"},{"id":"osm:node:12046296291","latitude":51.3792946,"longitude":-2.3575383,"name":"Kingston Road near Henry Street","properties":{"access":"unknown","bicycle_pa":"stands","capacity":10,"covered":"yes","fee":"","operator":"","nameSource":"junction"},"sourceId":"osm"},{"id":"osm:node:12046315424","latitude":51.379364,"longitude":-2.3575692,"name":"Kingston Road near Henry Street","properties":{"access":"unknown","bicycle_pa":"stands","capacity":10,"covered":"yes","fee":"","operator":"","nameSource":"junction"},"sourceId":"osm"},{"id":"osm:node:12093838827","latitude":51.3766822,"longitude":-2.3533984,"name":"Pulteney Road near Claverton Street","properties":{"access":"unknown","bicycle_pa":"stands","capacity":6,"covered":"no","fee":"","operator":"","nameSource":"junction"},"sourceId":"osm"},{"id":"osm:node:12097850078","latitude":51.3829246,"longitude":-2.3652517,"name":"Palace Yard Mews near Saint Paul's Place","properties":{"access":"unknown","bicycle_pa":"stands","capacity":6,"covered":"no","fee":"","operator":"","nameSource":"junction"},"sourceId":"osm"},{"id":"osm:node:12097875032","latitude":51.3830468,"longitude":-2.3652973,"name":"Palace Yard Mews near Saint Paul's Place","properties":{"access":"unknown","bicycle_pa":"stands","capacity":4,"covered":"no","fee":"","operator":"","nameSource":"junction"},"sourceId":"osm"},{"id":"osm:node:12111040298","latitude":51.3914061,"longitude":-2.3534373,"name":"London Road near Weymouth Street","properties":{"access":"unknown","bicycle_pa":"stands","capacity":6,"covered":"no","fee":"","operator":"","nameSource":"junction"},"sourceId":"osm"},{"id":"osm:node:12111040299","latitude":51.3913685,"longitude":-2.3535205,"name":"Bedford Street near London Road","properties":{"access":"unknown","bicycle_pa":"stands","capacity":6,"covered":"no","fee":"","operator":"","nameSource":"junction"},"sourceId":"osm"},{"id":"osm:node:12111210669","latitude":51.3974819,"longitude":-2.3456844,"name":"Brookleaze Buildings near Larkhall Square","properties":{"access":"unknown","bicycle_pa":"stands","capacity":2,"covered":"no","fee":"","operator":"","nameSource":"junction"},"sourceId":"osm"},{"id":"osm:node:12122878205","latitude":51.3829594,"longitude":-2.3645454,"name":"Chapel Row near Queen Square","properties":{"access":"unknown","bicycle_pa":"stands","capacity":8,"covered":"no","fee":"","operator":"","nameSource":"junction"},"sourceId":"osm"},{"id":"osm:node:12147523643","latitude":51.3444995,"longitude":-2.3450138,"name":"Two Tunnels Greenway by The Hope & Anchor","properties":{"access":"unknown","bicycle_pa":"wall_loops","capacity":5,"covered":"no","fee":"","operator":"","nameSource":"landmark"},"sourceId":"osm"},{"id":"osm:node:12153826733","latitude":51.3628148,"longitude":-2.3563312,"name":"Whitaker Road near Fox Hill","properties":{"access":"unknown","bicycle_pa":"stands","capacity":6,"covered":"no","fee":"","operator":"","nameSource":"junction"},"sourceId":"osm"},{"id":"osm:node:12153875893","latitude":51.3632481,"longitude":-2.3535215,"name":"Cannon Court near Brinkworth Road","properties":{"access":"unknown","bicycle_pa":"stands","capacity":6,"covered":"no","fee":"","operator":"","nameSource":"junction"},"sourceId":"osm"},{"id":"osm:node:12363530011","latitude":51.3836848,"longitude":-2.3693415,"name":"Nile Street near Upper Bristol Road","properties":{"access":"unknown","bicycle_pa":"stands","capacity":4,"covered":"no","fee":"","operator":"","nameSource":"junction"},"sourceId":"osm"},{"id":"osm:node:12384549180","latitude":51.3824569,"longitude":-2.3662307,"name":"New King Street near Cumberland Row","properties":{"access":"yes","bicycle_pa":"stands","capacity":6,"covered":"no","fee":"no","operator":"","nameSource":"junction"},"sourceId":"osm"},{"id":"osm:node:12449729336","latitude":51.3822982,"longitude":-2.3681179,"name":"James Street West near Norfolk Buildings","properties":{"access":"yes","bicycle_pa":"stands","capacity":10,"covered":"yes","fee":"no","operator":"","nameSource":"junction"},"sourceId":"osm"},{"id":"osm:node:12449729344","latitude":51.3824199,"longitude":-2.3684384,"name":"James Street West near Norfolk Buildings","properties":{"access":"unknown","bicycle_pa":"","capacity":6,"covered":"no","fee":"","operator":"","nameSource":"junction"},"sourceId":"osm"},{"id":"osm:node:12529242315","latitude":51.384925,"longitude":-2.3600281,"name":"Broad Street Place near Gracious Court","properties":{"access":"yes","bicycle_pa":"stands","capacity":4,"covered":"no","fee":"no","operator":"","nameSource":"junction"},"sourceId":"osm"},{"id":"osm:node:12536219666","latitude":51.3634294,"longitude":-2.3443457,"name":"Ralph Allen Drive cycle parking","properties":{"access":"unknown","bicycle_pa":"","capacity":0,"covered":"yes","fee":"","operator":"","nameSource":"street"},"sourceId":"osm"},{"id":"osm:node:12543930224","latitude":51.3809572,"longitude":-2.3640073,"name":"Trinity Street near New Street","properties":{"access":"unknown","bicycle_pa":"stands","capacity":10,"covered":"no","fee":"","operator":"","nameSource":"junction"},"sourceId":"osm"},{"id":"osm:node:12553826319","latitude":51.3814444,"longitude":-2.3669511,"name":"Midland Bridge Road near Green Park Mews","properties":{"access":"yes","bicycle_pa":"stands","capacity":12,"covered":"yes","fee":"","operator":"","nameSource":"junction"},"sourceId":"osm"},{"id":"osm:node:12620527665","latitude":51.3835904,"longitude":-2.3586874,"name":"Riverside Terrace by Waitrose","properties":{"access":"unknown","bicycle_pa":"wall_loops","capacity":10,"covered":"no","fee":"","operator":"","nameSource":"landmark"},"sourceId":"osm"},{"id":"osm:node:12737833739","latitude":51.3738483,"longitude":-2.3666018,"name":"Wellsway near Bruton Avenue","properties":{"access":"unknown","bicycle_pa":"stands","capacity":4,"covered":"no","fee":"","operator":"","nameSource":"junction"},"sourceId":"osm"},{"id":"osm:node:12989924495","latitude":51.3809686,"longitude":-2.3664083,"name":"Green Park near Midland Bridge Road","properties":{"access":"unknown","bicycle_pa":"stands","capacity":6,"covered":"no","fee":"","operator":"","nameSource":"junction"},"sourceId":"osm"},{"id":"osm:node:13191623774","latitude":51.3576582,"longitude":-2.3703993,"name":"Midford Road near Clara Cross Lane","properties":{"access":"unknown","bicycle_pa":"stands","capacity":14,"covered":"yes","fee":"","operator":"","nameSource":"junction"},"sourceId":"osm"},{"id":"osm:node:13194431301","latitude":51.3623299,"longitude":-2.354875,"name":"Mulberry Way near Patch Street","properties":{"access":"unknown","bicycle_pa":"stands","capacity":6,"covered":"no","fee":"","operator":"","nameSource":"junction"},"sourceId":"osm"},{"id":"osm:node:13206900041","latitude":51.3791358,"longitude":-2.366376,"name":"Foundry Lane near Foundary Lane","properties":{"access":"private","bicycle_pa":"building","capacity":0,"covered":"yes","fee":"","operator":"","nameSource":"junction"},"sourceId":"osm"},{"id":"osm:node:13249878001","latitude":51.381359,"longitude":-2.3651285,"name":"James Street West near Charles Street","properties":{"access":"yes","bicycle_pa":"stands","capacity":2,"covered":"no","fee":"no","operator":"","nameSource":"junction"},"sourceId":"osm"},{"id":"osm:node:13249878002","latitude":51.3810209,"longitude":-2.3629963,"name":"Kingsmead Square by Society Cafe","properties":{"access":"unknown","bicycle_pa":"wall_loops","capacity":6,"covered":"no","fee":"","operator":"Society Cafe","nameSource":"landmark"},"sourceId":"osm"},{"id":"osm:node:13254805368","latitude":51.3811025,"longitude":-2.3646846,"name":"James Street West near Kingsmead North","properties":{"access":"yes","bicycle_pa":"stands","capacity":2,"covered":"no","fee":"no","operator":"","nameSource":"junction"},"sourceId":"osm"},{"id":"osm:node:13254805369","latitude":51.3810445,"longitude":-2.3645389,"name":"James Street West near Kingsmead North","properties":{"access":"yes","bicycle_pa":"stands","capacity":2,"covered":"no","fee":"no","operator":"","nameSource":"junction"},"sourceId":"osm"},{"id":"osm:node:1351288845","latitude":51.3796183,"longitude":-2.3589646,"name":"New Orchard Street by Fat Face","properties":{"access":"unknown","bicycle_pa":"stands","capacity":20,"covered":"no","fee":"","operator":"","nameSource":"landmark"},"sourceId":"osm"},{"id":"osm:node:13530540737","latitude":51.3777472,"longitude":-2.3601146,"name":"A367 near Broad Quay","properties":{"access":"unknown","bicycle_pa":"stands","capacity":4,"covered":"no","fee":"","operator":"","nameSource":"junction"},"sourceId":"osm"},{"id":"osm:node:13530540741","latitude":51.3777413,"longitude":-2.3600435,"name":"A367 near Broad Quay","properties":{"access":"unknown","bicycle_pa":"stands","capacity":4,"covered":"no","fee":"","operator":"","nameSource":"junction"},"sourceId":"osm"},{"id":"osm:node:13531161530","latitude":51.3689879,"longitude":-2.3666926,"name":"Wellsway near St Luke's Road","properties":{"access":"unknown","bicycle_pa":"stands","capacity":2,"covered":"no","fee":"","operator":"","nameSource":"junction"},"sourceId":"osm"},{"id":"osm:node:1357610402","latitude":51.3814544,"longitude":-2.362578,"name":"Saw Close near Westgate Street","properties":{"access":"unknown","bicycle_pa":"stands","capacity":4,"covered":"no","fee":"","operator":"","nameSource":"junction"},"sourceId":"osm"},{"id":"osm:node:1357626971","latitude":51.3839722,"longitude":-2.3615889,"name":"Milsom Place near Milsom Street","properties":{"access":"unknown","bicycle_pa":"stands","capacity":4,"covered":"no","fee":"","operator":"","nameSource":"junction"},"sourceId":"osm"},{"id":"osm:node:1357626977","latitude":51.3839847,"longitude":-2.3615058,"name":"Milsom Place near Milsom Street","properties":{"access":"unknown","bicycle_pa":"stands","capacity":4,"covered":"no","fee":"","operator":"","nameSource":"junction"},"sourceId":"osm"},{"id":"osm:node:1357626979","latitude":51.3846639,"longitude":-2.3619054,"name":"Milsom Street near George Street","properties":{"access":"unknown","bicycle_pa":"stands","capacity":12,"covered":"no","fee":"","operator":"","nameSource":"junction"},"sourceId":"osm"},{"id":"osm:node:1357638005","latitude":51.3856625,"longitude":-2.3597162,"name":"Walcot Street near Beehive Yard","properties":{"access":"unknown","bicycle_pa":"stands","capacity":6,"covered":"no","fee":"","operator":"","nameSource":"junction"},"sourceId":"osm"},{"id":"osm:node:1357638006","latitude":51.3832074,"longitude":-2.3612203,"name":"Old Bond Street near Green Street","properties":{"access":"unknown","bicycle_pa":"stands","capacity":4,"covered":"no","fee":"","operator":"","nameSource":"junction"},"sourceId":"osm"},{"id":"osm:node:13607421199","latitude":51.359575,"longitude":-2.351086,"name":"Combe Road near Westerleigh Road","properties":{"access":"unknown","bicycle_pa":"stands","capacity":4,"covered":"no","fee":"","operator":"","nameSource":"junction"},"sourceId":"osm"},{"id":"osm:node:13607421200","latitude":51.3595826,"longitude":-2.3510457,"name":"Combe Road near Westerleigh Road","properties":{"access":"unknown","bicycle_pa":"stands","capacity":2,"covered":"no","fee":"","operator":"","nameSource":"junction"},"sourceId":"osm"},{"id":"osm:node:13609550656","latitude":51.3742678,"longitude":-2.3583956,"name":"Alexandra Park cycle parking","properties":{"access":"unknown","bicycle_pa":"stands","capacity":4,"covered":"no","fee":"","operator":"","nameSource":"street"},"sourceId":"osm"},{"id":"osm:node:13626552664","latitude":51.3809168,"longitude":-2.3693426,"name":"Midland Bridge Road near B3118","properties":{"access":"unknown","bicycle_pa":"stands","capacity":4,"covered":"no","fee":"","operator":"","nameSource":"junction"},"sourceId":"osm"},{"id":"osm:node:13759804305","latitude":51.3740756,"longitude":-2.3713139,"name":"Bloomfield Avenue by Oldfield Road Nursery","properties":{"access":"private","bicycle_pa":"stands","capacity":12,"covered":"yes","fee":"","operator":"","nameSource":"landmark"},"sourceId":"osm"},{"id":"osm:node:1384321224","latitude":51.3853628,"longitude":-2.3512955,"name":"Sydney Place near Great Pulteney Street","properties":{"access":"unknown","bicycle_pa":"stands","capacity":8,"covered":"yes","fee":"","operator":"","nameSource":"junction"},"sourceId":"osm"},{"id":"osm:node:13954553999","latitude":51.3859169,"longitude":-2.3706449,"name":"Marlborough Buildings near Marlborough Lane","properties":{"access":"unknown","bicycle_pa":"stands","capacity":2,"covered":"no","fee":"","operator":"","nameSource":"junction"},"sourceId":"osm"},{"id":"osm:node:13954556308","latitude":51.3850335,"longitude":-2.3654991,"name":"Royal Avenue by TreeTop Cafe","properties":{"access":"unknown","bicycle_pa":"stands","capacity":8,"covered":"no","fee":"","operator":"","nameSource":"landmark"},"sourceId":"osm"},{"id":"osm:node:13954571007","latitude":51.3829486,"longitude":-2.3653623,"name":"Palace Yard Mews near Saint Paul's Place","properties":{"access":"private","bicycle_pa":"stands","capacity":8,"covered":"yes","fee":"","operator":"","nameSource":"junction"},"sourceId":"osm"},{"id":"osm:node:1430816479","latitude":51.3779753,"longitude":-2.3564654,"name":"Railway Place near Dorchester Street","properties":{"access":"private","bicycle_pa":"shed","capacity":6,"covered":"yes","fee":"","operator":"Falco","nameSource":"junction"},"sourceId":"osm"},{"id":"osm:node:1927005409","latitude":51.3856731,"longitude":-2.3506636,"name":"Sydney Place by Garden Café","properties":{"access":"unknown","bicycle_pa":"stands","capacity":14,"covered":"no","fee":"","operator":"","nameSource":"landmark"},"sourceId":"osm"},{"id":"osm:node:2058269896","latitude":51.3589502,"longitude":-2.360101,"name":"Bradford Road near Horsecombe Brow","properties":{"access":"unknown","bicycle_pa":"stands","capacity":6,"covered":"no","fee":"","operator":"","nameSource":"junction"},"sourceId":"osm"},{"id":"osm:node:2073343625","latitude":51.3774089,"longitude":-2.3574263,"name":"Brunel Square by Franco Manca","properties":{"access":"unknown","bicycle_pa":"stands","capacity":78,"covered":"yes","fee":"","operator":"","nameSource":"landmark"},"sourceId":"osm"},{"id":"osm:node:2314959488","latitude":51.3793904,"longitude":-2.3274122,"name":"The Parade near Quarry Road","properties":{"access":"unknown","bicycle_pa":"stands","capacity":32,"covered":"yes","fee":"","operator":"","nameSource":"junction"},"sourceId":"osm"},{"id":"osm:node:2314959489","latitude":51.3813346,"longitude":-2.3236533,"name":"Eastwood Upper Walk near Eastwood Middle Walk","properties":{"access":"unknown","bicycle_pa":"shed","capacity":20,"covered":"yes","fee":"","operator":"","nameSource":"junction"},"sourceId":"osm"},{"id":"osm:node:2314959490","latitude":51.3790357,"longitude":-2.327709,"name":"The Parade by 4ES (Western End) eScooter \\ eBike Rental Parking","properties":{"access":"unknown","bicycle_pa":"stands","capacity":26,"covered":"yes","fee":"","operator":"","nameSource":"landmark"},"sourceId":"osm"},{"id":"osm:node:2314959491","latitude":51.377866,"longitude":-2.3234472,"name":"Sports Cafe cycle parking","properties":{"access":"unknown","bicycle_pa":"","capacity":8,"covered":"","fee":"","operator":"","nameSource":"landmark"},"sourceId":"osm"},{"id":"osm:node:2314959495","latitude":51.3772216,"longitude":-2.3306824,"name":"Soldier Down Lane cycle parking","properties":{"access":"unknown","bicycle_pa":"stands","capacity":16,"covered":"yes","fee":"","operator":"","nameSource":"street"},"sourceId":"osm"},{"id":"osm:node:2314959497","latitude":51.3791814,"longitude":-2.3295775,"name":"The Parade cycle parking","properties":{"access":"unknown","bicycle_pa":"stands","capacity":38,"covered":"no","fee":"","operator":"","nameSource":"street"},"sourceId":"osm"},{"id":"osm:node:2314959499","latitude":51.3796389,"longitude":-2.3305899,"name":"Quarry Road by PSL 68169","properties":{"access":"unknown","bicycle_pa":"stands","capacity":14,"covered":"yes","fee":"","operator":"","nameSource":"landmark"},"sourceId":"osm"},{"id":"osm:node:2314959500","latitude":51.3777052,"longitude":-2.3307617,"name":"South Service Road cycle parking","properties":{"access":"unknown","bicycle_pa":"","capacity":8,"covered":"","fee":"","operator":"","nameSource":"street"},"sourceId":"osm"},{"id":"osm:node:2314959502","latitude":51.3791915,"longitude":-2.3252899,"name":"Convocation Avenue by Taxi Rank","properties":{"access":"unknown","bicycle_pa":"stands","capacity":34,"covered":"yes","fee":"","operator":"","nameSource":"landmark"},"sourceId":"osm"},{"id":"osm:node:2314959503","latitude":51.3791246,"longitude":-2.3300777,"name":"The Parade cycle parking","properties":{"access":"unknown","bicycle_pa":"stands","capacity":8,"covered":"yes","fee":"","operator":"","nameSource":"street"},"sourceId":"osm"},{"id":"osm:node:2314959504","latitude":51.3795726,"longitude":-2.3301983,"name":"Quarry Road cycle parking","properties":{"access":"unknown","bicycle_pa":"stands","capacity":8,"covered":"yes","fee":"","operator":"","nameSource":"street"},"sourceId":"osm"},{"id":"osm:node:2314959505","latitude":51.3780978,"longitude":-2.3249958,"name":"Convocation Avenue cycle parking","properties":{"access":"unknown","bicycle_pa":"stands","capacity":25,"covered":"yes","fee":"","operator":"","nameSource":"street"},"sourceId":"osm"},{"id":"osm:node:2314959507","latitude":51.3787412,"longitude":-2.3235934,"name":"PG 80040 Pete-Erik cycle parking","properties":{"access":"unknown","bicycle_pa":"shed","capacity":20,"covered":"yes","fee":"","operator":"","nameSource":"landmark"},"sourceId":"osm"},{"id":"osm:node:2440291212","latitude":51.3883592,"longitude":-2.359032,"name":"Walcot Street near Walcot Gate","properties":{"access":"unknown","bicycle_pa":"stands","capacity":4,"covered":"no","fee":"","operator":"","nameSource":"junction"},"sourceId":"osm"},{"id":"osm:node:2440293375","latitude":51.3809642,"longitude":-2.3574031,"name":"Pierrepont Street near North Parade","properties":{"access":"unknown","bicycle_pa":"stands","capacity":6,"covered":"no","fee":"","operator":"","nameSource":"junction"},"sourceId":"osm"},{"id":"osm:node:2440293378","latitude":51.381163,"longitude":-2.3575141,"name":"Terrace Walk near Pierrepont Street","properties":{"access":"unknown","bicycle_pa":"stands","capacity":6,"covered":"no","fee":"","operator":"","nameSource":"junction"},"sourceId":"osm"},{"id":"osm:node:2440300776","latitude":51.3814934,"longitude":-2.3603686,"name":"Stall Street near Bath Street","properties":{"access":"unknown","bicycle_pa":"stands","capacity":4,"covered":"no","fee":"","operator":"","nameSource":"junction"},"sourceId":"osm"},{"id":"osm:node:2440300777","latitude":51.3810156,"longitude":-2.3615295,"name":"Chandos Buildings near Saint Michael's Place","properties":{"access":"unknown","bicycle_pa":"stands","capacity":6,"covered":"no","fee":"","operator":"","nameSource":"junction"},"sourceId":"osm"},{"id":"osm:node:2440300778","latitude":51.3808565,"longitude":-2.3612184,"name":"Hot Bath Street near Bath Street","properties":{"access":"unknown","bicycle_pa":"stands","capacity":4,"covered":"no","fee":"","operator":"","nameSource":"junction"},"sourceId":"osm"},{"id":"osm:node:2440307062","latitude":51.3809938,"longitude":-2.3640937,"name":"Trinity Street near New Street","properties":{"access":"unknown","bicycle_pa":"stands","capacity":10,"covered":"no","fee":"","operator":"","nameSource":"junction"},"sourceId":"osm"},{"id":"osm:node:2440307063","latitude":51.381051,"longitude":-2.3638042,"name":"New Street near Trinity Street","properties":{"access":"unknown","bicycle_pa":"stands","capacity":12,"covered":"no","fee":"","operator":"","nameSource":"junction"},"sourceId":"osm"},{"id":"osm:node:2440309449","latitude":51.3813487,"longitude":-2.3691926,"name":"Stanier Road by Timpson","properties":{"access":"unknown","bicycle_pa":"stands","capacity":8,"covered":"yes","fee":"","operator":"","nameSource":"landmark"},"sourceId":"osm"},{"id":"osm:node:2440309450","latitude":51.3814474,"longitude":-2.369324,"name":"Stanier Road by Timpson","properties":{"access":"unknown","bicycle_pa":"stands","capacity":8,"covered":"no","fee":"","operator":"","nameSource":"landmark"},"sourceId":"osm"},{"id":"osm:node:2440309451","latitude":51.3814341,"longitude":-2.3679561,"name":"Midland Bridge Road near Green Park Mews","properties":{"access":"unknown","bicycle_pa":"stands","capacity":4,"covered":"yes","fee":"","operator":"","nameSource":"junction"},"sourceId":"osm"},{"id":"osm:node:2440309452","latitude":51.381397,"longitude":-2.367641,"name":"Midland Bridge Road near Green Park Mews","properties":{"access":"unknown","bicycle_pa":"stands","capacity":8,"covered":"yes","fee":"no","operator":"","nameSource":"junction"},"sourceId":"osm"},{"id":"osm:node:2440311979","latitude":51.3812608,"longitude":-2.3663843,"name":"Midland Bridge Road near Green Park Road","properties":{"access":"unknown","bicycle_pa":"stands","capacity":8,"covered":"no","fee":"","operator":"","nameSource":"junction"},"sourceId":"osm"},{"id":"osm:node:2440311980","latitude":51.3850227,"longitude":-2.361728,"name":"George Street near Bartlett Street","properties":{"access":"unknown","bicycle_pa":"stands","capacity":4,"covered":"no","fee":"","operator":"","nameSource":"junction"},"sourceId":"osm"},{"id":"osm:node:2440311981","latitude":51.3850954,"longitude":-2.3614376,"name":"Bartlett Street near George Street","properties":{"access":"unknown","bicycle_pa":"stands","capacity":4,"covered":"no","fee":"","operator":"","nameSource":"junction"},"sourceId":"osm"},{"id":"osm:node:2443183150","latitude":51.3828695,"longitude":-2.3495777,"name":"Bathwick Hill near Sydney Wharf","properties":{"access":"unknown","bicycle_pa":"stands","capacity":4,"covered":"no","fee":"","operator":"","nameSource":"junction"},"sourceId":"osm"},{"id":"osm:node:2443186814","latitude":51.3775611,"longitude":-2.3560799,"name":"Railway Place by Warrens","properties":{"access":"unknown","bicycle_pa":"stands","capacity":10,"covered":"yes","fee":"","operator":"","nameSource":"landmark"},"sourceId":"osm"},{"id":"osm:node:2443198925","latitude":51.3772395,"longitude":-2.3571773,"name":"Brunel Square by Pumpkin","properties":{"access":"unknown","bicycle_pa":"stands","capacity":32,"covered":"no","fee":"","operator":"","nameSource":"landmark"},"sourceId":"osm"},{"id":"osm:node:2443198926","latitude":51.3778701,"longitude":-2.3580372,"name":"Brunel Square by Giraffe","properties":{"access":"unknown","bicycle_pa":"stands","capacity":22,"covered":"no","fee":"","operator":"","nameSource":"landmark"},"sourceId":"osm"},{"id":"osm:node:2444918686","latitude":51.3740542,"longitude":-2.3663965,"name":"Wellsway near Bruton Avenue","properties":{"access":"unknown","bicycle_pa":"stands","capacity":2,"covered":"no","fee":"","operator":"","nameSource":"junction"},"sourceId":"osm"},{"id":"osm:node:2454437035","latitude":51.3812153,"longitude":-2.3545874,"name":"North Parade Road by Bath Sports and Leisure Centre","properties":{"access":"unknown","bicycle_pa":"stands","capacity":20,"covered":"yes","fee":"","operator":"","nameSource":"landmark"},"sourceId":"osm"},{"id":"osm:node:2454472553","latitude":51.3599613,"longitude":-2.3467617,"name":"The Avenue near The Firs","properties":{"access":"unknown","bicycle_pa":"anchors","capacity":5,"covered":"no","fee":"","operator":"","nameSource":"junction"},"sourceId":"osm"},{"id":"osm:node:2465818171","latitude":51.3912881,"longitude":-2.3549313,"name":"Snow Hill near Snow Hill Court","properties":{"access":"unknown","bicycle_pa":"stands","capacity":12,"covered":"no","fee":"","operator":"","nameSource":"junction"},"sourceId":"osm"},{"id":"osm:node:2465820778","latitude":51.3834588,"longitude":-2.3565876,"name":"Argyle Street near Laura Place","properties":{"access":"unknown","bicycle_pa":"stands","capacity":8,"covered":"no","fee":"","operator":"","nameSource":"junction"},"sourceId":"osm"},{"id":"osm:node:2465820960","latitude":51.3834119,"longitude":-2.3570865,"name":"Argyle Street near Grove Street","properties":{"access":"unknown","bicycle_pa":"stands","capacity":2,"covered":"no","fee":"","operator":"","nameSource":"junction"},"sourceId":"osm"},{"id":"osm:node:2465822264","latitude":51.3816581,"longitude":-2.3669638,"name":"James Street West near Green Park Road","properties":{"access":"yes","bicycle_pa":"stands","capacity":12,"covered":"yes","fee":"","operator":"","nameSource":"junction"},"sourceId":"osm"},{"id":"osm:node:2465822265","latitude":51.3813194,"longitude":-2.3680625,"name":"Midland Bridge Road near Green Park Mews","properties":{"access":"unknown","bicycle_pa":"stands","capacity":12,"covered":"yes","fee":"","operator":"","nameSource":"junction"},"sourceId":"osm"},{"id":"osm:node:2563191110","latitude":51.3823121,"longitude":-2.359098,"name":"High Street near Bridge Street","properties":{"access":"unknown","bicycle_pa":"stands","capacity":12,"covered":"no","fee":"","operator":"","nameSource":"junction"},"sourceId":"osm"},{"id":"osm:node:2563194304","latitude":51.3837372,"longitude":-2.3644684,"name":"Queen's Parade near Queen's Parade Place","properties":{"access":"unknown","bicycle_pa":"stands","capacity":6,"covered":"no","fee":"","operator":"","nameSource":"junction"},"sourceId":"osm"},{"id":"osm:node:2588990378","latitude":51.3817997,"longitude":-2.3591449,"name":"Cheap Street near High Street","properties":{"access":"unknown","bicycle_pa":"stands","capacity":6,"covered":"no","fee":"","operator":"","nameSource":"junction"},"sourceId":"osm"},{"id":"osm:node:2588990382","latitude":51.3822916,"longitude":-2.3592054,"name":"Northumberland Place by Society Cafe","properties":{"access":"unknown","bicycle_pa":"stands","capacity":12,"covered":"no","fee":"","operator":"","nameSource":"landmark"},"sourceId":"osm"},{"id":"osm:node:2588990385","latitude":51.3818709,"longitude":-2.3591296,"name":"High Street near Cheap Street","properties":{"access":"unknown","bicycle_pa":"stands","capacity":10,"covered":"no","fee":"","operator":"","nameSource":"junction"},"sourceId":"osm"},{"id":"osm:node:2730702169","latitude":51.3712644,"longitude":-2.3672739,"name":"Bloomfield Road cycle parking","properties":{"access":"unknown","bicycle_pa":"stands","capacity":4,"covered":"no","fee":"","operator":"","nameSource":"street"},"sourceId":"osm"},{"id":"osm:node:2730869854","latitude":51.3778795,"longitude":-2.3566568,"name":"Railway Place near Dorchester Street","properties":{"access":"unknown","bicycle_pa":"stands","capacity":46,"covered":"no","fee":"","operator":"","nameSource":"junction"},"sourceId":"osm"},{"id":"osm:node:2730910354","latitude":51.3864746,"longitude":-2.350834,"name":"A36 near Beckford Road","properties":{"access":"unknown","bicycle_pa":"stands","capacity":4,"covered":"no","fee":"","operator":"","nameSource":"junction"},"sourceId":"osm"},{"id":"osm:node:2855577224","latitude":51.3805424,"longitude":-2.364665,"name":"Kingsmead North near Kingsmead Terrace","properties":{"access":"unknown","bicycle_pa":"stands","capacity":10,"covered":"yes","fee":"","operator":"","nameSource":"junction"},"sourceId":"osm"},{"id":"osm:node:2855678763","latitude":51.3821485,"longitude":-2.3654971,"name":"Charles Street near Monmouth Street","properties":{"access":"unknown","bicycle_pa":"stands","capacity":6,"covered":"no","fee":"","operator":"","nameSource":"junction"},"sourceId":"osm"},{"id":"osm:node:2929288001","latitude":51.3804437,"longitude":-2.3267396,"name":"North Fire Road cycle parking","properties":{"access":"private","bicycle_pa":"shed","capacity":20,"covered":"yes","fee":"","operator":"","nameSource":"street"},"sourceId":"osm"},{"id":"osm:node:2932656576","latitude":51.3799859,"longitude":-2.324658,"name":"Chancellors' Building road by The Quads Laundrette","properties":{"access":"unknown","bicycle_pa":"stands","capacity":8,"covered":"yes","fee":"","operator":"","nameSource":"landmark"},"sourceId":"osm"},{"id":"osm:node:2932656577","latitude":51.3801689,"longitude":-2.3238907,"name":"Eastwood Middle Walk cycle parking","properties":{"access":"unknown","bicycle_pa":"stands","capacity":8,"covered":"yes","fee":"","operator":"","nameSource":"street"},"sourceId":"osm"},{"id":"osm:node:2932656578","latitude":51.3807078,"longitude":-2.3237156,"name":"Eastwood Middle Walk near Eastwood Upper Walk","properties":{"access":"unknown","bicycle_pa":"stands","capacity":8,"covered":"yes","fee":"","operator":"","nameSource":"junction"},"sourceId":"osm"},{"id":"osm:node:2932656579","latitude":51.3800749,"longitude":-2.3242698,"name":"Eastwood Middle Walk by The Quads Laundrette","properties":{"access":"unknown","bicycle_pa":"stands","capacity":8,"covered":"yes","fee":"","operator":"","nameSource":"landmark"},"sourceId":"osm"},{"id":"osm:node:2932656580","latitude":51.3804631,"longitude":-2.3235664,"name":"Eastwood Middle Walk near Eastwood Upper Walk","properties":{"access":"unknown","bicycle_pa":"stands","capacity":8,"covered":"yes","fee":"","operator":"","nameSource":"junction"},"sourceId":"osm"},{"id":"osm:node:2932656581","latitude":51.3804122,"longitude":-2.3242434,"name":"Eastwood Middle Walk cycle parking","properties":{"access":"unknown","bicycle_pa":"stands","capacity":8,"covered":"yes","fee":"","operator":"","nameSource":"street"},"sourceId":"osm"},{"id":"osm:node:2932656582","latitude":51.380546,"longitude":-2.3245479,"name":"Eastwood Middle Walk near Eastwood Upper Walk","properties":{"access":"unknown","bicycle_pa":"stands","capacity":8,"covered":"yes","fee":"","operator":"","nameSource":"junction"},"sourceId":"osm"},{"id":"osm:node:2932656583","latitude":51.3804582,"longitude":-2.3249381,"name":"Eastwood Middle Walk near Eastwood Upper Walk","properties":{"access":"unknown","bicycle_pa":"stands","capacity":8,"covered":"yes","fee":"","operator":"","nameSource":"junction"},"sourceId":"osm"},{"id":"osm:node:2957170984","latitude":51.3830675,"longitude":-2.3606996,"name":"New Bond Street near Green Street","properties":{"access":"unknown","bicycle_pa":"stands","capacity":4,"covered":"no","fee":"","operator":"","nameSource":"junction"},"sourceId":"osm"},{"id":"osm:node:2957171396","latitude":51.3821739,"longitude":-2.3656235,"name":"New King Street near Cumberland Row","properties":{"access":"unknown","bicycle_pa":"stands","capacity":2,"covered":"no","fee":"","operator":"","nameSource":"junction"},"sourceId":"osm"},{"id":"osm:node:2957171421","latitude":51.3739596,"longitude":-2.3608547,"name":"Alexandra Park cycle parking","properties":{"access":"unknown","bicycle_pa":"stands","capacity":2,"covered":"no","fee":"","operator":"","nameSource":"street"},"sourceId":"osm"},{"id":"osm:node:2957193936","latitude":51.3977438,"longitude":-2.345916,"name":"Brookleaze Buildings near Larkhall Square","properties":{"access":"unknown","bicycle_pa":"stands","capacity":4,"covered":"no","fee":"","operator":"","nameSource":"junction"},"sourceId":"osm"},{"id":"osm:node:3027636797","latitude":51.3599188,"longitude":-2.3616076,"name":"Hawthorn Grove near Sedgemoor Road","properties":{"access":"unknown","bicycle_pa":"stands","capacity":12,"covered":"no","fee":"","operator":"","nameSource":"junction"},"sourceId":"osm"},{"id":"osm:node:3151727546","latitude":51.3526971,"longitude":-2.3405575,"name":"Two Tunnels Greenway cycle parking","properties":{"access":"unknown","bicycle_pa":"stands","capacity":4,"covered":"no","fee":"","operator":"","nameSource":"street"},"sourceId":"osm"},{"id":"osm:node:3222060242","latitude":51.374333,"longitude":-2.3664729,"name":"Hayes Place near Beechen Cliff Road","properties":{"access":"unknown","bicycle_pa":"stands","capacity":6,"covered":"no","fee":"","operator":"","nameSource":"junction"},"sourceId":"osm"},{"id":"osm:node:3226548519","latitude":51.381462,"longitude":-2.3256636,"name":"Eastwood Upper Walk cycle parking","properties":{"access":"private","bicycle_pa":"shed","capacity":20,"covered":"yes","fee":"","operator":"","nameSource":"street"},"sourceId":"osm"},{"id":"osm:node:3226548520","latitude":51.3816762,"longitude":-2.3242286,"name":"Eastwood Upper Walk cycle parking","properties":{"access":"unknown","bicycle_pa":"shed","capacity":20,"covered":"yes","fee":"","operator":"","nameSource":"street"},"sourceId":"osm"},{"id":"osm:node:3228810414","latitude":51.3839266,"longitude":-2.3630278,"name":"Old King Street near Gay Street","properties":{"access":"unknown","bicycle_pa":"stands","capacity":16,"covered":"no","fee":"","operator":"","nameSource":"junction"},"sourceId":"osm"},{"id":"osm:node:3260606070","latitude":51.3917296,"longitude":-2.3508757,"name":"London Road by Morrisons","properties":{"access":"unknown","bicycle_pa":"stands","capacity":8,"covered":"no","fee":"","operator":"","nameSource":"landmark"},"sourceId":"osm"},{"id":"osm:node:3260606071","latitude":51.3914371,"longitude":-2.3507033,"name":"Morrisons Cafe cycle parking","properties":{"access":"unknown","bicycle_pa":"stands","capacity":4,"covered":"yes","fee":"","operator":"","nameSource":"landmark"},"sourceId":"osm"},{"id":"osm:node:3309546075","latitude":51.3799258,"longitude":-2.3618502,"name":"James Street West near Saint James's Parade","properties":{"access":"unknown","bicycle_pa":"","capacity":8,"covered":"no","fee":"","operator":"","nameSource":"junction"},"sourceId":"osm"},{"id":"osm:node:3318958564","latitude":51.3792527,"longitude":-2.3572618,"name":"Manvers Street near Henry Street","properties":{"access":"unknown","bicycle_pa":"stands","capacity":10,"covered":"yes","fee":"","operator":"","nameSource":"junction"},"sourceId":"osm"},{"id":"osm:node:3318959102","latitude":51.3800269,"longitude":-2.362069,"name":"James Street West near Westgate Buildings","properties":{"access":"unknown","bicycle_pa":"","capacity":20,"covered":"","fee":"","operator":"","nameSource":"junction"},"sourceId":"osm"},{"id":"osm:node:3377800897","latitude":51.3860114,"longitude":-2.3628423,"name":"St. Andrew's Terrace near St Andrew's Terrace","properties":{"access":"unknown","bicycle_pa":"stands","capacity":4,"covered":"no","fee":"","operator":"","nameSource":"junction"},"sourceId":"osm"},{"id":"osm:node:3393975837","latitude":51.361187,"longitude":-2.3460412,"name":"The Avenue near Willianstowe","properties":{"access":"unknown","bicycle_pa":"","capacity":4,"covered":"","fee":"","operator":"","nameSource":"junction"},"sourceId":"osm"},{"id":"osm:node:3440717525","latitude":51.3772853,"longitude":-2.3301094,"name":"3S Bike Shed","properties":{"access":"unknown","bicycle_pa":"shed","capacity":14,"covered":"yes","fee":"","operator":"","nameSource":"source"},"sourceId":"osm"},{"id":"osm:node:3502836913","latitude":51.3790376,"longitude":-2.3622369,"name":"Corn Street near Ambury","properties":{"access":"unknown","bicycle_pa":"stands","capacity":6,"covered":"no","fee":"","operator":"","nameSource":"junction"},"sourceId":"osm"},{"id":"osm:node:3502836916","latitude":51.3831105,"longitude":-2.3583712,"name":"Bridge Street near Grand Parade","properties":{"access":"unknown","bicycle_pa":"stands","capacity":8,"covered":"no","fee":"","operator":"","nameSource":"junction"},"sourceId":"osm"},{"id":"osm:node:3502854200","latitude":51.3447275,"longitude":-2.3449269,"name":"Two Tunnels Greenway by The Hope & Anchor","properties":{"access":"unknown","bicycle_pa":"","capacity":10,"covered":"","fee":"","operator":"","nameSource":"landmark"},"sourceId":"osm"},{"id":"osm:node:3589456704","latitude":51.3912756,"longitude":-2.3540984,"name":"London Road near Bedford Street","properties":{"access":"unknown","bicycle_pa":"stands","capacity":4,"covered":"no","fee":"","operator":"","nameSource":"junction"},"sourceId":"osm"},{"id":"osm:node:3589456705","latitude":51.3907893,"longitude":-2.3553079,"name":"London Road near Thomas Street","properties":{"access":"unknown","bicycle_pa":"stands","capacity":4,"covered":"no","fee":"","operator":"","nameSource":"junction"},"sourceId":"osm"},{"id":"osm:node:3679532663","latitude":51.381378,"longitude":-2.3625867,"name":"Monmouth Street near Westgate Buildings","properties":{"access":"unknown","bicycle_pa":"stands","capacity":6,"covered":"no","fee":"","operator":"","nameSource":"junction"},"sourceId":"osm"},{"id":"osm:node:3679532667","latitude":51.3813311,"longitude":-2.362464,"name":"Saw Close near Westgate Street","properties":{"access":"unknown","bicycle_pa":"stands","capacity":6,"covered":"no","fee":"","operator":"","nameSource":"junction"},"sourceId":"osm"},{"id":"osm:node:3679532669","latitude":51.3814269,"longitude":-2.3626873,"name":"Monmouth Street near Westgate Buildings","properties":{"access":"unknown","bicycle_pa":"stands","capacity":4,"covered":"no","fee":"","operator":"","nameSource":"junction"},"sourceId":"osm"},{"id":"osm:node:3689284330","latitude":51.3766746,"longitude":-2.3558861,"name":"Claverton Street near A36","properties":{"access":"unknown","bicycle_pa":"stands","capacity":16,"covered":"no","fee":"","operator":"","nameSource":"junction"},"sourceId":"osm"},{"id":"osm:node:3725075335","latitude":51.3803565,"longitude":-2.3620324,"name":"St James's Rampire near Hetling Court","properties":{"access":"unknown","bicycle_pa":"stands","capacity":12,"covered":"no","fee":"","operator":"","nameSource":"junction"},"sourceId":"osm"},{"id":"osm:node:3783607442","latitude":51.3817304,"longitude":-2.3582304,"name":"Orange Grove near Pierrepont Street","properties":{"access":"unknown","bicycle_pa":"stands","capacity":12,"covered":"no","fee":"","operator":"","nameSource":"junction"},"sourceId":"osm"},{"id":"osm:node:3783607443","latitude":51.3818225,"longitude":-2.35847,"name":"Orange Grove near Cheap Street","properties":{"access":"unknown","bicycle_pa":"stands","capacity":6,"covered":"no","fee":"","operator":"","nameSource":"junction"},"sourceId":"osm"},{"id":"osm:node:3810397392","latitude":51.3657659,"longitude":-2.3458042,"name":"Ralph Allen Drive by Prior Park Ticket Office","properties":{"access":"unknown","bicycle_pa":"","capacity":6,"covered":"","fee":"","operator":"","nameSource":"landmark"},"sourceId":"osm"},{"id":"osm:node:3820869358","latitude":51.3796196,"longitude":-2.3588184,"name":"New Orchard Street by Fat Face","properties":{"access":"unknown","bicycle_pa":"stands","capacity":8,"covered":"no","fee":"","operator":"","nameSource":"landmark"},"sourceId":"osm"},{"id":"osm:node:3826769265","latitude":51.3878253,"longitude":-2.3479929,"name":"Beckford Road near Darlington Road","properties":{"access":"unknown","bicycle_pa":"stands","capacity":6,"covered":"no","fee":"","operator":"","nameSource":"junction"},"sourceId":"osm"},{"id":"osm:node:3869442966","latitude":51.3934943,"longitude":-2.3712489,"name":"Winifred's Lane near Somerset Lane","properties":{"access":"unknown","bicycle_pa":"stands","capacity":10,"covered":"","fee":"","operator":"","nameSource":"junction"},"sourceId":"osm"},{"id":"osm:node:4068244634","latitude":51.3972936,"longitude":-2.3454627,"name":"Larkhall Square near Brookleaze Buildings","properties":{"access":"unknown","bicycle_pa":"stands","capacity":2,"covered":"no","fee":"","operator":"","nameSource":"junction"},"sourceId":"osm"},{"id":"osm:node:4068244635","latitude":51.3972685,"longitude":-2.3453286,"name":"Larkhall Square near Saint Saviour's Road","properties":{"access":"unknown","bicycle_pa":"stands","capacity":2,"covered":"no","fee":"","operator":"","nameSource":"junction"},"sourceId":"osm"},{"id":"osm:node:4171721614","latitude":51.3784988,"longitude":-2.3610456,"name":"Somerset Street by Bath City Church The Forum","properties":{"access":"unknown","bicycle_pa":"stands","capacity":4,"covered":"no","fee":"","operator":"","nameSource":"landmark"},"sourceId":"osm"},{"id":"osm:node:4171735389","latitude":51.3793698,"longitude":-2.3647614,"name":"Green Park Road near Riverside Parade","properties":{"access":"unknown","bicycle_pa":"stands","capacity":8,"covered":"no","fee":"","operator":"","nameSource":"junction"},"sourceId":"osm"},{"id":"osm:node:4475149761","latitude":51.3796198,"longitude":-2.3323531,"name":"Quarry Road by PG 80268 Andy-Bart","properties":{"access":"unknown","bicycle_pa":"stands","capacity":40,"covered":"yes","fee":"","operator":"","nameSource":"landmark"},"sourceId":"osm"},{"id":"osm:node:4475302490","latitude":51.379825,"longitude":-2.3259956,"name":"Chancellors' Building road near Quarry Road","properties":{"access":"unknown","bicycle_pa":"","capacity":10,"covered":"","fee":"","operator":"","nameSource":"junction"},"sourceId":"osm"},{"id":"osm:node:4487097033","latitude":51.3866681,"longitude":-2.3658697,"name":"Circus Place near Circus Mews","properties":{"access":"unknown","bicycle_pa":"stands","capacity":2,"covered":"no","fee":"","operator":"","nameSource":"junction"},"sourceId":"osm"},{"id":"osm:node:4489398999","latitude":51.3820379,"longitude":-2.3679656,"name":"James Street West near Norfolk Buildings","properties":{"access":"unknown","bicycle_pa":"stands","capacity":16,"covered":"yes","fee":"","operator":"","nameSource":"junction"},"sourceId":"osm"},{"id":"osm:node:4489399002","latitude":51.3819976,"longitude":-2.3678829,"name":"James Street West by Riverside Health Centre","properties":{"access":"unknown","bicycle_pa":"stands","capacity":16,"covered":"yes","fee":"","operator":"","nameSource":"landmark"},"sourceId":"osm"},{"id":"osm:node:4544838370","latitude":51.3802116,"longitude":-2.3225994,"name":"Quads eScooter \\ eBike Rental Parking cycle parking","properties":{"access":"unknown","bicycle_pa":"","capacity":10,"covered":"","fee":"","operator":"","nameSource":"landmark"},"sourceId":"osm"},{"id":"osm:node:4546506892","latitude":51.379693,"longitude":-2.3272779,"name":"Quarry Road near The Parade","properties":{"access":"unknown","bicycle_pa":"stands","capacity":19,"covered":"yes","fee":"","operator":"","nameSource":"junction"},"sourceId":"osm"},{"id":"osm:node:4546506893","latitude":51.3797536,"longitude":-2.3275517,"name":"The Parade by PSL 65400","properties":{"access":"unknown","bicycle_pa":"stands","capacity":12,"covered":"yes","fee":"","operator":"","nameSource":"landmark"},"sourceId":"osm"},{"id":"osm:node:4546506894","latitude":51.3798015,"longitude":-2.3275379,"name":"The Parade by PSL 65400","properties":{"access":"unknown","bicycle_pa":"stands","capacity":6,"covered":"yes","fee":"","operator":"","nameSource":"landmark"},"sourceId":"osm"},{"id":"osm:node:4551156806","latitude":51.3833552,"longitude":-2.3612355,"name":"Milsom Street near Old Bond Street","properties":{"access":"unknown","bicycle_pa":"stands","capacity":4,"covered":"no","fee":"","operator":"","nameSource":"junction"},"sourceId":"osm"},{"id":"osm:node:4551156807","latitude":51.3834001,"longitude":-2.3612537,"name":"Milsom Street near Old Bond Street","properties":{"access":"unknown","bicycle_pa":"stands","capacity":4,"covered":"no","fee":"","operator":"","nameSource":"junction"},"sourceId":"osm"},{"id":"osm:node:4565652894","latitude":51.3864268,"longitude":-2.3629864,"name":"St. Andrew's Terrace near St Andrew's Terrace","properties":{"access":"unknown","bicycle_pa":"stands","capacity":2,"covered":"no","fee":"","operator":"","nameSource":"junction"},"sourceId":"osm"},{"id":"osm:node:4571434932","latitude":51.3569923,"longitude":-2.3721555,"name":"Frome Road by Sainsbury's","properties":{"access":"unknown","bicycle_pa":"stands","capacity":30,"covered":"yes","fee":"","operator":"","nameSource":"landmark"},"sourceId":"osm"},{"id":"osm:node:4622063497","latitude":51.3795606,"longitude":-2.3272221,"name":"The Parade near Quarry Road","properties":{"access":"unknown","bicycle_pa":"stands","capacity":20,"covered":"yes","fee":"","operator":"","nameSource":"junction"},"sourceId":"osm"},{"id":"osm:node:4622066230","latitude":51.3794537,"longitude":-2.3278762,"name":"The Parade by PSL 65400","properties":{"access":"unknown","bicycle_pa":"stands","capacity":24,"covered":"yes","fee":"","operator":"","nameSource":"landmark"},"sourceId":"osm"},{"id":"osm:node:4622094691","latitude":51.3802578,"longitude":-2.3234998,"name":"Eastwood Middle Walk cycle parking","properties":{"access":"unknown","bicycle_pa":"stands","capacity":8,"covered":"yes","fee":"","operator":"","nameSource":"street"},"sourceId":"osm"},{"id":"osm:node:4622463248","latitude":51.3782837,"longitude":-2.3249351,"name":"Convocation Avenue by The Edge","properties":{"access":"unknown","bicycle_pa":"stands","capacity":24,"covered":"yes","fee":"","operator":"","nameSource":"landmark"},"sourceId":"osm"},{"id":"osm:node:4623703022","latitude":51.3897435,"longitude":-2.3561842,"name":"Bathwick Street near Cleveland Place","properties":{"access":"unknown","bicycle_pa":"stands","capacity":4,"covered":"no","fee":"","operator":"","nameSource":"junction"},"sourceId":"osm"},{"id":"osm:node:4634908355","latitude":51.3587728,"longitude":-2.3367185,"name":"Monkton Combe Kindergarten cycle parking","properties":{"access":"unknown","bicycle_pa":"","capacity":10,"covered":"","fee":"","operator":"","nameSource":"landmark"},"sourceId":"osm"},{"id":"osm:node:4643828260","latitude":51.3802075,"longitude":-2.3299282,"name":"The Parade by The University Post Office","properties":{"access":"unknown","bicycle_pa":"stands","capacity":10,"covered":"yes","fee":"","operator":"","nameSource":"landmark"},"sourceId":"osm"},{"id":"osm:node:4643828264","latitude":51.3798121,"longitude":-2.3302656,"name":"WH Bike Shed","properties":{"access":"private","bicycle_pa":"shed","capacity":24,"covered":"yes","fee":"","operator":"","nameSource":"source"},"sourceId":"osm"},{"id":"osm:node:4643828268","latitude":51.3808444,"longitude":-2.3301656,"name":"North Fire Road by WOO eScooter \\ eBike Rental Parking","properties":{"access":"unknown","bicycle_pa":"stands","capacity":6,"covered":"yes","fee":"","operator":"","nameSource":"landmark"},"sourceId":"osm"},{"id":"osm:node:4718266443","latitude":51.3806863,"longitude":-2.3300971,"name":"North Fire Road by WOO eScooter \\ eBike Rental Parking","properties":{"access":"unknown","bicycle_pa":"stands","capacity":6,"covered":"yes","fee":"","operator":"","nameSource":"landmark"},"sourceId":"osm"},{"id":"osm:node:4718333972","latitude":51.3813756,"longitude":-2.3235341,"name":"Eastwood Upper Walk near Eastwood Middle Walk","properties":{"access":"unknown","bicycle_pa":"stands","capacity":12,"covered":"","fee":"","operator":"","nameSource":"junction"},"sourceId":"osm"},{"id":"osm:node:4718334201","latitude":51.3813872,"longitude":-2.324261,"name":"Eastwood Upper Walk near Eastwood Middle Walk","properties":{"access":"unknown","bicycle_pa":"stands","capacity":12,"covered":"","fee":"","operator":"","nameSource":"junction"},"sourceId":"osm"},{"id":"osm:node:4743016005","latitude":51.3780007,"longitude":-2.3602489,"name":"Broad Quay near A367","properties":{"access":"unknown","bicycle_pa":"stands","capacity":6,"covered":"yes","fee":"","operator":"","nameSource":"junction"},"sourceId":"osm"},{"id":"osm:node:4786749975","latitude":51.3791258,"longitude":-2.3569,"name":"Manvers Street near Railway Street","properties":{"access":"unknown","bicycle_pa":"stands","capacity":4,"covered":"no","fee":"","operator":"","nameSource":"junction"},"sourceId":"osm"},{"id":"osm:node:4807977985","latitude":51.3966704,"longitude":-2.32169,"name":"Mill Lane near Tyning Road","properties":{"access":"unknown","bicycle_pa":"stands","capacity":4,"covered":"no","fee":"","operator":"","nameSource":"junction"},"sourceId":"osm"},{"id":"osm:node:4807978188","latitude":51.3969972,"longitude":-2.3206834,"name":"Tyning Road near Church Close","properties":{"access":"unknown","bicycle_pa":"stands","capacity":6,"covered":"no","fee":"","operator":"","nameSource":"junction"},"sourceId":"osm"},{"id":"osm:node:4807994258","latitude":51.393412,"longitude":-2.3210215,"name":"Holcombe Lane near Holcombe Vale","properties":{"access":"unknown","bicycle_pa":"stands","capacity":6,"covered":"no","fee":"","operator":"","nameSource":"junction"},"sourceId":"osm"},{"id":"osm:node:4829176409","latitude":51.3837817,"longitude":-2.3512862,"name":"Pulteney Road near A36","properties":{"access":"unknown","bicycle_pa":"stands","capacity":14,"covered":"no","fee":"","operator":"","nameSource":"junction"},"sourceId":"osm"},{"id":"osm:node:4861824234","latitude":51.3906656,"longitude":-2.3455154,"name":"Hampton Row cycle parking","properties":{"access":"unknown","bicycle_pa":"stands","capacity":12,"covered":"no","fee":"","operator":"","nameSource":"street"},"sourceId":"osm"},{"id":"osm:node:4872544973","latitude":51.3753165,"longitude":-2.3214971,"name":"Claverton Hill by Bath Cats & Dogs Home","properties":{"access":"unknown","bicycle_pa":"","capacity":4,"covered":"","fee":"","operator":"","nameSource":"landmark"},"sourceId":"osm"},{"id":"osm:node:4892506001","latitude":51.377484,"longitude":-2.3565474,"name":"Brunel Square by Warrens","properties":{"access":"unknown","bicycle_pa":"stands","capacity":20,"covered":"no","fee":"","operator":"","nameSource":"landmark"},"sourceId":"osm"},{"id":"osm:node:5007853733","latitude":51.3809377,"longitude":-2.3616273,"name":"Hot Bath Street near Saint Michael's Place","properties":{"access":"unknown","bicycle_pa":"stands","capacity":8,"covered":"no","fee":"","operator":"","nameSource":"junction"},"sourceId":"osm"},{"id":"osm:node:5217860001","latitude":51.3821715,"longitude":-2.3623388,"name":"Upper Borough Walls near Barton Street","properties":{"access":"unknown","bicycle_pa":"stands","capacity":12,"covered":"no","fee":"","operator":"","nameSource":"junction"},"sourceId":"osm"},{"id":"osm:node:5226660416","latitude":51.382032,"longitude":-2.3622999,"name":"Saw Close near Barton Street","properties":{"access":"unknown","bicycle_pa":"stands","capacity":12,"covered":"no","fee":"","operator":"","nameSource":"junction"},"sourceId":"osm"},{"id":"osm:node:5454247020","latitude":51.3880156,"longitude":-2.3649157,"name":"Julian Road near Burlington Street","properties":{"access":"unknown","bicycle_pa":"stands","capacity":2,"covered":"no","fee":"","operator":"","nameSource":"junction"},"sourceId":"osm"},{"id":"osm:node:5454249957","latitude":51.3879289,"longitude":-2.3639944,"name":"Julian Road near Ballance Street","properties":{"access":"unknown","bicycle_pa":"stands","capacity":6,"covered":"no","fee":"","operator":"","nameSource":"junction"},"sourceId":"osm"},{"id":"osm:node:5810390928","latitude":51.3818257,"longitude":-2.3623889,"name":"Saw Close near Barton Street","properties":{"access":"unknown","bicycle_pa":"stands","capacity":8,"covered":"no","fee":"","operator":"","nameSource":"junction"},"sourceId":"osm"},{"id":"osm:node:5899876991","latitude":51.3622797,"longitude":-2.3541558,"name":"Mulberry Way near Patch Street","properties":{"access":"unknown","bicycle_pa":"stands","capacity":20,"covered":"no","fee":"","operator":"","nameSource":"junction"},"sourceId":"osm"},{"id":"osm:node:5913970246","latitude":51.3624291,"longitude":-2.3545157,"name":"Kellaway Lane near Mulberry Way","properties":{"access":"unknown","bicycle_pa":"stands","capacity":8,"covered":"yes","fee":"","operator":"","nameSource":"junction"},"sourceId":"osm"},{"id":"osm:node:5914859384","latitude":51.3625258,"longitude":-2.3542046,"name":"Kellaway Lane near Mulberry Way","properties":{"access":"unknown","bicycle_pa":"stands","capacity":8,"covered":"yes","fee":"","operator":"","nameSource":"junction"},"sourceId":"osm"},{"id":"osm:node:6074756310","latitude":51.3883709,"longitude":-2.3697801,"name":"Weston Road near Cavendish Road","properties":{"access":"unknown","bicycle_pa":"stands","capacity":6,"covered":"no","fee":"","operator":"","nameSource":"junction"},"sourceId":"osm"},{"id":"osm:node:6074756958","latitude":51.3885072,"longitude":-2.3695292,"name":"Cavendish Road near Julian Road","properties":{"access":"unknown","bicycle_pa":"stands","capacity":6,"covered":"no","fee":"","operator":"","nameSource":"junction"},"sourceId":"osm"},{"id":"osm:node:612237801","latitude":51.3833888,"longitude":-2.3595887,"name":"Walcot Street near Broad Street","properties":{"access":"unknown","bicycle_pa":"stands","capacity":24,"covered":"no","fee":"","operator":"","nameSource":"junction"},"sourceId":"osm"},{"id":"osm:node:6365093800","latitude":51.3938755,"longitude":-2.3474962,"name":"Saint Saviour's Road near London Road","properties":{"access":"unknown","bicycle_pa":"stands","capacity":4,"covered":"no","fee":"","operator":"","nameSource":"junction"},"sourceId":"osm"},{"id":"osm:node:6370742457","latitude":51.3822217,"longitude":-2.3625367,"name":"Barton Street near Saw Close","properties":{"access":"unknown","bicycle_pa":"stands","capacity":6,"covered":"no","fee":"","operator":"","nameSource":"junction"},"sourceId":"osm"},{"id":"osm:node:638868786","latitude":51.3578414,"longitude":-2.3143668,"name":"CMZ by The Angelfish Cafe","properties":{"access":"unknown","bicycle_pa":"","capacity":18,"covered":"","fee":"","operator":"","nameSource":"landmark"},"sourceId":"osm"},{"id":"osm:node:638868800","latitude":51.3797403,"longitude":-2.3596802,"name":"Stall Street near Lower Borough Walls","properties":{"access":"unknown","bicycle_pa":"stands","capacity":6,"covered":"no","fee":"","operator":"","nameSource":"junction"},"sourceId":"osm"},{"id":"osm:node:638868820","latitude":51.3814312,"longitude":-2.3604477,"name":"Stall Street near Bath Street","properties":{"access":"unknown","bicycle_pa":"stands","capacity":6,"covered":"no","fee":"","operator":"","nameSource":"junction"},"sourceId":"osm"},{"id":"osm:node:638868838","latitude":51.3832212,"longitude":-2.3628963,"name":"Queen Square near Chapel Row","properties":{"access":"unknown","bicycle_pa":"stands","capacity":4,"covered":"no","fee":"","operator":"","nameSource":"junction"},"sourceId":"osm"},{"id":"osm:node:638868846","latitude":51.3869555,"longitude":-2.3657392,"name":"Circus Mews near Margaret's Buildings","properties":{"access":"unknown","bicycle_pa":"stands","capacity":2,"covered":"no","fee":"","operator":"","nameSource":"junction"},"sourceId":"osm"},{"id":"osm:node:638868848","latitude":51.3881241,"longitude":-2.3674105,"name":"Julian Road near Crescent Lane","properties":{"access":"unknown","bicycle_pa":"stands","capacity":4,"covered":"no","fee":"","operator":"","nameSource":"junction"},"sourceId":"osm"},{"id":"osm:node:638868852","latitude":51.3837378,"longitude":-2.3614884,"name":"Milsom Place near Milsom Street","properties":{"access":"unknown","bicycle_pa":"stands","capacity":4,"covered":"no","fee":"","operator":"","nameSource":"junction"},"sourceId":"osm"},{"id":"osm:node:638868855","latitude":51.3834382,"longitude":-2.3613473,"name":"Milsom Street near Old Bond Street","properties":{"access":"unknown","bicycle_pa":"stands","capacity":4,"covered":"no","fee":"","operator":"","nameSource":"junction"},"sourceId":"osm"},{"id":"osm:node:638868858","latitude":51.3834506,"longitude":-2.3612731,"name":"Milsom Street near Old Bond Street","properties":{"access":"unknown","bicycle_pa":"stands","capacity":4,"covered":"no","fee":"","operator":"","nameSource":"junction"},"sourceId":"osm"},{"id":"osm:node:638868860","latitude":51.3837458,"longitude":-2.3613978,"name":"Milsom Place near Milsom Street","properties":{"access":"unknown","bicycle_pa":"stands","capacity":4,"covered":"no","fee":"","operator":"","nameSource":"junction"},"sourceId":"osm"},{"id":"osm:node:638868862","latitude":51.3847129,"longitude":-2.3618417,"name":"George Street near Milsom Street","properties":{"access":"unknown","bicycle_pa":"stands","capacity":4,"covered":"no","fee":"","operator":"","nameSource":"junction"},"sourceId":"osm"},{"id":"osm:node:638868865","latitude":51.3846995,"longitude":-2.3619235,"name":"George Street near Milsom Street","properties":{"access":"unknown","bicycle_pa":"stands","capacity":4,"covered":"no","fee":"","operator":"","nameSource":"junction"},"sourceId":"osm"},{"id":"osm:node:638868867","latitude":51.3899876,"longitude":-2.3570549,"name":"Cleveland Place near London Road","properties":{"access":"unknown","bicycle_pa":"stands","capacity":4,"covered":"no","fee":"","operator":"","nameSource":"junction"},"sourceId":"osm"},{"id":"osm:node:638868870","latitude":51.3899966,"longitude":-2.3565384,"name":"Cleveland Place near London Road","properties":{"access":"unknown","bicycle_pa":"stands","capacity":6,"covered":"no","fee":"","operator":"","nameSource":"junction"},"sourceId":"osm"},{"id":"osm:node:6401214406","latitude":51.380359,"longitude":-2.3324253,"name":"Quarry Road by CAFE at Polden","properties":{"access":"unknown","bicycle_pa":"stands","capacity":8,"covered":"no","fee":"","operator":"","nameSource":"landmark"},"sourceId":"osm"},{"id":"osm:node:654572787","latitude":51.3765193,"longitude":-2.3545627,"name":"Claverton Street near Millbrook Place","properties":{"access":"unknown","bicycle_pa":"stands","capacity":2,"covered":"no","fee":"","operator":"","nameSource":"junction"},"sourceId":"osm"},{"id":"osm:node:654575919","latitude":51.3796892,"longitude":-2.3597995,"name":"Southgate Street by Pandora","properties":{"access":"unknown","bicycle_pa":"stands","capacity":6,"covered":"no","fee":"","operator":"","nameSource":"landmark"},"sourceId":"osm"},{"id":"osm:node:654575920","latitude":51.3817777,"longitude":-2.3583598,"name":"Orange Grove near Cheap Street","properties":{"access":"unknown","bicycle_pa":"stands","capacity":4,"covered":"no","fee":"","operator":"","nameSource":"junction"},"sourceId":"osm"},{"id":"osm:node:654578007","latitude":51.3859696,"longitude":-2.3596278,"name":"Walcot Street near Old Orchard","properties":{"access":"unknown","bicycle_pa":"stands","capacity":6,"covered":"no","fee":"","operator":"","nameSource":"junction"},"sourceId":"osm"},{"id":"osm:node:6550172838","latitude":51.3818206,"longitude":-2.3537084,"name":"Bath Sports and Leisure Centre cycle parking","properties":{"access":"unknown","bicycle_pa":"stands","capacity":10,"covered":"no","fee":"","operator":"","nameSource":"landmark"},"sourceId":"osm"},{"id":"osm:node:6736098719","latitude":51.3849072,"longitude":-2.3600545,"name":"Broad Street Place near Gracious Court","properties":{"access":"yes","bicycle_pa":"wall_loops","capacity":5,"covered":"no","fee":"no","operator":"","nameSource":"junction"},"sourceId":"osm"},{"id":"osm:node:695808997","latitude":51.3785501,"longitude":-2.3597849,"name":"Southgate","properties":{"access":"unknown","bicycle_pa":"stands","capacity":32,"covered":"no","fee":"","operator":"","nameSource":"source"},"sourceId":"osm"},{"id":"osm:node:701848166","latitude":51.3849958,"longitude":-2.3594756,"name":"Broad Street Place near Walcot Street","properties":{"access":"unknown","bicycle_pa":"stands","capacity":10,"covered":"no","fee":"","operator":"","nameSource":"junction"},"sourceId":"osm"},{"id":"osm:node:701848174","latitude":51.3777363,"longitude":-2.3599926,"name":"Broad Quay near A367","properties":{"access":"unknown","bicycle_pa":"stands","capacity":8,"covered":"no","fee":"","operator":"","nameSource":"junction"},"sourceId":"osm"},{"id":"osm:node:701848179","latitude":51.3737612,"longitude":-2.3666111,"name":"Wellsway near Bloomfield Avenue","properties":{"access":"unknown","bicycle_pa":"stands","capacity":4,"covered":"no","fee":"","operator":"","nameSource":"junction"},"sourceId":"osm"},{"id":"osm:node:703514910","latitude":51.3815585,"longitude":-2.363616,"name":"Kingsmead Street near New Street","properties":{"access":"unknown","bicycle_pa":"stands","capacity":6,"covered":"no","fee":"","operator":"","nameSource":"junction"},"sourceId":"osm"},{"id":"osm:node:7072150232","latitude":51.3797475,"longitude":-2.3272184,"name":"Quarry Road near The Parade","properties":{"access":"unknown","bicycle_pa":"stands","capacity":14,"covered":"yes","fee":"","operator":"","nameSource":"junction"},"sourceId":"osm"},{"id":"osm:node:7217245779","latitude":51.3807764,"longitude":-2.3575692,"name":"North Parade near Terrace Walk","properties":{"access":"unknown","bicycle_pa":"stands","capacity":8,"covered":"no","fee":"","operator":"","nameSource":"junction"},"sourceId":"osm"},{"id":"osm:node:7674425265","latitude":51.3800651,"longitude":-2.3569968,"name":"Pierrepont Street near South Parade","properties":{"access":"unknown","bicycle_pa":"stands","capacity":10,"covered":"no","fee":"","operator":"","nameSource":"junction"},"sourceId":"osm"},{"id":"osm:node:7954815167","latitude":51.397963,"longitude":-2.3411972,"name":"Gloucester Road near Pitman Court","properties":{"access":"unknown","bicycle_pa":"stands","capacity":2,"covered":"no","fee":"","operator":"","nameSource":"junction"},"sourceId":"osm"},{"id":"osm:node:7954815168","latitude":51.3979813,"longitude":-2.341167,"name":"Gloucester Road near Pitman Court","properties":{"access":"unknown","bicycle_pa":"stands","capacity":2,"covered":"no","fee":"","operator":"","nameSource":"junction"},"sourceId":"osm"},{"id":"osm:node:8040513561","latitude":51.3808992,"longitude":-2.3629877,"name":"Kingsmead Square by Coral","properties":{"access":"unknown","bicycle_pa":"stands","capacity":10,"covered":"no","fee":"","operator":"","nameSource":"landmark"},"sourceId":"osm"},{"id":"osm:node:8043212214","latitude":51.3811358,"longitude":-2.3635747,"name":"New Street near Trinity Street","properties":{"access":"unknown","bicycle_pa":"stands","capacity":10,"covered":"no","fee":"","operator":"","nameSource":"junction"},"sourceId":"osm"},{"id":"osm:node:8500847401","latitude":51.3686142,"longitude":-2.3669756,"name":"Hatfield Road near Wellsway","properties":{"access":"unknown","bicycle_pa":"stands","capacity":4,"covered":"no","fee":"","operator":"","nameSource":"junction"},"sourceId":"osm"},{"id":"osm:node:8593541616","latitude":51.38178,"longitude":-2.3591378,"name":"Cheap Street near High Street","properties":{"access":"unknown","bicycle_pa":"stands","capacity":6,"covered":"no","fee":"","operator":"","nameSource":"junction"},"sourceId":"osm"},{"id":"osm:node:8640059430","latitude":51.3850534,"longitude":-2.3556251,"name":"Henrietta Mews cycle parking","properties":{"access":"unknown","bicycle_pa":"stands","capacity":4,"covered":"no","fee":"","operator":"","nameSource":"street"},"sourceId":"osm"},{"id":"osm:node:8730907915","latitude":51.3820541,"longitude":-2.3585153,"name":"Boat Stall Lane by Brown's","properties":{"access":"unknown","bicycle_pa":"stands","capacity":6,"covered":"no","fee":"","operator":"","nameSource":"landmark"},"sourceId":"osm"},{"id":"osm:node:8878440832","latitude":51.3837496,"longitude":-2.354025,"name":"Pulteney Mews near William Street","properties":{"access":"unknown","bicycle_pa":"stands","capacity":6,"covered":"no","fee":"","operator":"","nameSource":"junction"},"sourceId":"osm"},{"id":"osm:node:9001693748","latitude":51.3632918,"longitude":-2.3532376,"name":"Cannon Court near Brinkworth Road","properties":{"access":"unknown","bicycle_pa":"wall_hoops","capacity":10,"covered":"no","fee":"","operator":"","nameSource":"junction"},"sourceId":"osm"},{"id":"osm:node:9168479114","latitude":51.3546279,"longitude":-2.2859126,"name":"Hartley Farm cycle parking","properties":{"access":"unknown","bicycle_pa":"wall_loops","capacity":18,"covered":"no","fee":"","operator":"","nameSource":"landmark"},"sourceId":"osm"},{"id":"osm:node:9328059617","latitude":51.3609936,"longitude":-2.3457185,"name":"The Avenue near Willianstowe","properties":{"access":"unknown","bicycle_pa":"stands","capacity":6,"covered":"no","fee":"","operator":"","nameSource":"junction"},"sourceId":"osm"},{"id":"osm:node:9349706162","latitude":51.3861519,"longitude":-2.3503686,"name":"A36 by Garden Cafe","properties":{"access":"unknown","bicycle_pa":"stands","capacity":6,"covered":"no","fee":"","operator":"","nameSource":"landmark"},"sourceId":"osm"},{"id":"osm:node:9349708812","latitude":51.3864423,"longitude":-2.351166,"name":"A36 near Sydney Place","properties":{"access":"unknown","bicycle_pa":"stands","capacity":6,"covered":"no","fee":"","operator":"","nameSource":"junction"},"sourceId":"osm"},{"id":"osm:node:9767141983","latitude":51.3605377,"longitude":-2.3534862,"name":"Windell Street near Mulberry Way","properties":{"access":"unknown","bicycle_pa":"wall_hoops","capacity":17,"covered":"no","fee":"","operator":"","nameSource":"junction"},"sourceId":"osm"},{"id":"osm:way:1076444053","latitude":51.378681400000005,"longitude":-2.325631083333334,"name":"Convocation Avenue cycle parking","properties":{"access":"private","bicycle_pa":"stands","capacity":48,"covered":"yes","fee":"no","operator":"","nameSource":"street"},"sourceId":"osm"},{"id":"osm:way:1353927842","latitude":51.363643079999996,"longitude":-2.3300417199999996,"name":"Claverton Down Road by Ralph Allen School","properties":{"access":"private","bicycle_pa":"shed","capacity":0,"covered":"","fee":"","operator":"","nameSource":"landmark"},"sourceId":"osm"},{"id":"osm:way:1353927843","latitude":51.36365228,"longitude":-2.32997012,"name":"Claverton Down Road by Ralph Allen School","properties":{"access":"private","bicycle_pa":"shed","capacity":0,"covered":"","fee":"","operator":"","nameSource":"landmark"},"sourceId":"osm"},{"id":"osm:way:1353927844","latitude":51.36366244,"longitude":-2.3298852,"name":"Claverton Down Road by Ralph Allen School","properties":{"access":"private","bicycle_pa":"shed","capacity":0,"covered":"","fee":"","operator":"","nameSource":"landmark"},"sourceId":"osm"},{"id":"osm:way:1527549457","latitude":51.382033183333334,"longitude":-2.3623094833333336,"name":"Saw Close near Barton Street","properties":{"access":"unknown","bicycle_pa":"","capacity":0,"covered":"","fee":"","operator":"","nameSource":"junction"},"sourceId":"osm"},{"id":"osm:way:467627080","latitude":51.379972355555566,"longitude":-2.3239148444444444,"name":"Eastwood Middle Walk by The Quads Laundrette","properties":{"access":"unknown","bicycle_pa":"stands","capacity":30,"covered":"yes","fee":"","operator":"","nameSource":"landmark"},"sourceId":"osm"},{"id":"osm:way:470212848","latitude":51.376892240000004,"longitude":-2.3293696600000002,"name":"South Service Road cycle parking","properties":{"access":"unknown","bicycle_pa":"stands","capacity":16,"covered":"yes","fee":"","operator":"","nameSource":"street"},"sourceId":"osm"},{"id":"osm:way:495509903","latitude":51.3771253,"longitude":-2.32937778,"name":"4S Bike Shed","properties":{"access":"unknown","bicycle_pa":"shed","capacity":20,"covered":"yes","fee":"","operator":"","nameSource":"source"},"sourceId":"osm"},{"id":"osm:way:636898437","latitude":51.37874866,"longitude":-2.32782964,"name":"The Parade by 4ES (Western End) eScooter \\ eBike Rental Parking","properties":{"access":"private","bicycle_pa":"shed","capacity":20,"covered":"yes","fee":"","operator":"","nameSource":"landmark"},"sourceId":"osm"},{"id":"osm:way:798449648","latitude":51.3726414,"longitude":-2.36141344,"name":"Kipling Avenue cycle parking","properties":{"access":"unknown","bicycle_pa":"stands","capacity":80,"covered":"yes","fee":"","operator":"","nameSource":"street"},"sourceId":"osm"}],"schemaVersion":2}
