{"key":"12/2082/1523","points":[{"id":"osm:node:10725744209","latitude":41.7885985,"longitude":3.0407222,"name":"Ronda d'En Joan Casas by Creu Roja","properties":{"access":"unknown","bicycle_pa":"wall_loops","capacity":0,"covered":"no","fee":"","operator":"","nameSource":"landmark"},"sourceId":"osm"},{"id":"osm:node:11071939099","latitude":41.8054838,"longitude":3.0541349,"name":"Carrer Santiago Russinyo by Wok GU","properties":{"access":"yes","bicycle_pa":"wall_loops","capacity":0,"covered":"no","fee":"","operator":"","nameSource":"landmark"},"sourceId":"osm"},{"id":"osm:node:11071947128","latitude":41.8055009,"longitude":3.0540199,"name":"Carrer Santiago Russinyo by Wok GU","properties":{"access":"yes","bicycle_pa":"wall_loops","capacity":0,"covered":"no","fee":"","operator":"","nameSource":"landmark"},"sourceId":"osm"},{"id":"osm:node:11183898719","latitude":41.7819062,"longitude":3.0279916,"name":"Placeta de Sant Joan near Carrer de l'Hospital","properties":{"access":"unknown","bicycle_pa":"","capacity":0,"covered":"","fee":"","operator":"","nameSource":"junction"},"sourceId":"osm"},{"id":"osm:node:12551368264","latitude":41.813959,"longitude":3.0675013,"name":"Avinguda Costa Brava near Passeig Marítim","properties":{"access":"unknown","bicycle_pa":"wall_loops","capacity":0,"covered":"no","fee":"","operator":"","nameSource":"junction"},"sourceId":"osm"},{"id":"osm:node:12825657655","latitude":41.796756,"longitude":3.0483992,"name":"Avinguda Platja d'Aro near Carrer Garrotxa","properties":{"access":"unknown","bicycle_pa":"wall_loops","capacity":5,"covered":"no","fee":"no","operator":"","nameSource":"junction"},"sourceId":"osm"},{"id":"osm:node:8883877514","latitude":41.8097376,"longitude":3.0178715,"name":"Pla del Camí Fondo cycle parking","properties":{"access":"unknown","bicycle_pa":"","capacity":0,"covered":"","fee":"","operator":"","nameSource":"place"},"sourceId":"osm"},{"id":"osm:node:8883885247","latitude":41.8109053,"longitude":3.0186341,"name":"Camí Ral by Capella de Sant Josep","properties":{"access":"unknown","bicycle_pa":"wall_loops","capacity":0,"covered":"","fee":"","operator":"","nameSource":"landmark"},"sourceId":"osm"},{"id":"osm:node:8883885249","latitude":41.8110779,"longitude":3.0180175,"name":"Camí Ral by Spar","properties":{"access":"unknown","bicycle_pa":"wall_loops","capacity":0,"covered":"","fee":"","operator":"","nameSource":"landmark"},"sourceId":"osm"},{"id":"osm:node:8883885251","latitude":41.8106372,"longitude":3.0179412,"name":"Spar cycle parking","properties":{"access":"unknown","bicycle_pa":"wall_loops","capacity":0,"covered":"","fee":"","operator":"","nameSource":"landmark"},"sourceId":"osm"},{"id":"osm:node:8883885253","latitude":41.8104376,"longitude":3.0179036,"name":"Spar cycle parking","properties":{"access":"unknown","bicycle_pa":"wall_loops","capacity":0,"covered":"","fee":"","operator":"","nameSource":"landmark"},"sourceId":"osm"}],"schemaVersion":2}
