{"key":"12/2046/1360","points":[{"categories":["hire"],"id":"osm:node:10287718573","latitude":51.5648272,"longitude":-0.1032833,"name":"Cycle hire","properties":{},"sourceId":"osm"},{"categories":["hire"],"id":"osm:node:11691861624","latitude":51.5706716,"longitude":-0.0963573,"name":"Cycle hire","properties":{},"sourceId":"osm"},{"categories":["hire"],"id":"osm:node:11691861625","latitude":51.5690988,"longitude":-0.1111689,"name":"Cycle hire","properties":{},"sourceId":"osm"},{"categories":["hire"],"id":"osm:node:11691861626","latitude":51.5781482,"longitude":-0.0991875,"name":"Cycle hire","properties":{},"sourceId":"osm"},{"categories":["hire"],"id":"osm:node:11691861627","latitude":51.577966,"longitude":-0.12421,"name":"Cycle hire","properties":{},"sourceId":"osm"},{"categories":["hire"],"id":"osm:node:11691861628","latitude":51.5817061,"longitude":-0.126682,"name":"Cycle hire","properties":{},"sourceId":"osm"},{"categories":["hire"],"id":"osm:node:11691861629","latitude":51.5765109,"longitude":-0.1441169,"name":"Cycle hire","properties":{},"sourceId":"osm"},{"categories":["hire"],"id":"osm:node:11691861630","latitude":51.5894417,"longitude":-0.1455638,"name":"Cycle hire","properties":{},"sourceId":"osm"},{"categories":["hire"],"id":"osm:node:11691861631","latitude":51.5875901,"longitude":-0.1331203,"name":"Cycle hire","properties":{},"sourceId":"osm"},{"categories":["hire"],"id":"osm:node:11691861632","latitude":51.586443,"longitude":-0.133396,"name":"Cycle hire","properties":{},"sourceId":"osm"},{"categories":["hire"],"id":"osm:node:11691861633","latitude":51.5876603,"longitude":-0.1168661,"name":"Cycle hire","properties":{},"sourceId":"osm"},{"categories":["hire"],"id":"osm:node:11691861634","latitude":51.588659,"longitude":-0.1105007,"name":"Cycle hire","properties":{},"sourceId":"osm"},{"categories":["hire"],"id":"osm:node:11691861635","latitude":51.5905702,"longitude":-0.1027406,"name":"Cycle hire","properties":{},"sourceId":"osm"},{"categories":["hire"],"id":"osm:node:11691861636","latitude":51.5862128,"longitude":-0.0911375,"name":"Cycle hire","properties":{},"sourceId":"osm"},{"categories":["hire"],"id":"osm:node:11691861643","latitude":51.5982663,"longitude":-0.0955038,"name":"Cycle hire","properties":{},"sourceId":"osm"},{"categories":["hire"],"id":"osm:node:11691861644","latitude":51.5935051,"longitude":-0.1068861,"name":"Cycle hire","properties":{},"sourceId":"osm"},{"categories":["hire"],"id":"osm:node:11691861645","latitude":51.5951633,"longitude":-0.1087309,"name":"Cycle hire","properties":{},"sourceId":"osm"},{"categories":["hire"],"id":"osm:node:11691861646","latitude":51.5970536,"longitude":-0.1106781,"name":"Cycle hire","properties":{},"sourceId":"osm"},{"categories":["hire"],"id":"osm:node:12007863369","latitude":51.5878469,"longitude":-0.1170177,"name":"Electric Bike Parking","properties":{"operator":"Transport for London"},"sourceId":"osm"},{"categories":["hire"],"id":"osm:node:12593581096","latitude":51.5813872,"longitude":-0.1221692,"name":"Cycle hire","properties":{},"sourceId":"osm"},{"categories":["hire"],"id":"osm:node:12603525355","latitude":51.59254,"longitude":-0.0912966,"name":"Lime","properties":{"network":"Lime","operator":"Lime"},"sourceId":"osm"},{"categories":["shop","repair"],"id":"osm:node:12633199542","latitude":51.5772552,"longitude":-0.1233827,"name":"Butternut Bikes","properties":{"openingHours":"Tu-Sa 10:00-18:00","operator":"Butternut Bikes Ltd","servicePump":"yes","serviceRepair":"yes","website":"https://butternutbikes.co.uk/"},"sourceId":"osm"},{"categories":["hire"],"id":"osm:node:12639508210","latitude":51.5887085,"longitude":-0.1106209,"name":"Lime","properties":{"operator":"Lime"},"sourceId":"osm"},{"categories":["hire"],"id":"osm:node:12760459230","latitude":51.5871559,"longitude":-0.1341084,"name":"Cycle hire","properties":{},"sourceId":"osm"},{"categories":["hire"],"id":"osm:node:13257604194","latitude":51.5684657,"longitude":-0.1158962,"name":"Cycle hire","properties":{},"sourceId":"osm"},{"categories":["hire"],"id":"osm:node:3166336792","latitude":51.5660275,"longitude":-0.1382981,"name":"Brompton","properties":{"network":"Brompton Dock","operator":"Brompton","website":"http://www.bromptondock.co.uk/"},"sourceId":"osm"},{"categories":["shop","repair"],"id":"osm:node:3900663907","latitude":51.5740426,"longitude":-0.1123979,"name":"Micycle","properties":{"openingHours":"Mo-Tu 08:30-18:30; We 12:00-18:30; Th-Fr 08:30-18:30; Sa 10:00-17:00; Su 12:00-17:00","serviceRepair":"yes","website":"http://www.micycle.org.uk/"},"sourceId":"osm"},{"categories":["shop","repair"],"id":"osm:node:4689762606","latitude":51.5747206,"longitude":-0.1420266,"name":"K's Bicycle Workshop","properties":{"serviceRepair":"yes"},"sourceId":"osm"},{"categories":["shop"],"id":"osm:node:7794844082","latitude":51.6086815,"longitude":-0.1104212,"name":"Driving Force","properties":{"website":"https://www.driving-force.net/"},"sourceId":"osm"},{"categories":["shop","repair"],"id":"osm:node:9068746483","latitude":51.586891,"longitude":-0.0964373,"name":"Cycle Stop","properties":{"serviceRepair":"yes"},"sourceId":"osm"},{"categories":["repair"],"id":"osm:node:9121311171","latitude":51.5955259,"longitude":-0.097597,"name":"Bicycle repair station","properties":{"fee":"no"},"sourceId":"osm"},{"categories":["shop"],"id":"osm:node:914459711","latitude":51.6124351,"longitude":-0.1601326,"name":"The Cycle Store","properties":{"openingHours":"Mo,Tu,Th,Fr,Sa 11:00-17:00","website":"http://thecyclestore.co.uk/"},"sourceId":"osm"},{"categories":["shop"],"id":"osm:node:926808883","latitude":51.5907072,"longitude":-0.1642999,"name":"Bike and Run Ltd","properties":{},"sourceId":"osm"},{"categories":["shop"],"id":"osm:node:9537720710","latitude":51.5893933,"longitude":-0.1446499,"name":"Northern Heights Bikes","properties":{},"sourceId":"osm"},{"categories":["shop"],"id":"osm:node:9620351984","latitude":51.5913847,"longitude":-0.1035708,"name":"Bicycle shop","properties":{},"sourceId":"osm"},{"categories":["shop"],"id":"osm:way:1039689367","latitude":51.59011126,"longitude":-0.14679234,"name":"Muswell Hill Bikes","properties":{"openingHours":"Mo-Sa 09:30-18:00; Su 11:30-16:00"},"sourceId":"osm"},{"categories":["shop"],"id":"osm:way:1061144703","latitude":51.58721882000001,"longitude":-0.13363628,"name":"Future Cycles","properties":{},"sourceId":"osm"},{"categories":["shop","repair"],"id":"osm:way:1308431785","latitude":51.60546577142857,"longitude":-0.09348595714285715,"name":"Clockwise Bikes","properties":{"openingHours":"Mo,Th,Sa,Su 09:00-22:30; Tu 16:30-22:30; We,Fr 13:30-22:30","serviceRepair":"yes","website":"https://www.instagram.com/clockwise.bikes/"},"sourceId":"osm"},{"categories":["shop","repair"],"id":"osm:way:1327093857","latitude":51.59721684,"longitude":-0.11165502000000001,"name":"Fixlosophy","properties":{"serviceRepair":"yes"},"sourceId":"osm"},{"categories":["repair"],"id":"osm:way:350945033","latitude":51.61191778333333,"longitude":-0.14263838333333334,"name":"Halfords","properties":{"brand":"Halfords","openingHours":"Mo-Fr 09:00-20:00; Sa 09:00-18:00; Su 10:00-17:00","serviceRepair":"yes","website":"https://www.halfords.com/locations/friern-barnet-store/"},"sourceId":"osm"},{"categories":["shop"],"id":"osm:way:377763900","latitude":51.56561489999999,"longitude":-0.09303818,"name":"Bike Mech","properties":{},"sourceId":"osm"}],"schemaVersion":2}
