{"key":"12/2046/1364","points":[{"categories":["shop"],"id":"osm:node:2106381780","latitude":51.3731945,"longitude":-0.0979273,"name":"EPlus9","properties":{},"sourceId":"osm"},{"categories":["shop"],"id":"osm:node:248228823","latitude":51.3573668,"longitude":-0.1485364,"name":"Wallington Cycles","properties":{"website":"http://www.wallingtoncycles.com/"},"sourceId":"osm"},{"categories":["shop"],"id":"osm:node:6083555588","latitude":51.3724226,"longitude":-0.167653,"name":"The Village Bike","properties":{},"sourceId":"osm"},{"categories":["shop","repair"],"id":"osm:way:213915749","latitude":51.36317032857143,"longitude":-0.09862908571428572,"name":"Cycle King","properties":{"openingHours":"Mo-Sa 09:00-18:00; Su 10:00-17:00","serviceRepair":"yes","website":"https://www.cycleking.co.uk/"},"sourceId":"osm"},{"categories":["repair"],"id":"osm:way:221661334","latitude":51.38696,"longitude":-0.09739557777777777,"name":"Halfords","properties":{"brand":"Halfords","serviceRepair":"yes","website":"https://www.halfords.com/locations/croydon-windmill-road-store/"},"sourceId":"osm"},{"categories":["shop"],"id":"osm:way:271629761","latitude":51.348862642857135,"longitude":-0.10068991428571428,"name":"Geoffrey Butler Cycles","properties":{"servicePump":"no"},"sourceId":"osm"}],"schemaVersion":2}
