{"key":"12/2031/1294","points":[{"id":"osm:node:11916463131","latitude":55.053678,"longitude":-1.4509685,"name":"The Links by Rendezvous Cafe","properties":{"access":"unknown","bicycle_pa":"stands","capacity":6,"covered":"no","fee":"no","operator":"","nameSource":"landmark"},"sourceId":"osm"},{"id":"osm:node:12042381495","latitude":55.0351326,"longitude":-1.4365423,"name":"Marden Terrace near Percy Avenue","properties":{"access":"unknown","bicycle_pa":"streetpod","capacity":2,"covered":"yes","fee":"","operator":"","nameSource":"junction"},"sourceId":"osm"},{"id":"osm:node:12042381499","latitude":55.0350239,"longitude":-1.4360341,"name":"Marden Terrace near Percy Avenue","properties":{"access":"unknown","bicycle_pa":"lockers","capacity":0,"covered":"","fee":"","operator":"","nameSource":"junction"},"sourceId":"osm"},{"id":"osm:node:12076161784","latitude":55.0399789,"longitude":-1.4626604,"name":"Vernon Drive near Beverley Road","properties":{"access":"yes","bicycle_pa":"stands","capacity":12,"covered":"no","fee":"no","operator":"","nameSource":"junction"},"sourceId":"osm"},{"id":"osm:node:12156121104","latitude":55.071756,"longitude":-1.4495862,"name":"St Mary's or Bait Island cycle parking","properties":{"access":"unknown","bicycle_pa":"stands","capacity":8,"covered":"no","fee":"","operator":"North Tyneside Council","nameSource":"place"},"sourceId":"osm"},{"id":"osm:node:12900560466","latitude":55.0434953,"longitude":-1.4803743,"name":"Rosemount Way cycle parking","properties":{"access":"unknown","bicycle_pa":"stands","capacity":0,"covered":"no","fee":"","operator":"","nameSource":"street"},"sourceId":"osm"},{"id":"osm:node:12900584214","latitude":55.0425915,"longitude":-1.4375823,"name":"Helena Avenue near Promenade","properties":{"access":"yes","bicycle_pa":"stands","capacity":6,"covered":"no","fee":"no","operator":"","nameSource":"junction"},"sourceId":"osm"},{"id":"osm:node:12902033239","latitude":55.0533315,"longitude":-1.4512491,"name":"The Links by Links Art Gallery","properties":{"access":"yes","bicycle_pa":"wide_stands","capacity":0,"covered":"no","fee":"","operator":"","nameSource":"landmark"},"sourceId":"osm"},{"id":"osm:node:12902033245","latitude":55.0533755,"longitude":-1.451283,"name":"The Links by Links Art Gallery","properties":{"access":"yes","bicycle_pa":"wide_stands","capacity":0,"covered":"no","fee":"","operator":"","nameSource":"landmark"},"sourceId":"osm"},{"id":"osm:node:12918290705","latitude":55.0521447,"longitude":-1.4542667,"name":"Zone For Kids Nursery cycle parking","properties":{"access":"restricted","bicycle_pa":"wall_loops","capacity":20,"covered":"no","fee":"","operator":"North Tyneside Council","nameSource":"landmark"},"sourceId":"osm"},{"id":"osm:node:12918290710","latitude":55.0522339,"longitude":-1.4527622,"name":"Waves Bicycle Lockers","properties":{"access":"yes","bicycle_pa":"lockers","capacity":8,"covered":"yes","fee":"no","operator":"North Tyneside Council","nameSource":"source"},"sourceId":"osm"},{"id":"osm:node:12918290713","latitude":55.0522166,"longitude":-1.4528627,"name":"The Links by Waves","properties":{"access":"yes","bicycle_pa":"","capacity":5,"covered":"no","fee":"","operator":"North Tyneside Council","nameSource":"landmark"},"sourceId":"osm"},{"id":"osm:node:12920940567","latitude":55.0351849,"longitude":-1.4330377,"name":"Victoria Crescent near Beverley Terrace","properties":{"access":"yes","bicycle_pa":"stands","capacity":1,"covered":"no","fee":"no","operator":"","nameSource":"junction"},"sourceId":"osm"},{"id":"osm:node:12920940568","latitude":55.0352984,"longitude":-1.432977,"name":"Victoria Crescent near Front Street","properties":{"access":"yes","bicycle_pa":"stands","capacity":1,"covered":"no","fee":"no","operator":"","nameSource":"junction"},"sourceId":"osm"},{"id":"osm:node:12920940569","latitude":55.0352714,"longitude":-1.432868,"name":"Victoria Crescent near Front Street","properties":{"access":"yes","bicycle_pa":"stands","capacity":1,"covered":"no","fee":"no","operator":"","nameSource":"junction"},"sourceId":"osm"},{"id":"osm:node:12920940570","latitude":55.0351172,"longitude":-1.4330765,"name":"Victoria Crescent near Beverley Terrace","properties":{"access":"yes","bicycle_pa":"stands","capacity":1,"covered":"no","fee":"no","operator":"","nameSource":"junction"},"sourceId":"osm"},{"id":"osm:node:12920940571","latitude":55.0351735,"longitude":-1.4329296,"name":"Victoria Crescent near Beverley Terrace","properties":{"access":"yes","bicycle_pa":"stands","capacity":1,"covered":"no","fee":"no","operator":"","nameSource":"junction"},"sourceId":"osm"},{"id":"osm:node:12920940572","latitude":55.035219,"longitude":-1.4330176,"name":"Victoria Crescent near Beverley Terrace","properties":{"access":"yes","bicycle_pa":"stands","capacity":1,"covered":"no","fee":"no","operator":"","nameSource":"junction"},"sourceId":"osm"},{"id":"osm:node:12920940573","latitude":55.0350714,"longitude":-1.4330985,"name":"Victoria Crescent near Beverley Terrace","properties":{"access":"yes","bicycle_pa":"stands","capacity":1,"covered":"no","fee":"no","operator":"","nameSource":"junction"},"sourceId":"osm"},{"id":"osm:node:12920940574","latitude":55.035405,"longitude":-1.4327418,"name":"Victoria Crescent near Front Street","properties":{"access":"yes","bicycle_pa":"stands","capacity":1,"covered":"no","fee":"no","operator":"","nameSource":"junction"},"sourceId":"osm"},{"id":"osm:node:12920940575","latitude":55.0353842,"longitude":-1.4327648,"name":"Victoria Crescent near Front Street","properties":{"access":"yes","bicycle_pa":"stands","capacity":1,"covered":"no","fee":"no","operator":"","nameSource":"junction"},"sourceId":"osm"},{"id":"osm:node:12920940576","latitude":55.0355058,"longitude":-1.4326144,"name":"Front Street near Victoria Crescent","properties":{"access":"yes","bicycle_pa":"stands","capacity":1,"covered":"no","fee":"no","operator":"","nameSource":"junction"},"sourceId":"osm"},{"id":"osm:node:12920940577","latitude":55.0350899,"longitude":-1.4329759,"name":"Victoria Crescent near Beverley Terrace","properties":{"access":"yes","bicycle_pa":"stands","capacity":1,"covered":"no","fee":"no","operator":"","nameSource":"junction"},"sourceId":"osm"},{"id":"osm:node:12920940578","latitude":55.0354709,"longitude":-1.4326586,"name":"Victoria Crescent near Front Street","properties":{"access":"yes","bicycle_pa":"stands","capacity":1,"covered":"no","fee":"no","operator":"","nameSource":"junction"},"sourceId":"osm"},{"id":"osm:node:12920940579","latitude":55.0352388,"longitude":-1.4328912,"name":"Victoria Crescent near Front Street","properties":{"access":"yes","bicycle_pa":"stands","capacity":1,"covered":"no","fee":"no","operator":"","nameSource":"junction"},"sourceId":"osm"},{"id":"osm:node:12951295167","latitude":55.0354502,"longitude":-1.4342692,"name":"John Street near Station Road","properties":{"access":"yes","bicycle_pa":"stands","capacity":2,"covered":"no","fee":"no","operator":"","nameSource":"junction"},"sourceId":"osm"},{"id":"osm:node:12951295168","latitude":55.0354053,"longitude":-1.4342051,"name":"John Street near Station Road","properties":{"access":"yes","bicycle_pa":"stands","capacity":2,"covered":"no","fee":"no","operator":"","nameSource":"junction"},"sourceId":"osm"},{"id":"osm:node:12951295169","latitude":55.0354264,"longitude":-1.4342365,"name":"John Street near Station Road","properties":{"access":"yes","bicycle_pa":"stands","capacity":2,"covered":"no","fee":"no","operator":"","nameSource":"junction"},"sourceId":"osm"},{"id":"osm:node:12951335510","latitude":55.0532775,"longitude":-1.4506781,"name":"The Links by Rendezvous Cafe","properties":{"access":"yes","bicycle_pa":"stands","capacity":6,"covered":"no","fee":"no","operator":"","nameSource":"landmark"},"sourceId":"osm"},{"id":"osm:node:12952760627","latitude":55.0305375,"longitude":-1.4310364,"name":"Grand Parade near Beverley Gardens","properties":{"access":"yes","bicycle_pa":"stands","capacity":2,"covered":"no","fee":"no","operator":"","nameSource":"junction"},"sourceId":"osm"},{"id":"osm:node:12952760628","latitude":55.030551,"longitude":-1.4310337,"name":"Grand Parade near Beverley Gardens","properties":{"access":"yes","bicycle_pa":"stands","capacity":2,"covered":"no","fee":"no","operator":"","nameSource":"junction"},"sourceId":"osm"},{"id":"osm:node:12952760629","latitude":55.0305658,"longitude":-1.4310317,"name":"Grand Parade near Beverley Gardens","properties":{"access":"yes","bicycle_pa":"stands","capacity":2,"covered":"no","fee":"no","operator":"","nameSource":"junction"},"sourceId":"osm"},{"id":"osm:node:12978184425","latitude":55.0574422,"longitude":-1.4548805,"name":"The Links by Tavern And Galley","properties":{"access":"yes","bicycle_pa":"stands","capacity":1,"covered":"no","fee":"no","operator":"","nameSource":"landmark"},"sourceId":"osm"},{"id":"osm:node:12978184426","latitude":55.0577298,"longitude":-1.4550021,"name":"The Links by Tavern And Galley","properties":{"access":"yes","bicycle_pa":"stands","capacity":1,"covered":"no","fee":"no","operator":"","nameSource":"landmark"},"sourceId":"osm"},{"id":"osm:node:12978184427","latitude":55.0574838,"longitude":-1.4548929,"name":"The Links by Tavern And Galley","properties":{"access":"yes","bicycle_pa":"stands","capacity":1,"covered":"no","fee":"no","operator":"","nameSource":"landmark"},"sourceId":"osm"},{"id":"osm:node:12978184429","latitude":55.0575058,"longitude":-1.4548979,"name":"The Links by Tavern And Galley","properties":{"access":"yes","bicycle_pa":"stands","capacity":1,"covered":"no","fee":"no","operator":"","nameSource":"landmark"},"sourceId":"osm"},{"id":"osm:node:12978184430","latitude":55.0575273,"longitude":-1.4549045,"name":"The Links by Tavern And Galley","properties":{"access":"yes","bicycle_pa":"stands","capacity":1,"covered":"no","fee":"no","operator":"","nameSource":"landmark"},"sourceId":"osm"},{"id":"osm:node:12978184432","latitude":55.0575655,"longitude":-1.4549174,"name":"The Links by Tavern And Galley","properties":{"access":"yes","bicycle_pa":"stands","capacity":1,"covered":"no","fee":"no","operator":"","nameSource":"landmark"},"sourceId":"osm"},{"id":"osm:node:12978184433","latitude":55.0574627,"longitude":-1.4548866,"name":"The Links by Tavern And Galley","properties":{"access":"yes","bicycle_pa":"stands","capacity":1,"covered":"no","fee":"no","operator":"","nameSource":"landmark"},"sourceId":"osm"},{"id":"osm:node:12978184435","latitude":55.0576299,"longitude":-1.4549442,"name":"The Links by Tavern And Galley","properties":{"access":"yes","bicycle_pa":"stands","capacity":1,"covered":"no","fee":"no","operator":"","nameSource":"landmark"},"sourceId":"osm"},{"id":"osm:node:12978184436","latitude":55.0576081,"longitude":-1.454935,"name":"The Links by Tavern And Galley","properties":{"access":"yes","bicycle_pa":"stands","capacity":1,"covered":"no","fee":"no","operator":"","nameSource":"landmark"},"sourceId":"osm"},{"id":"osm:node:12978184437","latitude":55.0574215,"longitude":-1.4548771,"name":"The Links by Tavern And Galley","properties":{"access":"yes","bicycle_pa":"stands","capacity":1,"covered":"no","fee":"no","operator":"","nameSource":"landmark"},"sourceId":"osm"},{"id":"osm:node:12978184438","latitude":55.0577516,"longitude":-1.455012,"name":"The Links by Tavern And Galley","properties":{"access":"yes","bicycle_pa":"stands","capacity":1,"covered":"no","fee":"no","operator":"","nameSource":"landmark"},"sourceId":"osm"},{"id":"osm:node:12978184440","latitude":55.0576918,"longitude":-1.4549779,"name":"The Links by Tavern And Galley","properties":{"access":"yes","bicycle_pa":"stands","capacity":1,"covered":"no","fee":"no","operator":"","nameSource":"landmark"},"sourceId":"osm"},{"id":"osm:node:12978184441","latitude":55.0575859,"longitude":-1.4549268,"name":"The Links by Tavern And Galley","properties":{"access":"yes","bicycle_pa":"stands","capacity":1,"covered":"no","fee":"no","operator":"","nameSource":"landmark"},"sourceId":"osm"},{"id":"osm:node:12978184442","latitude":55.0576704,"longitude":-1.4549652,"name":"The Links by Tavern And Galley","properties":{"access":"yes","bicycle_pa":"stands","capacity":1,"covered":"no","fee":"no","operator":"","nameSource":"landmark"},"sourceId":"osm"},{"id":"osm:node:12978184443","latitude":55.0577099,"longitude":-1.454988,"name":"The Links by Tavern And Galley","properties":{"access":"yes","bicycle_pa":"stands","capacity":1,"covered":"no","fee":"no","operator":"","nameSource":"landmark"},"sourceId":"osm"},{"id":"osm:node:12978184444","latitude":55.05765,"longitude":-1.4549556,"name":"The Links by Tavern And Galley","properties":{"access":"yes","bicycle_pa":"stands","capacity":1,"covered":"no","fee":"no","operator":"","nameSource":"landmark"},"sourceId":"osm"},{"id":"osm:node:12978184446","latitude":55.0573975,"longitude":-1.4548694,"name":"The Links by Tavern And Galley","properties":{"access":"yes","bicycle_pa":"stands","capacity":1,"covered":"no","fee":"no","operator":"","nameSource":"landmark"},"sourceId":"osm"},{"id":"osm:node:12978184448","latitude":55.0573804,"longitude":-1.4548885,"name":"The Links by Tavern And Galley","properties":{"access":"yes","bicycle_pa":"stands","capacity":1,"covered":"no","fee":"no","operator":"","nameSource":"landmark"},"sourceId":"osm"},{"id":"osm:node:12978184452","latitude":55.0575475,"longitude":-1.4549108,"name":"The Links by Tavern And Galley","properties":{"access":"yes","bicycle_pa":"stands","capacity":1,"covered":"no","fee":"no","operator":"","nameSource":"landmark"},"sourceId":"osm"},{"id":"osm:node:13114582216","latitude":55.0454058,"longitude":-1.4428077,"name":"East Parade near Ocean View","properties":{"access":"yes","bicycle_pa":"wide_stands","capacity":6,"covered":"no","fee":"no","operator":"North Tyneside Council","nameSource":"junction"},"sourceId":"osm"},{"id":"osm:node:13114582217","latitude":55.0457942,"longitude":-1.4433322,"name":"East Parade near Ocean View","properties":{"access":"yes","bicycle_pa":"wide_stands","capacity":6,"covered":"no","fee":"no","operator":"North Tyneside Council","nameSource":"junction"},"sourceId":"osm"},{"id":"osm:node:13114582218","latitude":55.0467395,"longitude":-1.4447844,"name":"East Parade near Brook Gardens","properties":{"access":"yes","bicycle_pa":"wide_stands","capacity":4,"covered":"no","fee":"no","operator":"North Tyneside Council","nameSource":"junction"},"sourceId":"osm"},{"id":"osm:node:13114582219","latitude":55.0467131,"longitude":-1.4447547,"name":"East Parade near Brook Gardens","properties":{"access":"yes","bicycle_pa":"wide_stands","capacity":8,"covered":"no","fee":"no","operator":"North Tyneside Council","nameSource":"junction"},"sourceId":"osm"},{"id":"osm:node:13114582220","latitude":55.0485821,"longitude":-1.4473763,"name":"Watts Slope cycle parking","properties":{"access":"yes","bicycle_pa":"wide_stands","capacity":6,"covered":"no","fee":"no","operator":"North Tyneside Council","nameSource":"street"},"sourceId":"osm"},{"id":"osm:node:13151632884","latitude":55.0355948,"longitude":-1.4327552,"name":"Hudleston Street near Simpson Street","properties":{"access":"yes","bicycle_pa":"stands","capacity":10,"covered":"no","fee":"no","operator":"","nameSource":"junction"},"sourceId":"osm"},{"id":"osm:node:13151632898","latitude":55.0361076,"longitude":-1.4317773,"name":"Front Street near Bank Top","properties":{"access":"yes","bicycle_pa":"stands","capacity":6,"covered":"no","fee":"no","operator":"","nameSource":"junction"},"sourceId":"osm"},{"id":"osm:node:13151898967","latitude":55.0408039,"longitude":-1.4327161,"name":"Windsor Terrace cycle parking","properties":{"access":"yes","bicycle_pa":"stands","capacity":6,"covered":"no","fee":"no","operator":"","nameSource":"street"},"sourceId":"osm"},{"id":"osm:node:13478739534","latitude":55.0692799,"longitude":-1.4522961,"name":"St Mary's or Bait Island cycle parking","properties":{"access":"yes","bicycle_pa":"stands","capacity":4,"covered":"no","fee":"no","operator":"","nameSource":"place"},"sourceId":"osm"},{"id":"osm:node:13510897885","latitude":55.0419035,"longitude":-1.4485314,"name":"Park View by Ocean Zen","properties":{"access":"yes","bicycle_pa":"stands","capacity":1,"covered":"no","fee":"no","operator":"","nameSource":"landmark"},"sourceId":"osm"},{"id":"osm:node:13510897886","latitude":55.0436353,"longitude":-1.4511924,"name":"Duke Street by Beaches Fish Bar","properties":{"access":"yes","bicycle_pa":"stands","capacity":2,"covered":"no","fee":"no","operator":"","nameSource":"landmark"},"sourceId":"osm"},{"id":"osm:node:13510897887","latitude":55.0419627,"longitude":-1.450124,"name":"Park View near Norham Road","properties":{"access":"yes","bicycle_pa":"stands","capacity":1,"covered":"no","fee":"no","operator":"","nameSource":"junction"},"sourceId":"osm"},{"id":"osm:node:13510897888","latitude":55.0419851,"longitude":-1.4462752,"name":"Park Avenue near Park View","properties":{"access":"yes","bicycle_pa":"stands","capacity":8,"covered":"no","fee":"no","operator":"","nameSource":"junction"},"sourceId":"osm"},{"id":"osm:node:13510897889","latitude":55.0418894,"longitude":-1.4488663,"name":"Park View near Park Gardens","properties":{"access":"yes","bicycle_pa":"stands","capacity":1,"covered":"no","fee":"no","operator":"","nameSource":"junction"},"sourceId":"osm"},{"id":"osm:node:13510897890","latitude":55.0437033,"longitude":-1.4512352,"name":"Park View near Beach Avenue","properties":{"access":"yes","bicycle_pa":"stands","capacity":2,"covered":"no","fee":"no","operator":"","nameSource":"junction"},"sourceId":"osm"},{"id":"osm:node:13510897891","latitude":55.0419428,"longitude":-1.4499177,"name":"Park View near Park Gardens","properties":{"access":"yes","bicycle_pa":"stands","capacity":1,"covered":"no","fee":"no","operator":"","nameSource":"junction"},"sourceId":"osm"},{"id":"osm:node:13854228939","latitude":55.0469684,"longitude":-1.4497875,"name":"Park Road near Marine Avenue","properties":{"access":"unknown","bicycle_pa":"stands","capacity":4,"covered":"no","fee":"","operator":"","nameSource":"junction"},"sourceId":"osm"},{"id":"osm:node:13854246365","latitude":55.0469673,"longitude":-1.4498575,"name":"Park Road near Marine Avenue","properties":{"access":"unknown","bicycle_pa":"stands","capacity":12,"covered":"no","fee":"","operator":"","nameSource":"junction"},"sourceId":"osm"},{"id":"osm:node:4830882170","latitude":55.0425683,"longitude":-1.4465957,"name":"Park Avenue near York Road","properties":{"access":"unknown","bicycle_pa":"stands","capacity":6,"covered":"no","fee":"","operator":"","nameSource":"junction"},"sourceId":"osm"},{"id":"osm:node:4830943464","latitude":55.0418192,"longitude":-1.450137,"name":"Park View near Norham Road","properties":{"access":"unknown","bicycle_pa":"","capacity":0,"covered":"","fee":"","operator":"","nameSource":"junction"},"sourceId":"osm"},{"id":"osm:node:4832737576","latitude":55.0542267,"longitude":-1.4624587,"name":"Claremont Crescent by Cruz Hairworks","properties":{"access":"unknown","bicycle_pa":"stands","capacity":0,"covered":"no","fee":"","operator":"","nameSource":"landmark"},"sourceId":"osm"},{"id":"osm:node:6180015797","latitude":55.0397143,"longitude":-1.4425324,"name":"Station Square near Waterford Crescent","properties":{"access":"unknown","bicycle_pa":"streetpod","capacity":6,"covered":"yes","fee":"","operator":"","nameSource":"junction"},"sourceId":"osm"},{"id":"osm:node:6195181778","latitude":55.0397464,"longitude":-1.4431103,"name":"Station Square near Station Road","properties":{"access":"unknown","bicycle_pa":"lockers","capacity":8,"covered":"yes","fee":"","operator":"Nexus","nameSource":"junction"},"sourceId":"osm"},{"id":"osm:node:6259299326","latitude":55.0402186,"longitude":-1.476787,"name":"Earsdon Road near Greenway","properties":{"access":"unknown","bicycle_pa":"streetpod","capacity":10,"covered":"no","fee":"","operator":"","nameSource":"junction"},"sourceId":"osm"},{"id":"osm:node:6267751812","latitude":55.0573422,"longitude":-1.4549901,"name":"The Links by Tavern And Galley","properties":{"access":"unknown","bicycle_pa":"stands","capacity":8,"covered":"no","fee":"","operator":"","nameSource":"landmark"},"sourceId":"osm"},{"id":"osm:node:6270814220","latitude":55.0476576,"longitude":-1.4494362,"name":"Marine Avenue near Clovelly Gardens","properties":{"access":"unknown","bicycle_pa":"stands","capacity":4,"covered":"no","fee":"","operator":"","nameSource":"junction"},"sourceId":"osm"},{"id":"osm:node:6341640779","latitude":55.030221,"longitude":-1.4592085,"name":"Rake Lane cycle parking","properties":{"access":"unknown","bicycle_pa":"stands","capacity":0,"covered":"","fee":"","operator":"","nameSource":"street"},"sourceId":"osm"},{"id":"osm:node:6356087747","latitude":55.0351691,"longitude":-1.4363398,"name":"Marden Terrace near Percy Avenue","properties":{"access":"unknown","bicycle_pa":"streetpod","capacity":6,"covered":"yes","fee":"","operator":"","nameSource":"junction"},"sourceId":"osm"},{"id":"osm:node:6478712131","latitude":55.0534062,"longitude":-1.4505834,"name":"Rendezvous Cafe cycle parking","properties":{"access":"unknown","bicycle_pa":"stands","capacity":6,"covered":"no","fee":"","operator":"","nameSource":"landmark"},"sourceId":"osm"},{"id":"osm:node:6478712136","latitude":55.0533633,"longitude":-1.4505484,"name":"Rendezvous Cafe cycle parking","properties":{"access":"unknown","bicycle_pa":"stands","capacity":6,"covered":"no","fee":"","operator":"","nameSource":"landmark"},"sourceId":"osm"},{"id":"osm:node:6562903266","latitude":55.0467102,"longitude":-1.4495621,"name":"Park Road near Marine Gardens","properties":{"access":"unknown","bicycle_pa":"stands","capacity":6,"covered":"no","fee":"","operator":"","nameSource":"junction"},"sourceId":"osm"},{"id":"osm:node:6592967490","latitude":55.0421745,"longitude":-1.4576064,"name":"Norham Road by Left Luggage Room","properties":{"access":"yes","bicycle_pa":"lockers","capacity":8,"covered":"yes","fee":"","operator":"","nameSource":"landmark"},"sourceId":"osm"},{"id":"osm:node:6592967491","latitude":55.0422346,"longitude":-1.4578343,"name":"Norham Road by Left Luggage Room","properties":{"access":"unknown","bicycle_pa":"wall_loops","capacity":8,"covered":"yes","fee":"","operator":"","nameSource":"landmark"},"sourceId":"osm"},{"id":"osm:node:6592967492","latitude":55.0424456,"longitude":-1.4584933,"name":"Norham Road near Hartley Avenue","properties":{"access":"unknown","bicycle_pa":"streetpods","capacity":10,"covered":"yes","fee":"","operator":"","nameSource":"junction"},"sourceId":"osm"},{"id":"osm:node:6943635998","latitude":55.0399036,"longitude":-1.4426292,"name":"Station Square near Waterford Crescent","properties":{"access":"unknown","bicycle_pa":"streetpod","capacity":10,"covered":"yes","fee":"","operator":"","nameSource":"junction"},"sourceId":"osm"},{"id":"osm:node:7332916803","latitude":55.0474405,"longitude":-1.4460738,"name":"Promenade by Amazon Locker","properties":{"access":"unknown","bicycle_pa":"stands","capacity":10,"covered":"yes","fee":"","operator":"","nameSource":"landmark"},"sourceId":"osm"},{"id":"osm:node:7359700817","latitude":55.0419309,"longitude":-1.4577317,"name":"Kensington Close near St. Ronan's Road","properties":{"access":"unknown","bicycle_pa":"streetpods","capacity":10,"covered":"no","fee":"no","operator":"","nameSource":"junction"},"sourceId":"osm"}],"schemaVersion":2}
