{"key":"12/2031/1296","points":[{"id":"osm:node:4296631810","latitude":54.9718667,"longitude":-1.4127219,"name":"Prince Edward Road near Ashgrove Avenue","properties":{"access":"unknown","bicycle_pa":"stands","capacity":4,"covered":"no","fee":"","operator":"","nameSource":"junction"},"sourceId":"osm"},{"id":"osm:node:4296638890","latitude":54.9717859,"longitude":-1.4112334,"name":"Prince Edward Road by The Room Hair & Beauty Studio","properties":{"access":"unknown","bicycle_pa":"stands","capacity":4,"covered":"no","fee":"","operator":"","nameSource":"landmark"},"sourceId":"osm"},{"id":"osm:node:4296686097","latitude":54.9722155,"longitude":-1.4065747,"name":"Prince Edward Road by Vets 4 Pets","properties":{"access":"unknown","bicycle_pa":"stands","capacity":4,"covered":"no","fee":"","operator":"","nameSource":"landmark"},"sourceId":"osm"},{"id":"osm:node:4312507951","latitude":54.9586864,"longitude":-1.4311291,"name":"Gainsborough Avenue near Whiteleas Way","properties":{"access":"unknown","bicycle_pa":"stands","capacity":4,"covered":"no","fee":"","operator":"","nameSource":"junction"},"sourceId":"osm"},{"id":"osm:node:4350916094","latitude":54.9693438,"longitude":-1.4717244,"name":"Stanhope Road near Etal Crescent","properties":{"access":"unknown","bicycle_pa":"stands","capacity":4,"covered":"no","fee":"","operator":"","nameSource":"junction"},"sourceId":"osm"},{"id":"osm:node:4352704458","latitude":54.9552394,"longitude":-1.4777935,"name":"Fellgate Avenue near Fieldway","properties":{"access":"unknown","bicycle_pa":"stands","capacity":2,"covered":"no","fee":"","operator":"","nameSource":"junction"},"sourceId":"osm"},{"id":"osm:node:5732790376","latitude":54.9749958,"longitude":-1.4574384,"name":"Waldridge Way cycle parking","properties":{"access":"private","bicycle_pa":"rack","capacity":0,"covered":"","fee":"","operator":"","nameSource":"street"},"sourceId":"osm"},{"id":"osm:node:7912297414","latitude":54.9594114,"longitude":-1.4607826,"name":"Station Road by Brockley Whins","properties":{"access":"unknown","bicycle_pa":"","capacity":5,"covered":"no","fee":"","operator":"","nameSource":"landmark"},"sourceId":"osm"},{"id":"osm:node:7912374861","latitude":54.9571828,"longitude":-1.4857898,"name":"Durham Drive near The Hollow","properties":{"access":"unknown","bicycle_pa":"","capacity":5,"covered":"","fee":"","operator":"","nameSource":"junction"},"sourceId":"osm"},{"id":"osm:way:975725423","latitude":54.928314920000005,"longitude":-1.47268088,"name":"International Drive near Washington Road","properties":{"access":"unknown","bicycle_pa":"stands","capacity":0,"covered":"yes","fee":"no","operator":"","nameSource":"junction"},"sourceId":"osm"}],"schemaVersion":2}
