{"key":"12/2031/1326","points":[{"id":"osm:node:10011811293","latitude":53.3981434,"longitude":-1.4654879,"name":"Minna Road near Burngreave Road","properties":{"access":"unknown","bicycle_pa":"","capacity":0,"covered":"no","fee":"","operator":"","nameSource":"junction"},"sourceId":"osm"},{"id":"osm:node:1012378294","latitude":53.4131531,"longitude":-1.4557913,"name":"Fox Way near Barnsley Road Drive","properties":{"access":"unknown","bicycle_pa":"","capacity":22,"covered":"no","fee":"","operator":"","nameSource":"junction"},"sourceId":"osm"},{"id":"osm:node:10133701359","latitude":53.4130683,"longitude":-1.4712748,"name":"Herries Drive near Herries Road","properties":{"access":"yes","bicycle_pa":"stands","capacity":6,"covered":"no","fee":"","operator":"Sheffield City Council","nameSource":"junction"},"sourceId":"osm"},{"id":"osm:node:10133721330","latitude":53.4171912,"longitude":-1.4721197,"name":"Southey Avenue near Southey Drive","properties":{"access":"yes","bicycle_pa":"stands","capacity":2,"covered":"no","fee":"","operator":"Sheffield City Council","nameSource":"junction"},"sourceId":"osm"},{"id":"osm:node:10686831107","latitude":53.3899343,"longitude":-1.4712413,"name":"Mowbray Street near Harvest Lane","properties":{"access":"unknown","bicycle_pa":"","capacity":0,"covered":"","fee":"","operator":"","nameSource":"junction"},"sourceId":"osm"},{"id":"osm:node:10837306283","latitude":53.4138781,"longitude":-1.4140847,"name":"Five Weirs Walk by Frankie & Benny's","properties":{"access":"yes","bicycle_pa":"two-tier","capacity":0,"covered":"yes","fee":"no","operator":"","nameSource":"landmark"},"sourceId":"osm"},{"id":"osm:node:10837306284","latitude":53.4122246,"longitude":-1.4117767,"name":"High Street by Boots","properties":{"access":"yes","bicycle_pa":"two-tier","capacity":0,"covered":"yes","fee":"no","operator":"","nameSource":"landmark"},"sourceId":"osm"},{"id":"osm:node:10899249843","latitude":53.3842607,"longitude":-1.4431599,"name":"Sheffield Parkway by Burger King","properties":{"access":"unknown","bicycle_pa":"stands","capacity":12,"covered":"yes","fee":"","operator":"","nameSource":"landmark"},"sourceId":"osm"},{"id":"osm:node:11135878691","latitude":53.3856377,"longitude":-1.4657012,"name":"Esteli Parade by The Adsetts Partnership","properties":{"access":"unknown","bicycle_pa":"stands","capacity":6,"covered":"no","fee":"","operator":"","nameSource":"landmark"},"sourceId":"osm"},{"id":"osm:node:11135878694","latitude":53.3856461,"longitude":-1.4666526,"name":"Bridge Street near Millsands","properties":{"access":"unknown","bicycle_pa":"stands","capacity":4,"covered":"no","fee":"","operator":"","nameSource":"junction"},"sourceId":"osm"},{"id":"osm:node:11135878695","latitude":53.3855249,"longitude":-1.4670403,"name":"Bridge Street near Snig Hill","properties":{"access":"unknown","bicycle_pa":"stands","capacity":2,"covered":"no","fee":"","operator":"","nameSource":"junction"},"sourceId":"osm"},{"id":"osm:node:11174928803","latitude":53.3842838,"longitude":-1.475679,"name":"Hollis Croft cycle parking","properties":{"access":"yes","bicycle_pa":"stands","capacity":6,"covered":"no","fee":"","operator":"","nameSource":"street"},"sourceId":"osm"},{"id":"osm:node:11175550023","latitude":53.3838841,"longitude":-1.4772885,"name":"Garden Street by Perch Bottleshop","properties":{"access":"unknown","bicycle_pa":"","capacity":0,"covered":"","fee":"","operator":"","nameSource":"landmark"},"sourceId":"osm"},{"id":"osm:node:11178876825","latitude":53.3840407,"longitude":-1.4778609,"name":"Garden Street near Solly Street","properties":{"access":"unknown","bicycle_pa":"","capacity":0,"covered":"","fee":"","operator":"","nameSource":"junction"},"sourceId":"osm"},{"id":"osm:node:11179028182","latitude":53.3844713,"longitude":-1.4756902,"name":"White Croft near Bakers Lane","properties":{"access":"private","bicycle_pa":"","capacity":20,"covered":"","fee":"","operator":"","nameSource":"junction"},"sourceId":"osm"},{"id":"osm:node:11179028183","latitude":53.384786,"longitude":-1.4759648,"name":"Solly Street near Bakers Lane","properties":{"access":"private","bicycle_pa":"building","capacity":148,"covered":"yes","fee":"","operator":"","nameSource":"junction"},"sourceId":"osm"},{"id":"osm:node:11179549481","latitude":53.3852732,"longitude":-1.4772569,"name":"Samborne Square near Brocco Lane","properties":{"access":"unknown","bicycle_pa":"","capacity":16,"covered":"","fee":"","operator":"","nameSource":"junction"},"sourceId":"osm"},{"id":"osm:node:11186680724","latitude":53.3836985,"longitude":-1.4825796,"name":"St George's Close near Brook Drive","properties":{"access":"private","bicycle_pa":"shed","capacity":0,"covered":"","fee":"","operator":"","nameSource":"junction"},"sourceId":"osm"},{"id":"osm:node:11186819132","latitude":53.3849348,"longitude":-1.481813,"name":"Daisy Walk cycle parking","properties":{"access":"yes","bicycle_pa":"stands","capacity":10,"covered":"no","fee":"","operator":"","nameSource":"street"},"sourceId":"osm"},{"id":"osm:node:11188859823","latitude":53.3842456,"longitude":-1.479871,"name":"New Edward Street near Corn Hill","properties":{"access":"unknown","bicycle_pa":"stands","capacity":4,"covered":"no","fee":"","operator":"","nameSource":"junction"},"sourceId":"osm"},{"id":"osm:node:11193637894","latitude":53.3836455,"longitude":-1.4732171,"name":"Tenter Street near Broad Lane","properties":{"access":"private","bicycle_pa":"building","capacity":130,"covered":"","fee":"","operator":"","nameSource":"junction"},"sourceId":"osm"},{"id":"osm:node:11193637895","latitude":53.3839736,"longitude":-1.4717901,"name":"Lee Croft near Silver Street Head","properties":{"access":"private","bicycle_pa":"","capacity":40,"covered":"","fee":"","operator":"","nameSource":"junction"},"sourceId":"osm"},{"id":"osm:node:11193637896","latitude":53.3838502,"longitude":-1.4726108,"name":"Sims Street cycle parking","properties":{"access":"private","bicycle_pa":"building","capacity":157,"covered":"","fee":"","operator":"","nameSource":"street"},"sourceId":"osm"},{"id":"osm:node:11195018094","latitude":53.3855009,"longitude":-1.4737349,"name":"Scotland Street near Furnace Hill","properties":{"access":"unknown","bicycle_pa":"","capacity":8,"covered":"","fee":"","operator":"","nameSource":"junction"},"sourceId":"osm"},{"id":"osm:node:11208498404","latitude":53.3846976,"longitude":-1.4681847,"name":"New Street near Bank Street","properties":{"access":"private","bicycle_pa":"shed","capacity":0,"covered":"","fee":"","operator":"","nameSource":"junction"},"sourceId":"osm"},{"id":"osm:node:11211243025","latitude":53.3853559,"longitude":-1.4685216,"name":"West Bar near Scargill Croft","properties":{"access":"yes","bicycle_pa":"stands","capacity":6,"covered":"no","fee":"","operator":"","nameSource":"junction"},"sourceId":"osm"},{"id":"osm:node:11216915548","latitude":53.386245,"longitude":-1.4669099,"name":"Bridge Street near Love Street","properties":{"access":"unknown","bicycle_pa":"stands","capacity":8,"covered":"no","fee":"","operator":"","nameSource":"junction"},"sourceId":"osm"},{"id":"osm:node:11216915603","latitude":53.386084,"longitude":-1.46627,"name":"Millsands near Bridge Street","properties":{"access":"unknown","bicycle_pa":"stands","capacity":8,"covered":"no","fee":"","operator":"","nameSource":"junction"},"sourceId":"osm"},{"id":"osm:node:11216915604","latitude":53.386209,"longitude":-1.4667693,"name":"Millsands cycle parking","properties":{"access":"unknown","bicycle_pa":"shed","capacity":16,"covered":"","fee":"","operator":"","nameSource":"street"},"sourceId":"osm"},{"id":"osm:node:11219715318","latitude":53.3857676,"longitude":-1.4657574,"name":"Millsands near Bridge Street","properties":{"access":"private","bicycle_pa":"two-tier","capacity":15,"covered":"yes","fee":"","operator":"Irwin Mitchell","nameSource":"junction"},"sourceId":"osm"},{"id":"osm:node:11219726208","latitude":53.3866938,"longitude":-1.466088,"name":"Esteli Parade cycle parking","properties":{"access":"yes","bicycle_pa":"stands","capacity":12,"covered":"yes","fee":"no","operator":"","nameSource":"street"},"sourceId":"osm"},{"id":"osm:node:11219726209","latitude":53.3867513,"longitude":-1.4658502,"name":"Esteli Parade cycle parking","properties":{"access":"yes","bicycle_pa":"stands","capacity":12,"covered":"yes","fee":"no","operator":"","nameSource":"street"},"sourceId":"osm"},{"id":"osm:node:11221476765","latitude":53.3882151,"longitude":-1.465791,"name":"Nursery Lane near Spitalfields","properties":{"access":"unknown","bicycle_pa":"","capacity":8,"covered":"yes","fee":"","operator":"","nameSource":"junction"},"sourceId":"osm"},{"id":"osm:node:11221557520","latitude":53.3868734,"longitude":-1.4629502,"name":"Stanley Street near Wicker","properties":{"access":"unknown","bicycle_pa":"","capacity":2,"covered":"","fee":"","operator":"","nameSource":"junction"},"sourceId":"osm"},{"id":"osm:node:11250933335","latitude":53.3850458,"longitude":-1.4617176,"name":"Castlegate by Lyon + Feather","properties":{"access":"unknown","bicycle_pa":"stands","capacity":6,"covered":"no","fee":"","operator":"","nameSource":"landmark"},"sourceId":"osm"},{"id":"osm:node:11285905845","latitude":53.3905858,"longitude":-1.450432,"name":"Fred Mulley Road near Attercliffe Road","properties":{"access":"customers","bicycle_pa":"stands","capacity":26,"covered":"yes","fee":"","operator":"The Climbing Hangar","nameSource":"junction"},"sourceId":"osm"},{"id":"osm:node:11287450165","latitude":53.3834276,"longitude":-1.4882895,"name":"Winter Street near Dart Square","properties":{"access":"unknown","bicycle_pa":"stands","capacity":8,"covered":"no","fee":"","operator":"","nameSource":"junction"},"sourceId":"osm"},{"id":"osm:node:11287450166","latitude":53.3834292,"longitude":-1.4878239,"name":"Weston Street near Bolsover Street","properties":{"access":"unknown","bicycle_pa":"","capacity":12,"covered":"no","fee":"","operator":"","nameSource":"junction"},"sourceId":"osm"},{"id":"osm:node:11349108452","latitude":53.3923393,"longitude":-1.4787302,"name":"Rutland Road near Rutland Way","properties":{"access":"unknown","bicycle_pa":"wall_loops","capacity":4,"covered":"no","fee":"","operator":"","nameSource":"junction"},"sourceId":"osm"},{"id":"osm:node:11586612399","latitude":53.390535,"longitude":-1.4513916,"name":"Savile Street near Twelve O'Clock Court","properties":{"access":"yes","bicycle_pa":"stands","capacity":10,"covered":"no","fee":"","operator":"","nameSource":"junction"},"sourceId":"osm"},{"id":"osm:node:11586612400","latitude":53.3905502,"longitude":-1.4517684,"name":"Twelve O'Clock Court near Savile Street","properties":{"access":"yes","bicycle_pa":"stands","capacity":10,"covered":"no","fee":"","operator":"","nameSource":"junction"},"sourceId":"osm"},{"id":"osm:node:11638356126","latitude":53.4012682,"longitude":-1.4718354,"name":"Parkwood Pitstop Cafe cycle parking","properties":{"access":"unknown","bicycle_pa":"stands","capacity":8,"covered":"","fee":"","operator":"","nameSource":"landmark"},"sourceId":"osm"},{"id":"osm:node:11704076332","latitude":53.3836788,"longitude":-1.4696346,"name":"Campo Lane near North Church Street","properties":{"access":"yes","bicycle_pa":"stands","capacity":2,"covered":"no","fee":"no","operator":"Sheffield City Council","nameSource":"junction"},"sourceId":"osm"},{"id":"osm:node:11977910816","latitude":53.4183765,"longitude":-1.4556006,"name":"Horninglow Road near Ribble Way","properties":{"access":"customers","bicycle_pa":"","capacity":0,"covered":"yes","fee":"","operator":"Longley Park Sixth Form Academy","nameSource":"junction"},"sourceId":"osm"},{"id":"osm:node:12258033598","latitude":53.4190916,"longitude":-1.4479471,"name":"Sicey Avenue near North Quadrant","properties":{"access":"unknown","bicycle_pa":"","capacity":0,"covered":"","fee":"","operator":"","nameSource":"junction"},"sourceId":"osm"},{"id":"osm:node:12348965017","latitude":53.3952501,"longitude":-1.4251517,"name":"Canon Medical Arena cycle parking","properties":{"access":"unknown","bicycle_pa":"stands","capacity":12,"covered":"no","fee":"no","operator":"","nameSource":"landmark"},"sourceId":"osm"},{"id":"osm:node:12348965018","latitude":53.3946791,"longitude":-1.426002,"name":"Worksop Road cycle parking","properties":{"access":"unknown","bicycle_pa":"stands","capacity":12,"covered":"no","fee":"no","operator":"","nameSource":"street"},"sourceId":"osm"},{"id":"osm:node:12395717769","latitude":53.3850501,"longitude":-1.4927781,"name":"Harcourt Road near Crookes Valley Road","properties":{"access":"yes","bicycle_pa":"stands","capacity":2,"covered":"no","fee":"no","operator":"","nameSource":"junction"},"sourceId":"osm"},{"id":"osm:node:12431074105","latitude":53.3851169,"longitude":-1.4812888,"name":"Brownell Street cycle parking","properties":{"access":"unknown","bicycle_pa":"stands","capacity":8,"covered":"no","fee":"","operator":"","nameSource":"street"},"sourceId":"osm"},{"id":"osm:node:12431074106","latitude":53.384917,"longitude":-1.4802495,"name":"Upper Allen Street near Well Meadow Drive","properties":{"access":"unknown","bicycle_pa":"stands","capacity":10,"covered":"no","fee":"","operator":"","nameSource":"junction"},"sourceId":"osm"},{"id":"osm:node:12431074115","latitude":53.3851765,"longitude":-1.4805123,"name":"Well Meadow Drive near Upper Allen Street","properties":{"access":"unknown","bicycle_pa":"stands","capacity":2,"covered":"no","fee":"","operator":"","nameSource":"junction"},"sourceId":"osm"},{"id":"osm:node:12431074116","latitude":53.3853361,"longitude":-1.4808295,"name":"Well Meadow Drive near Well Meadow Street","properties":{"access":"unknown","bicycle_pa":"stands","capacity":4,"covered":"no","fee":"","operator":"","nameSource":"junction"},"sourceId":"osm"},{"id":"osm:node:12431812512","latitude":53.3945645,"longitude":-1.4874784,"name":"Wood Street near Lime Street","properties":{"access":"unknown","bicycle_pa":"stands","capacity":0,"covered":"yes","fee":"","operator":"","nameSource":"junction"},"sourceId":"osm"},{"id":"osm:node:12449728127","latitude":53.3893464,"longitude":-1.457961,"name":"Savile Street by Timpson","properties":{"access":"unknown","bicycle_pa":"","capacity":0,"covered":"","fee":"","operator":"","nameSource":"landmark"},"sourceId":"osm"},{"id":"osm:node:12488735489","latitude":53.3875013,"longitude":-1.4683311,"name":"Plum Lane near Soho Yard","properties":{"access":"yes","bicycle_pa":"stands","capacity":4,"covered":"no","fee":"","operator":"","nameSource":"junction"},"sourceId":"osm"},{"id":"osm:node:12488735490","latitude":53.3872934,"longitude":-1.4685752,"name":"Plum Lane near West Bar Square","properties":{"access":"yes","bicycle_pa":"stands","capacity":10,"covered":"yes","fee":"","operator":"","nameSource":"junction"},"sourceId":"osm"},{"id":"osm:node:12533826373","latitude":53.3929638,"longitude":-1.4779414,"name":"Neepsend Lane near Burton Road","properties":{"access":"unknown","bicycle_pa":"stands","capacity":10,"covered":"no","fee":"","operator":"","nameSource":"junction"},"sourceId":"osm"},{"id":"osm:node:12672780087","latitude":53.3833428,"longitude":-1.4738806,"name":"Townhead Street near Broad Lane","properties":{"access":"yes","bicycle_pa":"stands","capacity":4,"covered":"no","fee":"","operator":"","nameSource":"junction"},"sourceId":"osm"},{"id":"osm:node:12690981674","latitude":53.3925875,"longitude":-1.4776611,"name":"Neepsend Lane near Burton Road","properties":{"access":"yes","bicycle_pa":"stands","capacity":4,"covered":"no","fee":"no","operator":"Sheffield City Council","nameSource":"junction"},"sourceId":"osm"},{"id":"osm:node:1271056992","latitude":53.4023221,"longitude":-1.4130039,"name":"Mike Jeffries Way cycle parking","properties":{"access":"unknown","bicycle_pa":"stands","capacity":40,"covered":"no","fee":"","operator":"","nameSource":"street"},"sourceId":"osm"},{"id":"osm:node:12723849552","latitude":53.4078123,"longitude":-1.410473,"name":"Sheffield Road by IKEA Restaurant","properties":{"access":"unknown","bicycle_pa":"stands","capacity":16,"covered":"yes","fee":"","operator":"IKEA","nameSource":"landmark"},"sourceId":"osm"},{"id":"osm:node:12723895429","latitude":53.4073131,"longitude":-1.4112346,"name":"Sheffield Road cycle parking","properties":{"access":"unknown","bicycle_pa":"stands","capacity":12,"covered":"yes","fee":"","operator":"IKEA","nameSource":"street"},"sourceId":"osm"},{"id":"osm:node:12836742771","latitude":53.3917314,"longitude":-1.4734009,"name":"Neepsend Lane near Burton Road","properties":{"access":"yes","bicycle_pa":"stands","capacity":2,"covered":"no","fee":"no","operator":"","nameSource":"junction"},"sourceId":"osm"},{"id":"osm:node:13069109020","latitude":53.3874097,"longitude":-1.4726481,"name":"Shalesmoor near Gibraltar Street","properties":{"access":"unknown","bicycle_pa":"stands","capacity":12,"covered":"no","fee":"","operator":"","nameSource":"junction"},"sourceId":"osm"},{"id":"osm:node:13089011243","latitude":53.3838919,"longitude":-1.4565749,"name":"Broad Street near Old Street","properties":{"access":"unknown","bicycle_pa":"stands","capacity":6,"covered":"no","fee":"","operator":"","nameSource":"junction"},"sourceId":"osm"},{"id":"osm:node:13136316036","latitude":53.4262261,"longitude":-1.4831583,"name":"Buchanan Road near Lytton Road","properties":{"access":"yes","bicycle_pa":"stands","capacity":4,"covered":"no","fee":"no","operator":"","nameSource":"junction"},"sourceId":"osm"},{"id":"osm:node:13138024892","latitude":53.4228529,"longitude":-1.4915697,"name":"Meynell Road by Lidl","properties":{"access":"customers","bicycle_pa":"stands","capacity":10,"covered":"yes","fee":"no","operator":"","nameSource":"landmark"},"sourceId":"osm"},{"id":"osm:node:13159864358","latitude":53.385021,"longitude":-1.45871,"name":"South Quay Drive by Victoria Junction","properties":{"access":"unknown","bicycle_pa":"stands","capacity":2,"covered":"no","fee":"","operator":"","nameSource":"landmark"},"sourceId":"osm"},{"id":"osm:node:13245438644","latitude":53.3990326,"longitude":-1.4628781,"name":"Holtwood Road cycle parking","properties":{"access":"private","bicycle_pa":"shed","capacity":6,"covered":"yes","fee":"","operator":"Cyclehoop","nameSource":"street"},"sourceId":"osm"},{"id":"osm:node:13247736138","latitude":53.3834056,"longitude":-1.4708208,"name":"Campo Lane near Vicar Lane","properties":{"access":"yes","bicycle_pa":"stands","capacity":2,"covered":"no","fee":"no","operator":"Sheffield City Council","nameSource":"junction"},"sourceId":"osm"},{"id":"osm:node:13248168811","latitude":53.3840631,"longitude":-1.4887494,"name":"Mushroom Lane by Bartolomé Cafe","properties":{"access":"private","bicycle_pa":"stands","capacity":20,"covered":"yes","fee":"","operator":"University of Sheffield","nameSource":"landmark"},"sourceId":"osm"},{"id":"osm:node:13248168814","latitude":53.384721,"longitude":-1.4731651,"name":"NCP Solly Street near Solly Street","properties":{"access":"yes","bicycle_pa":"stands","capacity":6,"covered":"no","fee":"","operator":"University of Sheffield","nameSource":"junction"},"sourceId":"osm"},{"id":"osm:node:13248215769","latitude":53.3873737,"longitude":-1.4792718,"name":"Hoyle Street near Meadow Street","properties":{"access":"yes","bicycle_pa":"stands","capacity":8,"covered":"no","fee":"","operator":"University of Sheffield","nameSource":"junction"},"sourceId":"osm"},{"id":"osm:node:13254088272","latitude":53.3834943,"longitude":-1.4645091,"name":"Castlegate Bridge by KFC","properties":{"access":"yes","bicycle_pa":"stands","capacity":4,"covered":"partial","fee":"","operator":"Sheffield City Council","nameSource":"landmark"},"sourceId":"osm"},{"id":"osm:node:13272166124","latitude":53.3893766,"longitude":-1.4724921,"name":"Kelham Island by Joni","properties":{"access":"yes","bicycle_pa":"stands","capacity":4,"covered":"no","fee":"","operator":"Sheffield Museums Trust","nameSource":"landmark"},"sourceId":"osm"},{"id":"osm:node:13290697039","latitude":53.407293,"longitude":-1.4114213,"name":"Sheffield Road cycle parking","properties":{"access":"private","bicycle_pa":"stands","capacity":24,"covered":"yes","fee":"","operator":"IKEA","nameSource":"street"},"sourceId":"osm"},{"id":"osm:node:13290697040","latitude":53.407325,"longitude":-1.4113489,"name":"Sheffield Road cycle parking","properties":{"access":"unknown","bicycle_pa":"stands","capacity":16,"covered":"yes","fee":"","operator":"IKEA","nameSource":"street"},"sourceId":"osm"},{"id":"osm:node:13307107234","latitude":53.3866011,"longitude":-1.4655858,"name":"Esteli Parade cycle parking","properties":{"access":"yes","bicycle_pa":"stands","capacity":22,"covered":"yes","fee":"","operator":"","nameSource":"street"},"sourceId":"osm"},{"id":"osm:node:13313246572","latitude":53.3835403,"longitude":-1.4460231,"name":"Aston Street near Cricket Inn Road","properties":{"access":"yes","bicycle_pa":"stands","capacity":2,"covered":"no","fee":"","operator":"Sheffield City Council","nameSource":"junction"},"sourceId":"osm"},{"id":"osm:node:13322025481","latitude":53.3834943,"longitude":-1.4660194,"name":"Market Place near Watsons' Walk","properties":{"access":"yes","bicycle_pa":"stands","capacity":8,"covered":"no","fee":"","operator":"Sheffield City Council","nameSource":"junction"},"sourceId":"osm"},{"id":"osm:node:13322082028","latitude":53.3835847,"longitude":-1.4660389,"name":"Angel Street near Watsons' Walk","properties":{"access":"yes","bicycle_pa":"stands","capacity":2,"covered":"no","fee":"","operator":"Sheffield City Council","nameSource":"junction"},"sourceId":"osm"},{"id":"osm:node:13324464944","latitude":53.4183294,"longitude":-1.4475798,"name":"Bellhouse Road near Firth Park Crescent","properties":{"access":"yes","bicycle_pa":"stands","capacity":4,"covered":"no","fee":"","operator":"Sheffield City Council","nameSource":"junction"},"sourceId":"osm"},{"id":"osm:node:13324497708","latitude":53.4317316,"longitude":-1.4509061,"name":"Hartley Brook Road near Nether Shire Lane","properties":{"access":"yes","bicycle_pa":"stands","capacity":4,"covered":"no","fee":"","operator":"Sheffield City Council","nameSource":"junction"},"sourceId":"osm"},{"id":"osm:node:13324498938","latitude":53.4172883,"longitude":-1.4722779,"name":"Southey Avenue near Southey Drive","properties":{"access":"yes","bicycle_pa":"stands","capacity":4,"covered":"no","fee":"","operator":"Sheffield City Council","nameSource":"junction"},"sourceId":"osm"},{"id":"osm:node:13324523397","latitude":53.3854393,"longitude":-1.4101204,"name":"Greenland Road near Prince of Wales Road","properties":{"access":"yes","bicycle_pa":"stands","capacity":4,"covered":"no","fee":"","operator":"Sheffield City Council","nameSource":"junction"},"sourceId":"osm"},{"id":"osm:node:13324524825","latitude":53.4163791,"longitude":-1.4712842,"name":"Southey Avenue near Southey Drive","properties":{"access":"yes","bicycle_pa":"stands","capacity":6,"covered":"no","fee":"","operator":"Sheffield City Council","nameSource":"junction"},"sourceId":"osm"},{"id":"osm:node:13324555827","latitude":53.3893557,"longitude":-1.4685342,"name":"Mowbray Street near Chatham Street","properties":{"access":"yes","bicycle_pa":"stands","capacity":2,"covered":"no","fee":"","operator":"Sheffield City Council","nameSource":"junction"},"sourceId":"osm"},{"id":"osm:node:13324588770","latitude":53.3909545,"longitude":-1.4588937,"name":"Spital Hill near Spital Street","properties":{"access":"yes","bicycle_pa":"stands","capacity":2,"covered":"no","fee":"","operator":"Sheffield City Council","nameSource":"junction"},"sourceId":"osm"},{"id":"osm:node:13324588771","latitude":53.3909253,"longitude":-1.4588012,"name":"Spital Hill near Spital Street","properties":{"access":"yes","bicycle_pa":"stands","capacity":2,"covered":"no","fee":"","operator":"Sheffield City Council","nameSource":"junction"},"sourceId":"osm"},{"id":"osm:node:13324588772","latitude":53.3906186,"longitude":-1.4594141,"name":"Spital Street near Spital Hill","properties":{"access":"yes","bicycle_pa":"stands","capacity":2,"covered":"no","fee":"","operator":"Sheffield City Council","nameSource":"junction"},"sourceId":"osm"},{"id":"osm:node:13324590866","latitude":53.3836287,"longitude":-1.4515163,"name":"St Johns Road cycle parking","properties":{"access":"yes","bicycle_pa":"stands","capacity":4,"covered":"no","fee":"","operator":"Sheffield City Council","nameSource":"street"},"sourceId":"osm"},{"id":"osm:node:13342813372","latitude":53.3850393,"longitude":-1.458545,"name":"South Quay Drive by Victoria Junction","properties":{"access":"unknown","bicycle_pa":"stands","capacity":2,"covered":"no","fee":"","operator":"","nameSource":"landmark"},"sourceId":"osm"},{"id":"osm:node:13342885510","latitude":53.3867207,"longitude":-1.4715805,"name":"Gibraltar Street near Bower Spring","properties":{"access":"yes","bicycle_pa":"stands","capacity":4,"covered":"no","fee":"","operator":"Sheffield City Council","nameSource":"junction"},"sourceId":"osm"},{"id":"osm:node:13369349487","latitude":53.3837225,"longitude":-1.4720067,"name":"Sims Street near Lee Croft","properties":{"access":"unknown","bicycle_pa":"stands","capacity":10,"covered":"no","fee":"","operator":"","nameSource":"junction"},"sourceId":"osm"},{"id":"osm:node:13369473359","latitude":53.3863846,"longitude":-1.466226,"name":"Millsands cycle parking","properties":{"access":"unknown","bicycle_pa":"stands","capacity":4,"covered":"partial","fee":"","operator":"","nameSource":"street"},"sourceId":"osm"},{"id":"osm:node:13369484639","latitude":53.386199,"longitude":-1.4668247,"name":"Millsands cycle parking","properties":{"access":"unknown","bicycle_pa":"wall_loops","capacity":6,"covered":"no","fee":"","operator":"","nameSource":"street"},"sourceId":"osm"},{"id":"osm:node:13369516213","latitude":53.388972,"longitude":-1.4747355,"name":"Green Lane near Horseman Lane","properties":{"access":"unknown","bicycle_pa":"stands","capacity":12,"covered":"no","fee":"","operator":"","nameSource":"junction"},"sourceId":"osm"},{"id":"osm:node:13369541133","latitude":53.3888781,"longitude":-1.4749396,"name":"Dun Fields near Green Lane","properties":{"access":"unknown","bicycle_pa":"stands","capacity":18,"covered":"yes","fee":"","operator":"","nameSource":"junction"},"sourceId":"osm"},{"id":"osm:node:13369576883","latitude":53.3848647,"longitude":-1.4808078,"name":"Brownell Street near Upper Allen Street","properties":{"access":"unknown","bicycle_pa":"stands","capacity":12,"covered":"partial","fee":"","operator":"","nameSource":"junction"},"sourceId":"osm"},{"id":"osm:node:13369581396","latitude":53.3919334,"longitude":-1.4775037,"name":"Neepsend Lane near Adelaide Lane","properties":{"access":"unknown","bicycle_pa":"stands","capacity":2,"covered":"no","fee":"","operator":"","nameSource":"junction"},"sourceId":"osm"},{"id":"osm:node:13369617024","latitude":53.3842553,"longitude":-1.4825299,"name":"Leicester Street cycle parking","properties":{"access":"yes","bicycle_pa":"stands","capacity":2,"covered":"no","fee":"","operator":"","nameSource":"street"},"sourceId":"osm"},{"id":"osm:node:13382283539","latitude":53.3903322,"longitude":-1.4757501,"name":"Ball Street by Kelham Kitchen and Wine Bar","properties":{"access":"unknown","bicycle_pa":"stands","capacity":2,"covered":"no","fee":"","operator":"Kelham Island & Neepsend Community Alliance","nameSource":"landmark"},"sourceId":"osm"},{"id":"osm:node:13382283540","latitude":53.3905602,"longitude":-1.4755006,"name":"Ball Street near Lancaster Street","properties":{"access":"unknown","bicycle_pa":"stands","capacity":2,"covered":"no","fee":"","operator":"Kelham Island & Neepsend Community Alliance","nameSource":"junction"},"sourceId":"osm"},{"id":"osm:node:13456478373","latitude":53.3892289,"longitude":-1.4568901,"name":"Savile Street by Starbucks","properties":{"access":"customers","bicycle_pa":"stands","capacity":0,"covered":"","fee":"","operator":"Starbucks","nameSource":"landmark"},"sourceId":"osm"},{"id":"osm:node:13587489652","latitude":53.3892657,"longitude":-1.4564636,"name":"Savile Street near Attercliffe Road","properties":{"access":"unknown","bicycle_pa":"stands","capacity":0,"covered":"no","fee":"","operator":"The Storage Team","nameSource":"junction"},"sourceId":"osm"},{"id":"osm:node:13612966825","latitude":53.3843822,"longitude":-1.4756387,"name":"White Croft near Bakers Lane","properties":{"access":"yes","bicycle_pa":"stands","capacity":6,"covered":"no","fee":"","operator":"","nameSource":"junction"},"sourceId":"osm"},{"id":"osm:node:13612966829","latitude":53.3838427,"longitude":-1.475791,"name":"Garden Street near Garden Square","properties":{"access":"yes","bicycle_pa":"stands","capacity":6,"covered":"no","fee":"","operator":"","nameSource":"junction"},"sourceId":"osm"},{"id":"osm:node:13612966831","latitude":53.3840307,"longitude":-1.4756951,"name":"Hollis Croft by Croft House Centre","properties":{"access":"yes","bicycle_pa":"stands","capacity":2,"covered":"no","fee":"","operator":"","nameSource":"landmark"},"sourceId":"osm"},{"id":"osm:node:13612966832","latitude":53.3840695,"longitude":-1.475675,"name":"Hollis Croft by Croft House Centre","properties":{"access":"yes","bicycle_pa":"stands","capacity":4,"covered":"no","fee":"","operator":"","nameSource":"landmark"},"sourceId":"osm"},{"id":"osm:node:13668829567","latitude":53.3835914,"longitude":-1.4748336,"name":"Garden Street near Broad Lane","properties":{"access":"yes","bicycle_pa":"stands","capacity":4,"covered":"no","fee":"","operator":"","nameSource":"junction"},"sourceId":"osm"},{"id":"osm:node:13668857641","latitude":53.3834832,"longitude":-1.4733802,"name":"Hawley Street by Corner Kitchen","properties":{"access":"unknown","bicycle_pa":"stands","capacity":12,"covered":"no","fee":"","operator":"","nameSource":"landmark"},"sourceId":"osm"},{"id":"osm:node:13668863139","latitude":53.3836659,"longitude":-1.4748102,"name":"Garden Street near Broad Lane","properties":{"access":"unknown","bicycle_pa":"stands","capacity":4,"covered":"no","fee":"","operator":"","nameSource":"junction"},"sourceId":"osm"},{"id":"osm:node:13748622986","latitude":53.3899371,"longitude":-1.4592223,"name":"Spital Hill near Spital Street","properties":{"access":"unknown","bicycle_pa":"stands","capacity":4,"covered":"no","fee":"","operator":"","nameSource":"junction"},"sourceId":"osm"},{"id":"osm:node:13748622987","latitude":53.3901495,"longitude":-1.4586349,"name":"Carlisle Street near Spital Street","properties":{"access":"unknown","bicycle_pa":"stands","capacity":4,"covered":"no","fee":"","operator":"","nameSource":"junction"},"sourceId":"osm"},{"id":"osm:node:13748622988","latitude":53.391235,"longitude":-1.4585122,"name":"Spital Hill by QFashion","properties":{"access":"yes","bicycle_pa":"stands","capacity":4,"covered":"no","fee":"","operator":"Sheffield City Council","nameSource":"landmark"},"sourceId":"osm"},{"id":"osm:node:13748622989","latitude":53.391318,"longitude":-1.4584579,"name":"Spital Hill by Burngreave Library","properties":{"access":"yes","bicycle_pa":"stands","capacity":4,"covered":"no","fee":"","operator":"Sheffield City Council","nameSource":"landmark"},"sourceId":"osm"},{"id":"osm:node:13897090984","latitude":53.3907341,"longitude":-1.4503115,"name":"Fred Mulley Road near Attercliffe Road","properties":{"access":"customers","bicycle_pa":"wall_loops","capacity":2,"covered":"no","fee":"","operator":"Screwfix","nameSource":"junction"},"sourceId":"osm"},{"id":"osm:node:13915082178","latitude":53.3834176,"longitude":-1.4619286,"name":"Broad Street West near Dixon Lane","properties":{"access":"unknown","bicycle_pa":"stands","capacity":4,"covered":"no","fee":"","operator":"","nameSource":"junction"},"sourceId":"osm"},{"id":"osm:node:13952072541","latitude":53.3877574,"longitude":-1.4534217,"name":"Sussex Road near Sussex Street","properties":{"access":"customers","bicycle_pa":"stands","capacity":2,"covered":"no","fee":"","operator":"","nameSource":"junction"},"sourceId":"osm"},{"id":"osm:node:13957977499","latitude":53.4056797,"longitude":-1.4167435,"name":"Carbrook Hall Road near Webster Street","properties":{"access":"unknown","bicycle_pa":"","capacity":0,"covered":"","fee":"","operator":"","nameSource":"junction"},"sourceId":"osm"},{"id":"osm:node:13957977500","latitude":53.4069281,"longitude":-1.4146802,"name":"Carbrook Hall Road near Carbrook Hall Street","properties":{"access":"unknown","bicycle_pa":"","capacity":0,"covered":"","fee":"","operator":"","nameSource":"junction"},"sourceId":"osm"},{"id":"osm:node:2084745395","latitude":53.3833704,"longitude":-1.4658595,"name":"Angel Street near Watsons' Walk","properties":{"access":"yes","bicycle_pa":"stands","capacity":6,"covered":"no","fee":"","operator":"Sheffield City Council","nameSource":"junction"},"sourceId":"osm"},{"id":"osm:node:2084745413","latitude":53.3841769,"longitude":-1.4654796,"name":"Castle Street near Walter Lane","properties":{"access":"unknown","bicycle_pa":"stands","capacity":8,"covered":"no","fee":"","operator":"Sheffield City Council","nameSource":"junction"},"sourceId":"osm"},{"id":"osm:node:2084745427","latitude":53.3843977,"longitude":-1.4640269,"name":"Exchange Street near Castle Street","properties":{"access":"unknown","bicycle_pa":"stands","capacity":1,"covered":"no","fee":"","operator":"","nameSource":"junction"},"sourceId":"osm"},{"id":"osm:node:2084745455","latitude":53.385993,"longitude":-1.4635297,"name":"Royal Exchange Apartments by Imtinan Mini Market","properties":{"access":"unknown","bicycle_pa":"stands","capacity":2,"covered":"no","fee":"","operator":"","nameSource":"landmark"},"sourceId":"osm"},{"id":"osm:node:2084745457","latitude":53.3863667,"longitude":-1.4632954,"name":"Wicker near Blonk Street","properties":{"access":"unknown","bicycle_pa":"stands","capacity":2,"covered":"no","fee":"","operator":"","nameSource":"junction"},"sourceId":"osm"},{"id":"osm:node:2084745458","latitude":53.3866897,"longitude":-1.4631629,"name":"Wicker near Stanley Street","properties":{"access":"unknown","bicycle_pa":"stands","capacity":2,"covered":"no","fee":"","operator":"","nameSource":"junction"},"sourceId":"osm"},{"id":"osm:node:2084745459","latitude":53.3868532,"longitude":-1.462719,"name":"Stanley Street near Wicker","properties":{"access":"unknown","bicycle_pa":"stands","capacity":2,"covered":"no","fee":"","operator":"","nameSource":"junction"},"sourceId":"osm"},{"id":"osm:node:2084745463","latitude":53.3870731,"longitude":-1.4624276,"name":"Wicker near Windrush Way","properties":{"access":"unknown","bicycle_pa":"stands","capacity":2,"covered":"no","fee":"","operator":"","nameSource":"junction"},"sourceId":"osm"},{"id":"osm:node:2084745464","latitude":53.3871279,"longitude":-1.4626775,"name":"Wicker near Windrush Way","properties":{"access":"unknown","bicycle_pa":"stands","capacity":2,"covered":"no","fee":"","operator":"","nameSource":"junction"},"sourceId":"osm"},{"id":"osm:node:2084745465","latitude":53.3876267,"longitude":-1.4747725,"name":"Shalesmoor near Ebenezer Street","properties":{"access":"unknown","bicycle_pa":"stands","capacity":2,"covered":"no","fee":"","operator":"","nameSource":"junction"},"sourceId":"osm"},{"id":"osm:node:2084745466","latitude":53.3878302,"longitude":-1.4618493,"name":"Scholey Street near Wicker","properties":{"access":"unknown","bicycle_pa":"stands","capacity":2,"covered":"no","fee":"","operator":"","nameSource":"junction"},"sourceId":"osm"},{"id":"osm:node:2084745467","latitude":53.3878961,"longitude":-1.4617552,"name":"Wicker near Scholey Street","properties":{"access":"unknown","bicycle_pa":"stands","capacity":2,"covered":"no","fee":"","operator":"","nameSource":"junction"},"sourceId":"osm"},{"id":"osm:node:2084745468","latitude":53.3879513,"longitude":-1.4612396,"name":"Wicker near Walker Street","properties":{"access":"unknown","bicycle_pa":"stands","capacity":2,"covered":"no","fee":"","operator":"","nameSource":"junction"},"sourceId":"osm"},{"id":"osm:node:2084745469","latitude":53.3879969,"longitude":-1.461629,"name":"Wicker near Scholey Street","properties":{"access":"unknown","bicycle_pa":"stands","capacity":2,"covered":"no","fee":"","operator":"","nameSource":"junction"},"sourceId":"osm"},{"id":"osm:node:2084745477","latitude":53.3923545,"longitude":-1.4850968,"name":"Lock Street near Infirmary Road","properties":{"access":"unknown","bicycle_pa":"stands","capacity":4,"covered":"no","fee":"","operator":"","nameSource":"junction"},"sourceId":"osm"},{"id":"osm:node:2084873454","latitude":53.38991,"longitude":-1.4567181,"name":"Savile Street near Attercliffe Road","properties":{"access":"unknown","bicycle_pa":"stands","capacity":60,"covered":"yes","fee":"","operator":"","nameSource":"junction"},"sourceId":"osm"},{"id":"osm:node:2106032778","latitude":53.4003901,"longitude":-1.4930078,"name":"Burton Street cycle parking","properties":{"access":"unknown","bicycle_pa":"","capacity":2,"covered":"","fee":"","operator":"","nameSource":"street"},"sourceId":"osm"},{"id":"osm:node:2106032827","latitude":53.4005828,"longitude":-1.4929447,"name":"Capel Street by Royal Mail Sheffield North Delivery Office","properties":{"access":"unknown","bicycle_pa":"","capacity":2,"covered":"","fee":"","operator":"","nameSource":"landmark"},"sourceId":"osm"},{"id":"osm:node:2509120338","latitude":53.3883549,"longitude":-1.4729512,"name":"Bowling Green Street near Alma Street","properties":{"access":"unknown","bicycle_pa":"stands","capacity":2,"covered":"no","fee":"","operator":"","nameSource":"junction"},"sourceId":"osm"},{"id":"osm:node:277030051","latitude":53.4010052,"longitude":-1.4188855,"name":"Broughton Lane cycle parking","properties":{"access":"unknown","bicycle_pa":"stands","capacity":12,"covered":"no","fee":"","operator":"","nameSource":"street"},"sourceId":"osm"},{"id":"osm:node:278087614","latitude":53.4320175,"longitude":-1.450387,"name":"Hartley Brook Road near Nether Shire Lane","properties":{"access":"yes","bicycle_pa":"stands","capacity":4,"covered":"no","fee":"","operator":"Sheffield City Council","nameSource":"junction"},"sourceId":"osm"},{"id":"osm:node:289510048","latitude":53.4178822,"longitude":-1.447571,"name":"Firth Park Road by Arabian Taste","properties":{"access":"unknown","bicycle_pa":"stands","capacity":8,"covered":"no","fee":"","operator":"","nameSource":"landmark"},"sourceId":"osm"},{"id":"osm:node:299855938","latitude":53.4239997,"longitude":-1.4412597,"name":"Shiregreen Lane cycle parking","properties":{"access":"unknown","bicycle_pa":"","capacity":4,"covered":"","fee":"","operator":"","nameSource":"street"},"sourceId":"osm"},{"id":"osm:node:322694947","latitude":53.3860936,"longitude":-1.4101379,"name":"Main Road near Wellington Place","properties":{"access":"yes","bicycle_pa":"stands","capacity":4,"covered":"no","fee":"","operator":"Sheffield City Council","nameSource":"junction"},"sourceId":"osm"},{"id":"osm:node:3512320264","latitude":53.3838642,"longitude":-1.4617315,"name":"Broad Street West near Dixon Lane","properties":{"access":"unknown","bicycle_pa":"stands","capacity":10,"covered":"yes","fee":"","operator":"","nameSource":"junction"},"sourceId":"osm"},{"id":"osm:node:600206602","latitude":53.4122683,"longitude":-1.4125746,"name":"High Street by Argos","properties":{"access":"unknown","bicycle_pa":"","capacity":16,"covered":"yes","fee":"","operator":"Meadowhall","nameSource":"landmark"},"sourceId":"osm"},{"id":"osm:node:600206607","latitude":53.4136108,"longitude":-1.414955,"name":"Five Weirs Walk cycle parking","properties":{"access":"unknown","bicycle_pa":"","capacity":12,"covered":"","fee":"","operator":"","nameSource":"street"},"sourceId":"osm"},{"id":"osm:node:600206848","latitude":53.4018078,"longitude":-1.4147496,"name":"Mike Jeffries Way by Frankie & Benny's","properties":{"access":"unknown","bicycle_pa":"stands","capacity":32,"covered":"no","fee":"","operator":"","nameSource":"landmark"},"sourceId":"osm"},{"id":"osm:node:601611109","latitude":53.3900862,"longitude":-1.4869957,"name":"Addy Street near Daniel Hill","properties":{"access":"unknown","bicycle_pa":"stands","capacity":12,"covered":"no","fee":"","operator":"","nameSource":"junction"},"sourceId":"osm"},{"id":"osm:node:601612338","latitude":53.3915608,"longitude":-1.4584965,"name":"Spital Hill near Hallcar Street","properties":{"access":"yes","bicycle_pa":"stands","capacity":2,"covered":"no","fee":"","operator":"Sheffield City Council","nameSource":"junction"},"sourceId":"osm"},{"id":"osm:node:608760120","latitude":53.4131528,"longitude":-1.4713645,"name":"Herries Drive near Herries Road","properties":{"access":"yes","bicycle_pa":"stands","capacity":6,"covered":"no","fee":"","operator":"Sheffield City Council","nameSource":"junction"},"sourceId":"osm"},{"id":"osm:node:608761750","latitude":53.4164656,"longitude":-1.4138722,"name":"Meadowhall Road by Northern Trains","properties":{"access":"unknown","bicycle_pa":"","capacity":4,"covered":"","fee":"","operator":"","nameSource":"landmark"},"sourceId":"osm"},{"id":"osm:node:621052684","latitude":53.3879492,"longitude":-1.4107698,"name":"Catley Road near Main Road","properties":{"access":"unknown","bicycle_pa":"","capacity":2,"covered":"","fee":"","operator":"","nameSource":"junction"},"sourceId":"osm"},{"id":"osm:node:634776096","latitude":53.3945811,"longitude":-1.4311597,"name":"Attercliffe Road near Bodmin Street","properties":{"access":"unknown","bicycle_pa":"","capacity":4,"covered":"","fee":"","operator":"","nameSource":"junction"},"sourceId":"osm"},{"id":"osm:node:634776169","latitude":53.3923735,"longitude":-1.4350111,"name":"Attercliffe Road near Staniforth Road","properties":{"access":"unknown","bicycle_pa":"","capacity":8,"covered":"","fee":"","operator":"","nameSource":"junction"},"sourceId":"osm"},{"id":"osm:node:634776235","latitude":53.4067412,"longitude":-1.4528159,"name":"Barnsley Road near Skinnerthorpe Road","properties":{"access":"unknown","bicycle_pa":"stands","capacity":6,"covered":"no","fee":"","operator":"","nameSource":"junction"},"sourceId":"osm"},{"id":"osm:node:634776426","latitude":53.426512,"longitude":-1.4851546,"name":"Buchanan Road near Wordsworth Avenue","properties":{"access":"yes","bicycle_pa":"stands","capacity":4,"covered":"no","fee":"no","operator":"","nameSource":"junction"},"sourceId":"osm"},{"id":"osm:node:667932226","latitude":53.4316145,"longitude":-1.4790882,"name":"Margetson Crescent near Margetson Road","properties":{"access":"yes","bicycle_pa":"stands","capacity":4,"covered":"no","fee":"no","operator":"","nameSource":"junction"},"sourceId":"osm"},{"id":"osm:node:667932996","latitude":53.391884,"longitude":-1.4831257,"name":"Cross Bedford Street near Portland Street","properties":{"access":"customers","bicycle_pa":"wall_loops","capacity":5,"covered":"no","fee":"","operator":"","nameSource":"junction"},"sourceId":"osm"},{"id":"osm:node:671802043","latitude":53.3896299,"longitude":-1.4837196,"name":"Upperthorpe Road near Martin Street","properties":{"access":"unknown","bicycle_pa":"stands","capacity":6,"covered":"yes","fee":"","operator":"Tesco","nameSource":"junction"},"sourceId":"osm"},{"id":"osm:node:733289443","latitude":53.393202,"longitude":-1.4582392,"name":"Grimesthorpe Road South near Bressingham Road","properties":{"access":"yes","bicycle_pa":"stands","capacity":8,"covered":"no","fee":"","operator":"Sheffield City Council","nameSource":"junction"},"sourceId":"osm"},{"id":"osm:node:733289446","latitude":53.4090113,"longitude":-1.453912,"name":"Barnsley Road Drive near Huntsman Drive","properties":{"access":"permissive","bicycle_pa":"stands","capacity":16,"covered":"yes","fee":"no","operator":"","nameSource":"junction"},"sourceId":"osm"},{"id":"osm:node:761849058","latitude":53.3942809,"longitude":-1.4319097,"name":"Zion Lane near Attercliffe Road","properties":{"access":"unknown","bicycle_pa":"stands","capacity":6,"covered":"no","fee":"","operator":"","nameSource":"junction"},"sourceId":"osm"},{"id":"osm:node:761849060","latitude":53.4091009,"longitude":-1.4222813,"name":"Jessops Riverside cycle parking","properties":{"access":"unknown","bicycle_pa":"","capacity":8,"covered":"yes","fee":"","operator":"","nameSource":"street"},"sourceId":"osm"},{"id":"osm:node:761849062","latitude":53.4088035,"longitude":-1.4222008,"name":"Jessops Riverside near Brightside Lane","properties":{"access":"unknown","bicycle_pa":"","capacity":8,"covered":"yes","fee":"","operator":"","nameSource":"junction"},"sourceId":"osm"},{"id":"osm:node:766879298","latitude":53.4167405,"longitude":-1.4890644,"name":"Halliwell Crescent cycle parking","properties":{"access":"unknown","bicycle_pa":"","capacity":16,"covered":"","fee":"","operator":"","nameSource":"street"},"sourceId":"osm"},{"id":"osm:node:766880113","latitude":53.3854924,"longitude":-1.4094943,"name":"Main Road near Greenland Road","properties":{"access":"yes","bicycle_pa":"stands","capacity":4,"covered":"no","fee":"","operator":"Sheffield City Council","nameSource":"junction"},"sourceId":"osm"},{"id":"osm:node:860543752","latitude":53.3899876,"longitude":-1.4084914,"name":"Greenland Road by Costa Drive Thru","properties":{"access":"unknown","bicycle_pa":"","capacity":20,"covered":"yes","fee":"","operator":"B&Q","nameSource":"landmark"},"sourceId":"osm"},{"id":"osm:node:860683975","latitude":53.3987079,"longitude":-1.408582,"name":"Shepcote Lane cycle parking","properties":{"access":"unknown","bicycle_pa":"","capacity":20,"covered":"yes","fee":"","operator":"","nameSource":"street"},"sourceId":"osm"},{"id":"osm:node:860683978","latitude":53.3990181,"longitude":-1.4087322,"name":"Shepcote Lane cycle parking","properties":{"access":"unknown","bicycle_pa":"","capacity":10,"covered":"yes","fee":"","operator":"","nameSource":"street"},"sourceId":"osm"},{"id":"osm:node:860683979","latitude":53.3995363,"longitude":-1.4088663,"name":"Shepcote Lane near Europa Link","properties":{"access":"unknown","bicycle_pa":"","capacity":10,"covered":"yes","fee":"","operator":"","nameSource":"junction"},"sourceId":"osm"},{"id":"osm:node:860693923","latitude":53.3833583,"longitude":-1.4888722,"name":"Dart Square near Winter Street","properties":{"access":"yes","bicycle_pa":"stands","capacity":20,"covered":"yes","fee":"","operator":"University of Sheffield","nameSource":"junction"},"sourceId":"osm"},{"id":"osm:node:8867825664","latitude":53.3851854,"longitude":-1.4728337,"name":"Lambert Street near Scotland Street","properties":{"access":"unknown","bicycle_pa":"stands","capacity":2,"covered":"no","fee":"no","operator":"","nameSource":"junction"},"sourceId":"osm"},{"id":"osm:node:888462343","latitude":53.4030446,"longitude":-1.4187326,"name":"Clifton Street by Dunkin'","properties":{"access":"unknown","bicycle_pa":"","capacity":2,"covered":"","fee":"","operator":"","nameSource":"landmark"},"sourceId":"osm"},{"id":"osm:node:888462352","latitude":53.4029327,"longitude":-1.4189847,"name":"Broughton Lane near Broughton Lane Roundabout","properties":{"access":"unknown","bicycle_pa":"","capacity":2,"covered":"","fee":"","operator":"","nameSource":"junction"},"sourceId":"osm"},{"id":"osm:node:895665523","latitude":53.4021846,"longitude":-1.4135268,"name":"Mike Jeffries Way by Starbucks","properties":{"access":"unknown","bicycle_pa":"stands","capacity":16,"covered":"no","fee":"","operator":"","nameSource":"landmark"},"sourceId":"osm"},{"id":"osm:node:895665527","latitude":53.4025062,"longitude":-1.4145907,"name":"Mike Jeffries Way cycle parking","properties":{"access":"unknown","bicycle_pa":"stands","capacity":16,"covered":"no","fee":"","operator":"","nameSource":"street"},"sourceId":"osm"},{"id":"osm:node:9103835389","latitude":53.3848069,"longitude":-1.4598251,"name":"Merchants Crescent, Exchange Street cycle parking","properties":{"access":"unknown","bicycle_pa":"stands","capacity":6,"covered":"yes","fee":"no","operator":"","nameSource":"street"},"sourceId":"osm"},{"id":"osm:node:9103835390","latitude":53.3847131,"longitude":-1.4617399,"name":"Exchange Street near Blonk Street","properties":{"access":"unknown","bicycle_pa":"stands","capacity":6,"covered":"no","fee":"","operator":"","nameSource":"junction"},"sourceId":"osm"},{"id":"osm:node:9103835391","latitude":53.3853053,"longitude":-1.4641348,"name":"Castlegate near Lady's Bridge","properties":{"access":"unknown","bicycle_pa":"stands","capacity":6,"covered":"no","fee":"","operator":"","nameSource":"junction"},"sourceId":"osm"},{"id":"osm:node:937159606","latitude":53.3993608,"longitude":-1.4232105,"name":"Coleridge Road cycle parking","properties":{"access":"unknown","bicycle_pa":"stands","capacity":24,"covered":"no","fee":"","operator":"","nameSource":"street"},"sourceId":"osm"},{"id":"osm:node:937159616","latitude":53.3987915,"longitude":-1.4242136,"name":"Coleridge Road by EIS Cafe","properties":{"access":"unknown","bicycle_pa":"stands","capacity":20,"covered":"no","fee":"","operator":"","nameSource":"landmark"},"sourceId":"osm"},{"id":"osm:node:937159621","latitude":53.4013918,"longitude":-1.4213973,"name":"Attercliffe Common near Janson Street Roundabout","properties":{"access":"unknown","bicycle_pa":"","capacity":8,"covered":"yes","fee":"","operator":"","nameSource":"junction"},"sourceId":"osm"},{"id":"osm:node:9418182059","latitude":53.3852163,"longitude":-1.4704829,"name":"Mosley Lane near Silver Street","properties":{"access":"unknown","bicycle_pa":"stands","capacity":6,"covered":"no","fee":"","operator":"","nameSource":"junction"},"sourceId":"osm"},{"id":"osm:node:9445022408","latitude":53.3843916,"longitude":-1.4608884,"name":"Wharf Street near Exchange Place","properties":{"access":"unknown","bicycle_pa":"stands","capacity":4,"covered":"no","fee":"","operator":"","nameSource":"junction"},"sourceId":"osm"},{"id":"osm:node:9445022409","latitude":53.3884482,"longitude":-1.4687971,"name":"Alma Street near Corporation Street","properties":{"access":"unknown","bicycle_pa":"stands","capacity":2,"covered":"no","fee":"","operator":"","nameSource":"junction"},"sourceId":"osm"},{"id":"osm:node:9445022411","latitude":53.385087,"longitude":-1.4714287,"name":"West Bar Green near Queen Street","properties":{"access":"unknown","bicycle_pa":"stands","capacity":12,"covered":"no","fee":"","operator":"","nameSource":"junction"},"sourceId":"osm"},{"id":"osm:node:9792212090","latitude":53.4092472,"longitude":-1.4604709,"name":"Herries Road Drive near Vickers Crescent","properties":{"access":"permissive","bicycle_pa":"stands","capacity":10,"covered":"no","fee":"no","operator":"","nameSource":"junction"},"sourceId":"osm"},{"id":"osm:node:9792212091","latitude":53.409186,"longitude":-1.4557746,"name":"Huntsman Close near Huntsman Drive","properties":{"access":"permissive","bicycle_pa":"stands","capacity":16,"covered":"yes","fee":"no","operator":"","nameSource":"junction"},"sourceId":"osm"},{"id":"osm:node:9792212092","latitude":53.4124202,"longitude":-1.4559212,"name":"Barnsley Road Drive near Fox Way","properties":{"access":"permissive","bicycle_pa":"stands","capacity":6,"covered":"no","fee":"no","operator":"","nameSource":"junction"},"sourceId":"osm"},{"id":"osm:node:9792212093","latitude":53.4121217,"longitude":-1.4544527,"name":"Osborn Drive cycle parking","properties":{"access":"permissive","bicycle_pa":"stands","capacity":8,"covered":"yes","fee":"no","operator":"","nameSource":"street"},"sourceId":"osm"},{"id":"osm:node:9792212094","latitude":53.410813,"longitude":-1.4542768,"name":"Barnsley Road Drive cycle parking","properties":{"access":"permissive","bicycle_pa":"stands","capacity":12,"covered":"yes","fee":"no","operator":"","nameSource":"street"},"sourceId":"osm"},{"id":"osm:node:9804650216","latitude":53.3906459,"longitude":-1.4591411,"name":"Spital Hill near Spital Street","properties":{"access":"yes","bicycle_pa":"stands","capacity":4,"covered":"no","fee":"","operator":"Sheffield City Council","nameSource":"junction"},"sourceId":"osm"},{"id":"osm:node:9806906761","latitude":53.3983953,"longitude":-1.4652358,"name":"Burngreave Road near Abbeyfield Road","properties":{"access":"customers","bicycle_pa":"stands","capacity":4,"covered":"no","fee":"","operator":"Pitsmoor Surgery","nameSource":"junction"},"sourceId":"osm"},{"id":"osm:node:9822463990","latitude":53.3839234,"longitude":-1.4658136,"name":"Angel Street near Castle Street","properties":{"access":"yes","bicycle_pa":"stands","capacity":10,"covered":"no","fee":"no","operator":"Sheffield City Council","nameSource":"junction"},"sourceId":"osm"},{"id":"osm:way:1210959167","latitude":53.38746701666667,"longitude":-1.46646575,"name":"Esteli Parade cycle parking","properties":{"access":"private","bicycle_pa":"shed","capacity":0,"covered":"","fee":"","operator":"","nameSource":"street"},"sourceId":"osm"},{"id":"osm:way:1210959168","latitude":53.387388816666665,"longitude":-1.4667509833333332,"name":"Millsands near Bridge Street","properties":{"access":"private","bicycle_pa":"shed","capacity":0,"covered":"","fee":"","operator":"","nameSource":"junction"},"sourceId":"osm"},{"id":"osm:way:1443036086","latitude":53.41737496,"longitude":-1.41343992,"name":"Meadowhall Cycle Hub","properties":{"access":"members","bicycle_pa":"building","capacity":40,"covered":"","fee":"","operator":"Russell's Bicycle Shed","nameSource":"source"},"sourceId":"osm"},{"id":"osm:way:928439053","latitude":53.41143910000001,"longitude":-1.4583970999999998,"name":"North Lane near Herries Road Drive","properties":{"access":"permissive","bicycle_pa":"shed","capacity":22,"covered":"yes","fee":"no","operator":"","nameSource":"junction"},"sourceId":"osm"},{"id":"osm:way:928439054","latitude":53.41109634000001,"longitude":-1.45946898,"name":"Rivermead Drive near Norwood Grange Way","properties":{"access":"private","bicycle_pa":"shed","capacity":0,"covered":"","fee":"","operator":"","nameSource":"junction"},"sourceId":"osm"}],"schemaVersion":2}
