{"key":"12/2031/1328","points":[{"id":"osm:node:13136218274","latitude":53.3271683,"longitude":-1.4886367,"name":"Westwick Crescent by GHB Dental Care","properties":{"access":"yes","bicycle_pa":"wall_loops","capacity":3,"covered":"no","fee":"no","operator":"","nameSource":"landmark"},"sourceId":"osm"},{"id":"osm:node:13136218275","latitude":53.3272259,"longitude":-1.4882686,"name":"Bocking Lane near Allenby Drive","properties":{"access":"yes","bicycle_pa":"stands","capacity":2,"covered":"no","fee":"no","operator":"","nameSource":"junction"},"sourceId":"osm"},{"id":"osm:node:13136218276","latitude":53.3273088,"longitude":-1.4881962,"name":"Bocking Lane near Allenby Drive","properties":{"access":"yes","bicycle_pa":"stands","capacity":2,"covered":"no","fee":"no","operator":"","nameSource":"junction"},"sourceId":"osm"},{"id":"osm:node:13136974874","latitude":53.320468,"longitude":-1.4909589,"name":"Lowedges Road near Gresley Road","properties":{"access":"yes","bicycle_pa":"stands","capacity":4,"covered":"no","fee":"no","operator":"","nameSource":"junction"},"sourceId":"osm"},{"id":"osm:node:13769369957","latitude":53.3012606,"longitude":-1.4762047,"name":"Beechwood Road by Dronfield Sports Centre","properties":{"access":"unknown","bicycle_pa":"","capacity":0,"covered":"","fee":"","operator":"","nameSource":"landmark"},"sourceId":"osm"},{"id":"osm:node:370136563","latitude":53.3100802,"longitude":-1.4506258,"name":"Ferndale Road near Barnard Avenue","properties":{"access":"unknown","bicycle_pa":"","capacity":2,"covered":"","fee":"","operator":"","nameSource":"junction"},"sourceId":"osm"},{"id":"osm:node:370139430","latitude":53.3066601,"longitude":-1.4575177,"name":"Oakhill Road near Holmesdale Road","properties":{"access":"unknown","bicycle_pa":"","capacity":2,"covered":"","fee":"","operator":"","nameSource":"junction"},"sourceId":"osm"},{"id":"osm:node:370156888","latitude":53.304525,"longitude":-1.4648459,"name":"Green Lane near Green Cross","properties":{"access":"unknown","bicycle_pa":"","capacity":2,"covered":"","fee":"","operator":"","nameSource":"junction"},"sourceId":"osm"},{"id":"osm:node:370186086","latitude":53.3012039,"longitude":-1.4678599,"name":"Chesterfield Road near Princess Road","properties":{"access":"unknown","bicycle_pa":"","capacity":2,"covered":"","fee":"","operator":"","nameSource":"junction"},"sourceId":"osm"},{"id":"osm:node:6688288946","latitude":53.3013747,"longitude":-1.4689067,"name":"Chesterfield Road near Princess Road","properties":{"access":"unknown","bicycle_pa":"stands","capacity":8,"covered":"yes","fee":"","operator":"","nameSource":"junction"},"sourceId":"osm"},{"id":"osm:node:879651877","latitude":53.3019719,"longitude":-1.4755912,"name":"Civic Centre near High Street","properties":{"access":"unknown","bicycle_pa":"","capacity":4,"covered":"","fee":"","operator":"","nameSource":"junction"},"sourceId":"osm"}],"schemaVersion":2}
