{"key":"12/2031/1338","points":[{"id":"osm:node:12522936370","latitude":52.7849366,"longitude":-1.4405147,"name":"Staunton Stables Tea and Luncheon Rooms cycle parking","properties":{"access":"permissive","bicycle_pa":"wall_loops","capacity":10,"covered":"no","fee":"no","operator":"","nameSource":"landmark"},"sourceId":"osm"},{"id":"osm:node:12522936371","latitude":52.8013333,"longitude":-1.4581508,"name":"Calke Abbey Cafe cycle parking","properties":{"access":"yes","bicycle_pa":"stands","capacity":8,"covered":"no","fee":"no","operator":"","nameSource":"landmark"},"sourceId":"osm"},{"id":"osm:node:12522936372","latitude":52.8008734,"longitude":-1.4575632,"name":"Calke Abbey Restaurant cycle parking","properties":{"access":"yes","bicycle_pa":"saddle_holder","capacity":0,"covered":"no","fee":"","operator":"","nameSource":"landmark"},"sourceId":"osm"},{"id":"osm:node:12522936373","latitude":52.8007651,"longitude":-1.4576142,"name":"Calke Abbey Restaurant cycle parking","properties":{"access":"yes","bicycle_pa":"saddle_holder","capacity":0,"covered":"no","fee":"","operator":"","nameSource":"landmark"},"sourceId":"osm"},{"id":"osm:node:12726693907","latitude":52.7513143,"longitude":-1.4512361,"name":"Nottingham Road near Smithy Road","properties":{"access":"yes","bicycle_pa":"stands","capacity":6,"covered":"yes","fee":"","operator":"","nameSource":"junction"},"sourceId":"osm"},{"id":"osm:node:12726693908","latitude":52.750745,"longitude":-1.4512646,"name":"Coalfield Way by B&M Bargains","properties":{"access":"yes","bicycle_pa":"stands","capacity":8,"covered":"yes","fee":"","operator":"","nameSource":"landmark"},"sourceId":"osm"},{"id":"osm:node:12983397527","latitude":52.7508944,"longitude":-1.484594,"name":"Burton Road near School Lane","properties":{"access":"yes","bicycle_pa":"stands","capacity":4,"covered":"no","fee":"no","operator":"","nameSource":"junction"},"sourceId":"osm"},{"id":"osm:node:12983397528","latitude":52.7512115,"longitude":-1.4843707,"name":"School Lane near Burton Road","properties":{"access":"yes","bicycle_pa":"stands","capacity":2,"covered":"no","fee":"no","operator":"","nameSource":"junction"},"sourceId":"osm"},{"id":"osm:node:12983397529","latitude":52.7514387,"longitude":-1.4851843,"name":"Burton Road near Atkinson Road","properties":{"access":"yes","bicycle_pa":"stands","capacity":10,"covered":"yes","fee":"no","operator":"","nameSource":"junction"},"sourceId":"osm"},{"id":"osm:node:12983397530","latitude":52.7526837,"longitude":-1.4828611,"name":"Orchard Close near School Lane","properties":{"access":"permissive","bicycle_pa":"stands","capacity":6,"covered":"no","fee":"no","operator":"","nameSource":"junction"},"sourceId":"osm"},{"id":"osm:node:2021734362","latitude":52.8013259,"longitude":-1.458196,"name":"Calke Abbey Cafe cycle parking","properties":{"access":"yes","bicycle_pa":"shed","capacity":8,"covered":"yes","fee":"","operator":"","nameSource":"landmark"},"sourceId":"osm"},{"id":"osm:way:191588122","latitude":52.80129762,"longitude":-1.4582027400000002,"name":"Calke Abbey Cafe cycle parking","properties":{"access":"unknown","bicycle_pa":"shed","capacity":8,"covered":"","fee":"","operator":"","nameSource":"landmark"},"sourceId":"osm"}],"schemaVersion":2}
