{"key":"12/2031/1360","points":[{"id":"osm:node:12182595856","latitude":51.5919049,"longitude":-1.4262634,"name":"Smith's Wharf near Limborough Road","properties":{"access":"unknown","bicycle_pa":"rack","capacity":0,"covered":"","fee":"","operator":"","nameSource":"junction"},"sourceId":"osm"},{"id":"osm:node:12236365117","latitude":51.6053887,"longitude":-1.4397263,"name":"Lancaster Crescent near Squadron Way","properties":{"access":"unknown","bicycle_pa":"stands","capacity":0,"covered":"no","fee":"","operator":"","nameSource":"junction"},"sourceId":"osm"},{"id":"osm:node:12816588855","latitude":51.6098035,"longitude":-1.4218374,"name":"Millbrook Square near Main Street","properties":{"access":"unknown","bicycle_pa":"","capacity":0,"covered":"","fee":"","operator":"","nameSource":"junction"},"sourceId":"osm"},{"id":"osm:node:12966780922","latitude":51.5866023,"longitude":-1.4296319,"name":"Portway near Priory Road","properties":{"access":"private","bicycle_pa":"","capacity":0,"covered":"yes","fee":"no","operator":"","nameSource":"junction"},"sourceId":"osm"},{"id":"osm:node:13322629242","latitude":51.5983716,"longitude":-1.4262362,"name":"Mably Way by Newbury Street Practice","properties":{"access":"unknown","bicycle_pa":"","capacity":0,"covered":"yes","fee":"","operator":"","nameSource":"landmark"},"sourceId":"osm"},{"id":"osm:node:13376365821","latitude":51.5908414,"longitude":-1.4283708,"name":"King's Wharf near The Wharf","properties":{"access":"private","bicycle_pa":"","capacity":0,"covered":"","fee":"","operator":"","nameSource":"junction"},"sourceId":"osm"},{"id":"osm:node:13395272443","latitude":51.5893907,"longitude":-1.4240755,"name":"Stirlings Road near Seesen Way","properties":{"access":"unknown","bicycle_pa":"stands","capacity":0,"covered":"","fee":"","operator":"","nameSource":"junction"},"sourceId":"osm"},{"id":"osm:node:5060934009","latitude":51.5886717,"longitude":-1.425431,"name":"Wallingford Street near Market Place","properties":{"access":"unknown","bicycle_pa":"stands","capacity":12,"covered":"yes","fee":"","operator":"","nameSource":"junction"},"sourceId":"osm"},{"id":"osm:node:9377743029","latitude":51.5884731,"longitude":-1.4265052,"name":"Market Place near Church Street","properties":{"access":"unknown","bicycle_pa":"stands","capacity":8,"covered":"no","fee":"","operator":"","nameSource":"junction"},"sourceId":"osm"},{"id":"osm:node:9377743030","latitude":51.5884573,"longitude":-1.426361,"name":"Market Place near Newbury Street","properties":{"access":"unknown","bicycle_pa":"stands","capacity":8,"covered":"no","fee":"","operator":"","nameSource":"junction"},"sourceId":"osm"}],"schemaVersion":2}
