{"key":"12/2031/1374","points":[{"id":"osm:node:2388258813","latitude":50.8245951,"longitude":-1.4541178,"name":"Mill Pond Walk cycle parking","properties":{"access":"unknown","bicycle_pa":"stands","capacity":14,"covered":"","fee":"","operator":"","nameSource":"street"},"sourceId":"osm"},{"id":"osm:node:7830114213","latitude":50.8165035,"longitude":-1.4519729,"name":"High Street by Steff's Kitchen","properties":{"access":"unknown","bicycle_pa":"stands","capacity":10,"covered":"no","fee":"","operator":"","nameSource":"landmark"},"sourceId":"osm"},{"id":"osm:node:8778197969","latitude":50.8185059,"longitude":-1.4513366,"name":"Cycle parking - Hotel","properties":{"access":"unknown","bicycle_pa":"stands","capacity":8,"covered":"no","fee":"","operator":"","nameSource":"source"},"sourceId":"osm"},{"id":"osm:node:8895392538","latitude":50.8165242,"longitude":-1.4519211,"name":"High Street by Steff's Kitchen","properties":{"access":"unknown","bicycle_pa":"wall_loops","capacity":9,"covered":"no","fee":"","operator":"","nameSource":"landmark"},"sourceId":"osm"},{"id":"osm:node:9272736325","latitude":50.7972958,"longitude":-1.4198997,"name":"Captain's Cabin Tea Rooms and Shop cycle parking","properties":{"access":"unknown","bicycle_pa":"stands","capacity":0,"covered":"yes","fee":"","operator":"","nameSource":"landmark"},"sourceId":"osm"}],"schemaVersion":2}
