{"key":"12/1950/1340","points":[{"id":"osm:node:11179602736","latitude":52.6489221,"longitude":-8.5755124,"name":"Halfords cycle parking","properties":{"access":"unknown","bicycle_pa":"wall_loops","capacity":3,"covered":"no","fee":"no","operator":"","nameSource":"landmark"},"sourceId":"osm"},{"id":"osm:node:11179608464","latitude":52.6619886,"longitude":-8.5931898,"name":"R445 by Decathlon","properties":{"access":"yes","bicycle_pa":"stands","capacity":16,"covered":"no","fee":"no","operator":"","nameSource":"landmark"},"sourceId":"osm"},{"id":"osm:node:11379992166","latitude":52.6627302,"longitude":-8.5956817,"name":"Parkway Roundabout by CeX","properties":{"access":"unknown","bicycle_pa":"","capacity":4,"covered":"no","fee":"","operator":"","nameSource":"landmark"},"sourceId":"osm"},{"id":"osm:node:11381718295","latitude":52.669405,"longitude":-8.6035273,"name":"Richmond RFC cycle parking","properties":{"access":"unknown","bicycle_pa":"stands","capacity":6,"covered":"","fee":"","operator":"","nameSource":"landmark"},"sourceId":"osm"},{"id":"osm:node:11653951338","latitude":52.6724502,"longitude":-8.5766213,"name":"Feeney Way cycle parking","properties":{"access":"yes","bicycle_pa":"stands","capacity":60,"covered":"no","fee":"no","operator":"University of Limerick","nameSource":"street"},"sourceId":"osm"},{"id":"osm:node:11653958257","latitude":52.6735716,"longitude":-8.5780264,"name":"Plaza cycle parking","properties":{"access":"yes","bicycle_pa":"stands","capacity":36,"covered":"no","fee":"no","operator":"University of Limerick","nameSource":"street"},"sourceId":"osm"},{"id":"osm:node:11653958258","latitude":52.6757306,"longitude":-8.5766844,"name":"Nun's Walk by Pizza Guys","properties":{"access":"yes","bicycle_pa":"stands","capacity":14,"covered":"no","fee":"no","operator":"University of Limerick","nameSource":"landmark"},"sourceId":"osm"},{"id":"osm:node:11653958259","latitude":52.6733767,"longitude":-8.5724679,"name":"Plaza by Fountain Sculpture","properties":{"access":"yes","bicycle_pa":"stands","capacity":32,"covered":"no","fee":"no","operator":"University of Limerick","nameSource":"landmark"},"sourceId":"osm"},{"id":"osm:node:11653958260","latitude":52.6736056,"longitude":-8.5702674,"name":"Feeney Way cycle parking","properties":{"access":"yes","bicycle_pa":"stands","capacity":8,"covered":"no","fee":"no","operator":"University of Limerick","nameSource":"street"},"sourceId":"osm"},{"id":"osm:node:11653958261","latitude":52.6744687,"longitude":-8.5679354,"name":"Café Sportif cycle parking","properties":{"access":"yes","bicycle_pa":"stands","capacity":20,"covered":"no","fee":"no","operator":"University of Limerick","nameSource":"landmark"},"sourceId":"osm"},{"id":"osm:node:11653958262","latitude":52.6753776,"longitude":-8.560754,"name":"Kilmurry Village cycle parking","properties":{"access":"yes","bicycle_pa":"stands","capacity":14,"covered":"no","fee":"no","operator":"University of Limerick","nameSource":"street"},"sourceId":"osm"},{"id":"osm:node:11653958263","latitude":52.675384,"longitude":-8.5609844,"name":"Kilmurry Village cycle parking","properties":{"access":"yes","bicycle_pa":"stands","capacity":14,"covered":"no","fee":"no","operator":"University of Limerick","nameSource":"street"},"sourceId":"osm"},{"id":"osm:node:11653958264","latitude":52.6749903,"longitude":-8.5624538,"name":"Kilmurry Village cycle parking","properties":{"access":"yes","bicycle_pa":"stands","capacity":14,"covered":"no","fee":"no","operator":"University of Limerick","nameSource":"street"},"sourceId":"osm"},{"id":"osm:node:12552319036","latitude":52.6745745,"longitude":-8.5748897,"name":"Café Allegro cycle parking","properties":{"access":"unknown","bicycle_pa":"shed","capacity":0,"covered":"","fee":"","operator":"","nameSource":"landmark"},"sourceId":"osm"},{"id":"osm:node:12552319037","latitude":52.6745124,"longitude":-8.5749586,"name":"Café Allegro cycle parking","properties":{"access":"unknown","bicycle_pa":"shed","capacity":0,"covered":"","fee":"","operator":"","nameSource":"landmark"},"sourceId":"osm"},{"id":"osm:node:12585985801","latitude":52.6790939,"longitude":-8.5783656,"name":"Cappavilla cycle parking","properties":{"access":"private","bicycle_pa":"shed","capacity":0,"covered":"yes","fee":"","operator":"","nameSource":"place"},"sourceId":"osm"},{"id":"osm:node:12585985802","latitude":52.6792824,"longitude":-8.5782742,"name":"Cappavilla cycle parking","properties":{"access":"private","bicycle_pa":"shed","capacity":0,"covered":"yes","fee":"","operator":"","nameSource":"place"},"sourceId":"osm"},{"id":"osm:node:12585985803","latitude":52.679468,"longitude":-8.5780803,"name":"Cappavilla cycle parking","properties":{"access":"private","bicycle_pa":"shed","capacity":0,"covered":"yes","fee":"","operator":"","nameSource":"place"},"sourceId":"osm"},{"id":"osm:node:12585985804","latitude":52.6796429,"longitude":-8.5778175,"name":"Village Launderette cycle parking","properties":{"access":"private","bicycle_pa":"shed","capacity":0,"covered":"yes","fee":"","operator":"","nameSource":"landmark"},"sourceId":"osm"},{"id":"osm:node:12585985805","latitude":52.6798547,"longitude":-8.5774665,"name":"Village Launderette cycle parking","properties":{"access":"private","bicycle_pa":"shed","capacity":0,"covered":"yes","fee":"","operator":"","nameSource":"landmark"},"sourceId":"osm"},{"id":"osm:node:12585985806","latitude":52.679527,"longitude":-8.5772155,"name":"Village Launderette cycle parking","properties":{"access":"private","bicycle_pa":"shed","capacity":0,"covered":"yes","fee":"","operator":"","nameSource":"landmark"},"sourceId":"osm"},{"id":"osm:node:12585985807","latitude":52.6792547,"longitude":-8.5774328,"name":"Cappavilla cycle parking","properties":{"access":"private","bicycle_pa":"shed","capacity":0,"covered":"yes","fee":"","operator":"","nameSource":"place"},"sourceId":"osm"},{"id":"osm:node:12585985808","latitude":52.6789913,"longitude":-8.5775046,"name":"University Bridge cycle parking","properties":{"access":"private","bicycle_pa":"shed","capacity":0,"covered":"yes","fee":"","operator":"","nameSource":"street"},"sourceId":"osm"},{"id":"osm:node:12585985809","latitude":52.6799491,"longitude":-8.5768634,"name":"Village Launderette cycle parking","properties":{"access":"private","bicycle_pa":"shed","capacity":0,"covered":"yes","fee":"","operator":"","nameSource":"landmark"},"sourceId":"osm"},{"id":"osm:node:12585985810","latitude":52.6796454,"longitude":-8.57677,"name":"Village Launderette cycle parking","properties":{"access":"private","bicycle_pa":"shed","capacity":0,"covered":"yes","fee":"","operator":"","nameSource":"landmark"},"sourceId":"osm"},{"id":"osm:node:12585985811","latitude":52.6793002,"longitude":-8.5769112,"name":"University Bridge cycle parking","properties":{"access":"private","bicycle_pa":"shed","capacity":0,"covered":"yes","fee":"","operator":"","nameSource":"street"},"sourceId":"osm"},{"id":"osm:node:12585985812","latitude":52.6790997,"longitude":-8.5770061,"name":"University Bridge cycle parking","properties":{"access":"private","bicycle_pa":"shed","capacity":0,"covered":"yes","fee":"","operator":"","nameSource":"street"},"sourceId":"osm"},{"id":"osm:node:12588180293","latitude":52.6799321,"longitude":-8.577149,"name":"Village Launderette cycle parking","properties":{"access":"unknown","bicycle_pa":"stands","capacity":0,"covered":"no","fee":"","operator":"","nameSource":"landmark"},"sourceId":"osm"},{"id":"osm:node:12590727819","latitude":52.6804155,"longitude":-8.5766446,"name":"Village Launderette cycle parking","properties":{"access":"unknown","bicycle_pa":"stands","capacity":5,"covered":"no","fee":"","operator":"","nameSource":"landmark"},"sourceId":"osm"},{"id":"osm:node:12596764437","latitude":52.6783999,"longitude":-8.5697667,"name":"The Living Bridge cycle parking","properties":{"access":"unknown","bicycle_pa":"stands","capacity":18,"covered":"yes","fee":"no","operator":"","nameSource":"street"},"sourceId":"osm"},{"id":"osm:node:13147500486","latitude":52.6732933,"longitude":-8.567916,"name":"Feeney Way cycle parking","properties":{"access":"unknown","bicycle_pa":"stands","capacity":22,"covered":"yes","fee":"","operator":"","nameSource":"street"},"sourceId":"osm"},{"id":"osm:node:13709877300","latitude":52.6656972,"longitude":-8.5528937,"name":"Castletroy Shopping Centre cycle parking","properties":{"access":"unknown","bicycle_pa":"stands","capacity":10,"covered":"","fee":"","operator":"","nameSource":"street"},"sourceId":"osm"},{"id":"osm:node:13709901601","latitude":52.6659431,"longitude":-8.5516399,"name":"Castletroy Greenway (Supervalu link) cycle parking","properties":{"access":"unknown","bicycle_pa":"stands","capacity":10,"covered":"","fee":"","operator":"","nameSource":"street"},"sourceId":"osm"},{"id":"osm:node:4922725083","latitude":52.6715746,"longitude":-8.5462522,"name":"Shanbally cycle parking","properties":{"access":"unknown","bicycle_pa":"","capacity":0,"covered":"","fee":"","operator":"","nameSource":"place"},"sourceId":"osm"},{"id":"osm:node:495991326","latitude":52.6568636,"longitude":-8.5952814,"name":"Limerick One Shopping Park by Life Style Sports","properties":{"access":"unknown","bicycle_pa":"stands","capacity":16,"covered":"no","fee":"","operator":"","nameSource":"landmark"},"sourceId":"osm"},{"id":"osm:node:497549282","latitude":52.6743805,"longitude":-8.5753426,"name":"Café Allegro cycle parking","properties":{"access":"yes","bicycle_pa":"stands","capacity":38,"covered":"","fee":"","operator":"","nameSource":"landmark"},"sourceId":"osm"},{"id":"osm:node:508327988","latitude":52.6778358,"longitude":-8.5691061,"name":"Health Science Bicycle Parking","properties":{"access":"unknown","bicycle_pa":"stands","capacity":20,"covered":"","fee":"","operator":"","nameSource":"source"},"sourceId":"osm"},{"id":"osm:node:5209296411","latitude":52.6643627,"longitude":-8.5872135,"name":"Rebogue Road by Aldi","properties":{"access":"unknown","bicycle_pa":"","capacity":0,"covered":"no","fee":"","operator":"","nameSource":"landmark"},"sourceId":"osm"},{"id":"osm:node:529412246","latitude":52.678111,"longitude":-8.5685947,"name":"The Living Bridge cycle parking","properties":{"access":"unknown","bicycle_pa":"","capacity":0,"covered":"","fee":"","operator":"","nameSource":"street"},"sourceId":"osm"},{"id":"osm:node:531506969","latitude":52.6746147,"longitude":-8.5744843,"name":"Café Allegro cycle parking","properties":{"access":"permit","bicycle_pa":"stands","capacity":88,"covered":"yes","fee":"","operator":"University of Limerick","nameSource":"landmark"},"sourceId":"osm"},{"id":"osm:node:531506973","latitude":52.6754413,"longitude":-8.57321,"name":"The Living Bridge by Millstream","properties":{"access":"unknown","bicycle_pa":"","capacity":0,"covered":"yes","fee":"","operator":"","nameSource":"landmark"},"sourceId":"osm"},{"id":"osm:node:5337862883","latitude":52.6665681,"longitude":-8.5537241,"name":"The Conifers by TechStar","properties":{"access":"unknown","bicycle_pa":"stands","capacity":0,"covered":"no","fee":"","operator":"","nameSource":"landmark"},"sourceId":"osm"},{"id":"osm:node:5337862884","latitude":52.6666397,"longitude":-8.5537376,"name":"The Conifers by Starbucks","properties":{"access":"unknown","bicycle_pa":"stands","capacity":0,"covered":"no","fee":"","operator":"","nameSource":"landmark"},"sourceId":"osm"},{"id":"osm:node:577505452","latitude":52.6733634,"longitude":-8.5702789,"name":"Feeney Way by Student Union","properties":{"access":"yes","bicycle_pa":"stands","capacity":22,"covered":"yes","fee":"","operator":"","nameSource":"landmark"},"sourceId":"osm"},{"id":"osm:node:6779264877","latitude":52.6623007,"longitude":-8.5961395,"name":"EC Charging cycle parking","properties":{"access":"customers","bicycle_pa":"lockers","capacity":6,"covered":"","fee":"","operator":"CYCLOK","nameSource":"landmark"},"sourceId":"osm"},{"id":"osm:node:6800122551","latitude":52.6633597,"longitude":-8.5930822,"name":"Rebogue Road by Spar","properties":{"access":"yes","bicycle_pa":"stands","capacity":5,"covered":"no","fee":"","operator":"","nameSource":"landmark"},"sourceId":"osm"},{"id":"osm:node:7898071461","latitude":52.6729933,"longitude":-8.5688336,"name":"Feeney Way by Cube Café","properties":{"access":"yes","bicycle_pa":"stands","capacity":24,"covered":"no","fee":"","operator":"","nameSource":"landmark"},"sourceId":"osm"},{"id":"osm:node:7898071467","latitude":52.6742835,"longitude":-8.5762268,"name":"Cappavilla cycle parking","properties":{"access":"yes","bicycle_pa":"stands","capacity":16,"covered":"no","fee":"","operator":"","nameSource":"place"},"sourceId":"osm"},{"id":"osm:node:7898071473","latitude":52.6728202,"longitude":-8.5650262,"name":"Feeney Way cycle parking","properties":{"access":"yes","bicycle_pa":"stands","capacity":17,"covered":"yes","fee":"","operator":"","nameSource":"street"},"sourceId":"osm"},{"id":"osm:node:7898071477","latitude":52.6736367,"longitude":-8.5732692,"name":"Plaza by Plaza Café","properties":{"access":"yes","bicycle_pa":"stands","capacity":10,"covered":"no","fee":"","operator":"","nameSource":"landmark"},"sourceId":"osm"},{"id":"osm:node:7898071478","latitude":52.6750047,"longitude":-8.5731332,"name":"The Living Bridge by ESB Electric Vehicle Charge Point","properties":{"access":"yes","bicycle_pa":"stands","capacity":12,"covered":"yes","fee":"","operator":"","nameSource":"landmark"},"sourceId":"osm"},{"id":"osm:node:7898071483","latitude":52.6732825,"longitude":-8.5650687,"name":"Feeney Way by University Arena","properties":{"access":"yes","bicycle_pa":"stands","capacity":30,"covered":"no","fee":"","operator":"","nameSource":"landmark"},"sourceId":"osm"},{"id":"osm:node:7898071484","latitude":52.673359,"longitude":-8.5700666,"name":"Feeney Way by Student Union","properties":{"access":"yes","bicycle_pa":"stands","capacity":20,"covered":"no","fee":"","operator":"","nameSource":"landmark"},"sourceId":"osm"},{"id":"osm:node:7898132486","latitude":52.6748548,"longitude":-8.5727388,"name":"Plaza cycle parking","properties":{"access":"yes","bicycle_pa":"stands","capacity":26,"covered":"yes","fee":"","operator":"","nameSource":"street"},"sourceId":"osm"},{"id":"osm:node:7898132489","latitude":52.6742446,"longitude":-8.5767972,"name":"Plaza cycle parking","properties":{"access":"yes","bicycle_pa":"stands","capacity":18,"covered":"no","fee":"","operator":"","nameSource":"street"},"sourceId":"osm"},{"id":"osm:node:7898132494","latitude":52.672764,"longitude":-8.5772653,"name":"Plaza by Cube Café","properties":{"access":"yes","bicycle_pa":"stands","capacity":20,"covered":"","fee":"","operator":"","nameSource":"landmark"},"sourceId":"osm"},{"id":"osm:node:8022147557","latitude":52.6739976,"longitude":-8.5776203,"name":"Plaza cycle parking","properties":{"access":"private","bicycle_pa":"shed","capacity":0,"covered":"yes","fee":"","operator":"","nameSource":"street"},"sourceId":"osm"},{"id":"osm:node:8051018390","latitude":52.6638415,"longitude":-8.5787341,"name":"Curragh Birin by Four Seasons","properties":{"access":"unknown","bicycle_pa":"stands","capacity":4,"covered":"no","fee":"no","operator":"Limerick City and County Council","nameSource":"landmark"},"sourceId":"osm"},{"id":"osm:way:1502417822","latitude":52.67885168,"longitude":-8.56951262,"name":"The Pavilion cycle parking","properties":{"access":"unknown","bicycle_pa":"stands","capacity":18,"covered":"yes","fee":"","operator":"","nameSource":"landmark"},"sourceId":"osm"},{"id":"osm:way:1530198495","latitude":52.669534039999995,"longitude":-8.554535659999999,"name":"Killmurray Graveyard cycle parking","properties":{"access":"private","bicycle_pa":"stands","capacity":22,"covered":"yes","fee":"no","operator":"","nameSource":"landmark"},"sourceId":"osm"},{"id":"osm:way:693335083","latitude":52.66261866,"longitude":-8.57424316,"name":"Courtyard Student Village cycle parking","properties":{"access":"private","bicycle_pa":"","capacity":0,"covered":"","fee":"","operator":"","nameSource":"street"},"sourceId":"osm"}],"schemaVersion":2}
