{"key":"12/2026/1345","points":[{"id":"osm:node:11779034623","latitude":52.3797548,"longitude":-1.8658826,"name":"Lea Green Lane near Norton Lane","properties":{"access":"yes","bicycle_pa":"","capacity":4,"covered":"yes","fee":"no","operator":"","nameSource":"junction"},"sourceId":"osm"},{"id":"osm:node:11817332733","latitude":52.4102647,"longitude":-1.9270754,"name":"Rea Valley Route cycle parking","properties":{"access":"yes","bicycle_pa":"stands","capacity":4,"covered":"no","fee":"no","operator":"","nameSource":"street"},"sourceId":"osm"},{"id":"osm:node:12524625811","latitude":52.4036901,"longitude":-1.9296382,"name":"Downland Close by Vape Hut","properties":{"access":"unknown","bicycle_pa":"shed","capacity":4,"covered":"","fee":"","operator":"","nameSource":"landmark"},"sourceId":"osm"},{"id":"osm:node:13440736762","latitude":52.4290937,"longitude":-1.9214309,"name":"Hazelwell Lane near Pershore Road","properties":{"access":"customers","bicycle_pa":"stands","capacity":16,"covered":"yes","fee":"no","operator":"Aldi","nameSource":"junction"},"sourceId":"osm"},{"id":"osm:node:13669091401","latitude":52.4138232,"longitude":-1.8801769,"name":"Limekiln Lane by Screwfix","properties":{"access":"unknown","bicycle_pa":"shed","capacity":0,"covered":"","fee":"","operator":"","nameSource":"landmark"},"sourceId":"osm"},{"id":"osm:node:13669115273","latitude":52.413711,"longitude":-1.8802093,"name":"Warstock Road by Screwfix","properties":{"access":"unknown","bicycle_pa":"shed","capacity":0,"covered":"","fee":"","operator":"","nameSource":"landmark"},"sourceId":"osm"},{"id":"osm:node:13935093901","latitude":52.4138446,"longitude":-1.8838803,"name":"Warstock Road near Alcester Road South","properties":{"access":"unknown","bicycle_pa":"","capacity":0,"covered":"","fee":"","operator":"","nameSource":"junction"},"sourceId":"osm"},{"id":"osm:node:1401108060","latitude":52.4039939,"longitude":-1.8844331,"name":"Maypole Lane cycle parking","properties":{"access":"unknown","bicycle_pa":"","capacity":0,"covered":"","fee":"","operator":"","nameSource":"street"},"sourceId":"osm"},{"id":"osm:node:1401108063","latitude":52.404113,"longitude":-1.884464,"name":"Maypole Lane cycle parking","properties":{"access":"unknown","bicycle_pa":"","capacity":0,"covered":"","fee":"","operator":"","nameSource":"street"},"sourceId":"osm"},{"id":"osm:node:1401108080","latitude":52.4046285,"longitude":-1.8856208,"name":"Maypole Lane near The Maypole","properties":{"access":"unknown","bicycle_pa":"","capacity":0,"covered":"","fee":"","operator":"","nameSource":"junction"},"sourceId":"osm"},{"id":"osm:node:1401111984","latitude":52.4052191,"longitude":-1.8866942,"name":"Alcester Road South near The Maypole","properties":{"access":"unknown","bicycle_pa":"","capacity":0,"covered":"","fee":"","operator":"","nameSource":"junction"},"sourceId":"osm"},{"id":"osm:node:1401121437","latitude":52.4066263,"longitude":-1.8875448,"name":"Stotfold Road near Alcester Road South","properties":{"access":"unknown","bicycle_pa":"","capacity":0,"covered":"","fee":"","operator":"","nameSource":"junction"},"sourceId":"osm"},{"id":"osm:node:1401121440","latitude":52.4073803,"longitude":-1.8893216,"name":"Baverstock Road near Idmiston Croft","properties":{"access":"unknown","bicycle_pa":"","capacity":0,"covered":"","fee":"","operator":"","nameSource":"junction"},"sourceId":"osm"},{"id":"osm:node:1401124044","latitude":52.4171227,"longitude":-1.8887739,"name":"Cocks Moor Wood Leisure Centre cycle parking","properties":{"access":"unknown","bicycle_pa":"","capacity":14,"covered":"","fee":"","operator":"","nameSource":"landmark"},"sourceId":"osm"},{"id":"osm:node:3149214001","latitude":52.4213463,"longitude":-1.8563274,"name":"Highfield Road near Cole Valley Road","properties":{"access":"unknown","bicycle_pa":"","capacity":10,"covered":"yes","fee":"","operator":"","nameSource":"junction"},"sourceId":"osm"},{"id":"osm:node:3594182598","latitude":52.4185326,"longitude":-1.8598218,"name":"Highfield Place near Highfield Road","properties":{"access":"unknown","bicycle_pa":"","capacity":4,"covered":"","fee":"","operator":"","nameSource":"junction"},"sourceId":"osm"},{"id":"osm:node:5091128433","latitude":52.3918316,"longitude":-1.8507915,"name":"Tilehouse Lane by Whitlocks End","properties":{"access":"unknown","bicycle_pa":"loops","capacity":8,"covered":"yes","fee":"","operator":"","nameSource":"landmark"},"sourceId":"osm"},{"id":"osm:node:5091128434","latitude":52.3916647,"longitude":-1.8507137,"name":"Tilehouse Lane cycle parking","properties":{"access":"unknown","bicycle_pa":"loops","capacity":8,"covered":"yes","fee":"","operator":"","nameSource":"street"},"sourceId":"osm"},{"id":"osm:node:6135345653","latitude":52.4147505,"longitude":-1.9310477,"name":"Wingate Close near Pershore Road South","properties":{"access":"unknown","bicycle_pa":"stands","capacity":10,"covered":"yes","fee":"","operator":"","nameSource":"junction"},"sourceId":"osm"},{"id":"osm:node:6135385707","latitude":52.4146852,"longitude":-1.9310926,"name":"Wingate Close near Pershore Road South","properties":{"access":"unknown","bicycle_pa":"lockers","capacity":2,"covered":"","fee":"","operator":"","nameSource":"junction"},"sourceId":"osm"},{"id":"osm:node:6135385708","latitude":52.4147572,"longitude":-1.9311154,"name":"Wingate Close near Pershore Road South","properties":{"access":"yes","bicycle_pa":"lockers","capacity":4,"covered":"","fee":"","operator":"","nameSource":"junction"},"sourceId":"osm"},{"id":"osm:node:631160583","latitude":52.4075706,"longitude":-1.9282852,"name":"The Green near Back Road","properties":{"access":"unknown","bicycle_pa":"stands","capacity":8,"covered":"no","fee":"","operator":"","nameSource":"junction"},"sourceId":"osm"},{"id":"osm:node:631160593","latitude":52.4141193,"longitude":-1.9323251,"name":"Sedge Avenue by Kings Norton","properties":{"access":"unknown","bicycle_pa":"stands","capacity":12,"covered":"","fee":"","operator":"","nameSource":"landmark"},"sourceId":"osm"},{"id":"osm:node:6411868626","latitude":52.4213362,"longitude":-1.8917982,"name":"Alcester Road South near Woodthorpe Road","properties":{"access":"unknown","bicycle_pa":"","capacity":6,"covered":"no","fee":"","operator":"","nameSource":"junction"},"sourceId":"osm"},{"id":"osm:node:664021744","latitude":52.4271554,"longitude":-1.9266856,"name":"Mary Vale Road by Bournville","properties":{"access":"unknown","bicycle_pa":"stands","capacity":12,"covered":"yes","fee":"","operator":"","nameSource":"landmark"},"sourceId":"osm"},{"id":"osm:node:8194757654","latitude":52.4160641,"longitude":-1.9302372,"name":"Pershore Road by Subway","properties":{"access":"unknown","bicycle_pa":"stands","capacity":4,"covered":"no","fee":"no","operator":"","nameSource":"landmark"},"sourceId":"osm"},{"id":"osm:node:8194757655","latitude":52.4163359,"longitude":-1.9306669,"name":"Watford Road near A4040","properties":{"access":"unknown","bicycle_pa":"stands","capacity":4,"covered":"no","fee":"no","operator":"","nameSource":"junction"},"sourceId":"osm"},{"id":"osm:node:8194757656","latitude":52.4171139,"longitude":-1.9309868,"name":"Watford Road near Northfield Road","properties":{"access":"unknown","bicycle_pa":"stands","capacity":4,"covered":"no","fee":"no","operator":"","nameSource":"junction"},"sourceId":"osm"},{"id":"osm:node:8194757657","latitude":52.4173335,"longitude":-1.9309505,"name":"Rowheath Road near Northfield Road","properties":{"access":"unknown","bicycle_pa":"stands","capacity":4,"covered":"no","fee":"no","operator":"","nameSource":"junction"},"sourceId":"osm"},{"id":"osm:node:8194757658","latitude":52.4157658,"longitude":-1.9304824,"name":"Pershore Road by La Banca","properties":{"access":"unknown","bicycle_pa":"stands","capacity":4,"covered":"no","fee":"no","operator":"","nameSource":"landmark"},"sourceId":"osm"},{"id":"osm:node:8194757659","latitude":52.4159567,"longitude":-1.9307173,"name":"Pershore Road by Kings","properties":{"access":"unknown","bicycle_pa":"stands","capacity":4,"covered":"no","fee":"no","operator":"","nameSource":"landmark"},"sourceId":"osm"},{"id":"osm:node:8327449880","latitude":52.4287974,"longitude":-1.8558895,"name":"Cole Valley Road by Cole Valley News","properties":{"access":"unknown","bicycle_pa":"stands","capacity":4,"covered":"no","fee":"no","operator":"","nameSource":"landmark"},"sourceId":"osm"},{"id":"osm:node:848887359","latitude":52.4138626,"longitude":-1.8695704,"name":"School Road by Select Supermarket","properties":{"access":"unknown","bicycle_pa":"stands","capacity":6,"covered":"no","fee":"","operator":"","nameSource":"landmark"},"sourceId":"osm"},{"id":"osm:node:8606798648","latitude":52.407998,"longitude":-1.9285217,"name":"The Green near Back Road","properties":{"access":"unknown","bicycle_pa":"","capacity":10,"covered":"yes","fee":"","operator":"","nameSource":"junction"},"sourceId":"osm"},{"id":"osm:node:9494827916","latitude":52.4144165,"longitude":-1.8460532,"name":"Barton Lodge Road near Baldwins Lane","properties":{"access":"unknown","bicycle_pa":"","capacity":4,"covered":"","fee":"","operator":"","nameSource":"junction"},"sourceId":"osm"},{"id":"osm:node:9529770462","latitude":52.4214802,"longitude":-1.8558472,"name":"Highfield Road by Yardley Wood Station Electric Charge Point","properties":{"access":"unknown","bicycle_pa":"","capacity":0,"covered":"","fee":"","operator":"","nameSource":"landmark"},"sourceId":"osm"},{"id":"osm:node:9529770469","latitude":52.4212814,"longitude":-1.8549098,"name":"Highfield Road by Yardley Wood","properties":{"access":"unknown","bicycle_pa":"","capacity":36,"covered":"yes","fee":"","operator":"","nameSource":"landmark"},"sourceId":"osm"},{"id":"osm:node:9530086786","latitude":52.4215325,"longitude":-1.8551163,"name":"Highfield Road near Paradise Lane","properties":{"access":"unknown","bicycle_pa":"","capacity":10,"covered":"yes","fee":"","operator":"","nameSource":"junction"},"sourceId":"osm"},{"id":"osm:node:9534553666","latitude":52.4229489,"longitude":-1.8913385,"name":"Maple Croft by Kings Heath Cricket and Sports Club","properties":{"access":"customers","bicycle_pa":"anchors","capacity":4,"covered":"no","fee":"no","operator":"","nameSource":"landmark"},"sourceId":"osm"}],"schemaVersion":2}
