{"key":"12/2026/1374","points":[{"id":"osm:node:11361047614","latitude":50.8133896,"longitude":-1.9121776,"name":"Lindbergh Road near Johnson Road","properties":{"access":"customers","bicycle_pa":"stands","capacity":10,"covered":"no","fee":"","operator":"","nameSource":"junction"},"sourceId":"osm"},{"id":"osm:node:11380379775","latitude":50.8166775,"longitude":-1.8576678,"name":"Palmer's Ford cycle parking","properties":{"access":"unknown","bicycle_pa":"stands","capacity":8,"covered":"yes","fee":"","operator":"","nameSource":"place"},"sourceId":"osm"},{"id":"osm:node:12841781302","latitude":50.8110621,"longitude":-1.8757128,"name":"Ringwood Road near Ford Close","properties":{"access":"unknown","bicycle_pa":"","capacity":0,"covered":"","fee":"","operator":"","nameSource":"junction"},"sourceId":"osm"},{"id":"osm:node:7646136968","latitude":50.8017014,"longitude":-1.891693,"name":"Spinneys Lane by Shaw Trust","properties":{"access":"unknown","bicycle_pa":"stands","capacity":6,"covered":"yes","fee":"","operator":"","nameSource":"landmark"},"sourceId":"osm"},{"id":"osm:node:9718054569","latitude":50.8116496,"longitude":-1.8735797,"name":"Ringwood Road by McDonalds Ferndown","properties":{"access":"customers","bicycle_pa":"stands","capacity":6,"covered":"no","fee":"","operator":"McDonald's","nameSource":"landmark"},"sourceId":"osm"},{"id":"osm:node:9755132716","latitude":50.8017952,"longitude":-1.8927812,"name":"St Mary's Road by Barrington Centre","properties":{"access":"unknown","bicycle_pa":"stands","capacity":4,"covered":"no","fee":"no","operator":"","nameSource":"landmark"},"sourceId":"osm"},{"id":"osm:node:9755192622","latitude":50.8022027,"longitude":-1.8913784,"name":"Library Road by Dorset Blind Association","properties":{"access":"unknown","bicycle_pa":"stands","capacity":6,"covered":"","fee":"","operator":"","nameSource":"landmark"},"sourceId":"osm"},{"id":"osm:node:9755803341","latitude":50.8002582,"longitude":-1.8918884,"name":"Ringwood Road near Spinneys Lane","properties":{"access":"unknown","bicycle_pa":"wall_loops","capacity":2,"covered":"","fee":"","operator":"","nameSource":"junction"},"sourceId":"osm"},{"id":"osm:node:9755803342","latitude":50.8003246,"longitude":-1.8918001,"name":"Ringwood Road near Spinneys Lane","properties":{"access":"unknown","bicycle_pa":"wall_loops","capacity":2,"covered":"","fee":"","operator":"","nameSource":"junction"},"sourceId":"osm"},{"id":"osm:node:9779922202","latitude":50.802385,"longitude":-1.8904503,"name":"Victoria Road by Victoria Road North","properties":{"access":"unknown","bicycle_pa":"stands","capacity":2,"covered":"no","fee":"","operator":"","nameSource":"landmark"},"sourceId":"osm"},{"id":"osm:node:9779922208","latitude":50.8031247,"longitude":-1.8906644,"name":"Victoria Road near Princes Road","properties":{"access":"unknown","bicycle_pa":"stands","capacity":3,"covered":"no","fee":"","operator":"","nameSource":"junction"},"sourceId":"osm"},{"id":"osm:node:9779922210","latitude":50.8024278,"longitude":-1.8904642,"name":"Victoria Road by Going For Bust","properties":{"access":"unknown","bicycle_pa":"stands","capacity":2,"covered":"no","fee":"","operator":"","nameSource":"landmark"},"sourceId":"osm"},{"id":"osm:node:9779922211","latitude":50.8024165,"longitude":-1.8907954,"name":"Victoria Road by Iceland","properties":{"access":"unknown","bicycle_pa":"stands","capacity":4,"covered":"no","fee":"","operator":"","nameSource":"landmark"},"sourceId":"osm"},{"id":"osm:node:9779939507","latitude":50.8002543,"longitude":-1.8915329,"name":"Ringwood Road near Spinneys Lane","properties":{"access":"unknown","bicycle_pa":"stands","capacity":6,"covered":"no","fee":"","operator":"","nameSource":"junction"},"sourceId":"osm"},{"id":"osm:node:9779939508","latitude":50.8002279,"longitude":-1.8915635,"name":"Ringwood Road near Spinneys Lane","properties":{"access":"unknown","bicycle_pa":"stands","capacity":6,"covered":"no","fee":"","operator":"","nameSource":"junction"},"sourceId":"osm"},{"id":"osm:node:9864212872","latitude":50.8023794,"longitude":-1.897982,"name":"Peter Grant Way near Old School Close","properties":{"access":"private","bicycle_pa":"front_wheel","capacity":0,"covered":"","fee":"","operator":"","nameSource":"junction"},"sourceId":"osm"},{"id":"osm:node:9918107650","latitude":50.8040567,"longitude":-1.8993489,"name":"The Kiosk Bakery cycle parking","properties":{"access":"unknown","bicycle_pa":"stands","capacity":4,"covered":"no","fee":"","operator":"","nameSource":"landmark"},"sourceId":"osm"},{"id":"osm:node:9927865920","latitude":50.8040878,"longitude":-1.8992225,"name":"The Kiosk Bakery cycle parking","properties":{"access":"unknown","bicycle_pa":"stands","capacity":8,"covered":"no","fee":"no","operator":"","nameSource":"landmark"},"sourceId":"osm"},{"id":"osm:node:9927865925","latitude":50.8003539,"longitude":-1.8944763,"name":"Church Road cycle parking","properties":{"access":"private","bicycle_pa":"stands","capacity":8,"covered":"yes","fee":"","operator":"","nameSource":"street"},"sourceId":"osm"},{"id":"osm:node:9934353211","latitude":50.7971428,"longitude":-1.8957656,"name":"Ringwood Road near Longacre Drive","properties":{"access":"customers","bicycle_pa":"stands","capacity":8,"covered":"no","fee":"","operator":"","nameSource":"junction"},"sourceId":"osm"},{"id":"osm:way:590610312","latitude":50.80163334,"longitude":-1.89281978,"name":"St Mary's Road by Rowlands Pharmacy","properties":{"access":"unknown","bicycle_pa":"stands","capacity":8,"covered":"no","fee":"","operator":"","nameSource":"landmark"},"sourceId":"osm"}],"schemaVersion":2}
