{"key":"12/2026/1565","points":[{"id":"osm:node:12750549055","latitude":38.9838581,"longitude":-1.858914,"name":"Calle Doctor García Reyes near Travesía Doctor García Reyes","properties":{"access":"yes","bicycle_pa":"stands","capacity":8,"covered":"no","fee":"","operator":"","nameSource":"junction"},"sourceId":"osm"},{"id":"osm:node:12750587430","latitude":38.9834099,"longitude":-1.858695,"name":"Calle Hellín near Calle Doctor García Reyes","properties":{"access":"yes","bicycle_pa":"wall_loops","capacity":4,"covered":"no","fee":"","operator":"","nameSource":"junction"},"sourceId":"osm"},{"id":"osm:node:12752719272","latitude":38.9920684,"longitude":-1.8519982,"name":"Calle del Tinte near Plaza Carretas","properties":{"access":"yes","bicycle_pa":"stands","capacity":6,"covered":"no","fee":"","operator":"","nameSource":"junction"},"sourceId":"osm"},{"id":"osm:node:12752719276","latitude":38.9930187,"longitude":-1.8564711,"name":"Calle Marqués de Villores near Calle del Tinte","properties":{"access":"yes","bicycle_pa":"stands","capacity":6,"covered":"no","fee":"","operator":"","nameSource":"junction"},"sourceId":"osm"},{"id":"osm:node:12752744522","latitude":38.9887375,"longitude":-1.848705,"name":"Calle Hermanos Falcó near Calle Batalla del Salado","properties":{"access":"yes","bicycle_pa":"stands","capacity":8,"covered":"no","fee":"","operator":"","nameSource":"junction"},"sourceId":"osm"},{"id":"osm:node:12752767243","latitude":38.9956396,"longitude":-1.865857,"name":"Calle Fátima near Calle Velarde","properties":{"access":"yes","bicycle_pa":"stands","capacity":6,"covered":"no","fee":"","operator":"","nameSource":"junction"},"sourceId":"osm"},{"id":"osm:node:12752767442","latitude":38.9919883,"longitude":-1.8570292,"name":"Calle Marqués de Villores near Calle Dionisio Guardiola","properties":{"access":"unknown","bicycle_pa":"stands","capacity":10,"covered":"no","fee":"","operator":"","nameSource":"junction"},"sourceId":"osm"},{"id":"osm:node:12752779684","latitude":38.9914928,"longitude":-1.8641503,"name":"Calle Antonio Machado near Calle Doctor Fleming","properties":{"access":"yes","bicycle_pa":"wall_loops","capacity":2,"covered":"no","fee":"","operator":"","nameSource":"junction"},"sourceId":"osm"},{"id":"osm:node:12752790328","latitude":38.987244,"longitude":-1.8614103,"name":"Calle Arquitecto Vandelvira near Calle del Rosario","properties":{"access":"yes","bicycle_pa":"stands","capacity":6,"covered":"no","fee":"","operator":"","nameSource":"junction"},"sourceId":"osm"},{"id":"osm:node:12752799037","latitude":38.9875615,"longitude":-1.8620093,"name":"Calle Arquitecto Vandelvira near Calle Bernabé Cantos","properties":{"access":"unknown","bicycle_pa":"stands","capacity":6,"covered":"no","fee":"","operator":"","nameSource":"junction"},"sourceId":"osm"},{"id":"osm:node:12752803410","latitude":38.9880876,"longitude":-1.8628678,"name":"Calle Arquitecto Vandelvira near Calle Doctor Collado Piña","properties":{"access":"yes","bicycle_pa":"stands","capacity":4,"covered":"no","fee":"","operator":"","nameSource":"junction"},"sourceId":"osm"},{"id":"osm:node:12754577722","latitude":38.9800655,"longitude":-1.8628257,"name":"Camino de la Hoya San Ginés near Calle Aldonza","properties":{"access":"yes","bicycle_pa":"wall_loops","capacity":5,"covered":"no","fee":"","operator":"","nameSource":"junction"},"sourceId":"osm"},{"id":"osm:node:12754588542","latitude":38.9804627,"longitude":-1.8622255,"name":"Calle Aldonza near Avenida Gustavo Doré","properties":{"access":"yes","bicycle_pa":"wall_loops","capacity":4,"covered":"no","fee":"","operator":"","nameSource":"junction"},"sourceId":"osm"},{"id":"osm:node:12754608097","latitude":38.9982197,"longitude":-1.8742341,"name":"Calle Agustina de Aragón near Avenida de los Toreros","properties":{"access":"yes","bicycle_pa":"stands","capacity":4,"covered":"no","fee":"","operator":"","nameSource":"junction"},"sourceId":"osm"},{"id":"osm:node:12754613599","latitude":38.9989116,"longitude":-1.875617,"name":"Paseo De Los Chopos cycle parking","properties":{"access":"yes","bicycle_pa":"stands","capacity":12,"covered":"no","fee":"","operator":"","nameSource":"street"},"sourceId":"osm"},{"id":"osm:node:12754635271","latitude":38.9982959,"longitude":-1.8718828,"name":"Avenida de los Toreros near Calle Concordia","properties":{"access":"yes","bicycle_pa":"stands","capacity":8,"covered":"no","fee":"","operator":"","nameSource":"junction"},"sourceId":"osm"},{"id":"osm:node:12754635843","latitude":38.9983679,"longitude":-1.8736059,"name":"Calle Nuestra Señora de Monserrat near Paseo De Los Chopos","properties":{"access":"yes","bicycle_pa":"stands","capacity":8,"covered":"no","fee":"","operator":"","nameSource":"junction"},"sourceId":"osm"},{"id":"osm:node:12754645091","latitude":38.9909406,"longitude":-1.8664154,"name":"Calle Arquitecto Vandelvira near Plaza Pablo Picasso","properties":{"access":"yes","bicycle_pa":"stands","capacity":4,"covered":"no","fee":"","operator":"","nameSource":"junction"},"sourceId":"osm"},{"id":"osm:node:13326785060","latitude":39.0247478,"longitude":-1.8900172,"name":"Avenida Quinta near N-301","properties":{"access":"customers","bicycle_pa":"safe_loops","capacity":10,"covered":"yes","fee":"no","operator":"","nameSource":"junction"},"sourceId":"osm"},{"id":"osm:node:13355148928","latitude":38.995678,"longitude":-1.8651509,"name":"Calle Belén near Calle Joaquín Quijada","properties":{"access":"unknown","bicycle_pa":"wall_loops","capacity":4,"covered":"no","fee":"","operator":"","nameSource":"junction"},"sourceId":"osm"},{"id":"osm:node:13361077684","latitude":38.9902798,"longitude":-1.8558726,"name":"Calle Teodoro Camino near Calle San José de Calasanz","properties":{"access":"yes","bicycle_pa":"stands","capacity":6,"covered":"no","fee":"no","operator":"","nameSource":"junction"},"sourceId":"osm"},{"id":"osm:node:13363576431","latitude":38.9917469,"longitude":-1.8549338,"name":"Calle Teodoro Camino near Calle Dionisio Guardiola","properties":{"access":"unknown","bicycle_pa":"stands","capacity":10,"covered":"no","fee":"","operator":"","nameSource":"junction"},"sourceId":"osm"},{"id":"osm:node:13366958033","latitude":38.983254,"longitude":-1.8582342,"name":"Calle Antonio Gotor near Calle Hellín","properties":{"access":"unknown","bicycle_pa":"","capacity":0,"covered":"","fee":"","operator":"","nameSource":"junction"},"sourceId":"osm"},{"id":"osm:node:13371458084","latitude":38.9957154,"longitude":-1.8665351,"name":"Calle Llanos Moreno near Calle Velarde","properties":{"access":"yes","bicycle_pa":"stands","capacity":6,"covered":"no","fee":"no","operator":"","nameSource":"junction"},"sourceId":"osm"},{"id":"osm:node:13373500605","latitude":38.991271,"longitude":-1.8609523,"name":"Calle Pérez Galdós near Calle Torres Quevedo","properties":{"access":"yes","bicycle_pa":"wall_loops","capacity":2,"covered":"no","fee":"no","operator":"","nameSource":"junction"},"sourceId":"osm"},{"id":"osm:node:13373500612","latitude":38.9923341,"longitude":-1.8630489,"name":"Calle Pérez Galdós near Calle Doctor Fleming","properties":{"access":"yes","bicycle_pa":"wall_loops","capacity":2,"covered":"no","fee":"no","operator":"","nameSource":"junction"},"sourceId":"osm"},{"id":"osm:node:13373650499","latitude":38.9982765,"longitude":-1.876476,"name":"Avenida de los Toreros near Calle Córdoba","properties":{"access":"unknown","bicycle_pa":"stands","capacity":8,"covered":"no","fee":"","operator":"","nameSource":"junction"},"sourceId":"osm"},{"id":"osm:node:13383180434","latitude":38.9905356,"longitude":-1.8622756,"name":"Calle Antonio Machado near Calle Torres Quevedo","properties":{"access":"unknown","bicycle_pa":"safe_loops","capacity":3,"covered":"no","fee":"","operator":"","nameSource":"junction"},"sourceId":"osm"},{"id":"osm:node:13386363446","latitude":38.9927792,"longitude":-1.8507687,"name":"Calle Herreros near Calle Nicolás Belmonte","properties":{"access":"unknown","bicycle_pa":"safe_loops","capacity":4,"covered":"no","fee":"","operator":"","nameSource":"junction"},"sourceId":"osm"},{"id":"osm:node:13390435259","latitude":38.9857514,"longitude":-1.8531723,"name":"Calle Cristóbal Lozano near Calle Ángel","properties":{"access":"unknown","bicycle_pa":"safe_loops","capacity":2,"covered":"no","fee":"","operator":"","nameSource":"junction"},"sourceId":"osm"},{"id":"osm:node:13390435260","latitude":38.985822,"longitude":-1.8531924,"name":"Calle Ángel near Calle Cristóbal Lozano","properties":{"access":"unknown","bicycle_pa":"safe_loops","capacity":2,"covered":"no","fee":"","operator":"","nameSource":"junction"},"sourceId":"osm"},{"id":"osm:node:13390696401","latitude":38.985203,"longitude":-1.8540827,"name":"Avenida de España near Calle Muñoz Seca","properties":{"access":"unknown","bicycle_pa":"stands","capacity":20,"covered":"no","fee":"","operator":"","nameSource":"junction"},"sourceId":"osm"},{"id":"osm:node:13397514910","latitude":38.9927485,"longitude":-1.8518286,"name":"Plaza Carretas near Calle Concepción","properties":{"access":"yes","bicycle_pa":"stands","capacity":6,"covered":"no","fee":"no","operator":"","nameSource":"junction"},"sourceId":"osm"},{"id":"osm:node:13397514918","latitude":39.0000758,"longitude":-1.8489647,"name":"Calle Vicente Aleixandre cycle parking","properties":{"access":"yes","bicycle_pa":"stands","capacity":10,"covered":"yes","fee":"no","operator":"","nameSource":"street"},"sourceId":"osm"},{"id":"osm:node:13397514919","latitude":39.0002763,"longitude":-1.8491641,"name":"Calle Vicente Aleixandre cycle parking","properties":{"access":"yes","bicycle_pa":"stands","capacity":10,"covered":"yes","fee":"no","operator":"","nameSource":"street"},"sourceId":"osm"},{"id":"osm:node:13397514920","latitude":39.0002281,"longitude":-1.8491091,"name":"Calle Vicente Aleixandre cycle parking","properties":{"access":"yes","bicycle_pa":"shed","capacity":0,"covered":"yes","fee":"yes","operator":"","nameSource":"street"},"sourceId":"osm"},{"id":"osm:node:13404083382","latitude":38.9969052,"longitude":-1.8540512,"name":"Calle Ricardo Castro near Calle San Antonio","properties":{"access":"unknown","bicycle_pa":"stands","capacity":2,"covered":"no","fee":"","operator":"","nameSource":"junction"},"sourceId":"osm"},{"id":"osm:node:13408451696","latitude":38.986051,"longitude":-1.8539437,"name":"Avenida de España near Calle Ángel","properties":{"access":"unknown","bicycle_pa":"stands","capacity":6,"covered":"no","fee":"","operator":"","nameSource":"junction"},"sourceId":"osm"},{"id":"osm:node:13410461928","latitude":38.994864,"longitude":-1.857866,"name":"Calle Albarderos near Calle Méndez Núñez","properties":{"access":"unknown","bicycle_pa":"stands","capacity":4,"covered":"no","fee":"","operator":"","nameSource":"junction"},"sourceId":"osm"},{"id":"osm:node:13410461929","latitude":38.994815,"longitude":-1.8579161,"name":"Calle Albarderos near Calle Méndez Núñez","properties":{"access":"unknown","bicycle_pa":"stands","capacity":10,"covered":"no","fee":"","operator":"","nameSource":"junction"},"sourceId":"osm"},{"id":"osm:node:13413173212","latitude":38.9914713,"longitude":-1.8558625,"name":"Calle Dionisio Guardiola near Calle Tesifonte Gallego","properties":{"access":"unknown","bicycle_pa":"stands","capacity":10,"covered":"no","fee":"","operator":"","nameSource":"junction"},"sourceId":"osm"},{"id":"osm:node:13413173213","latitude":38.9913114,"longitude":-1.8553724,"name":"Calle Dionisio Guardiola near Calle Teodoro Camino","properties":{"access":"unknown","bicycle_pa":"stands","capacity":10,"covered":"no","fee":"","operator":"","nameSource":"junction"},"sourceId":"osm"},{"id":"osm:node:13413173229","latitude":38.9917486,"longitude":-1.8571453,"name":"Calle Marqués de Villores near Calle Dionisio Guardiola","properties":{"access":"unknown","bicycle_pa":"stands","capacity":10,"covered":"no","fee":"","operator":"","nameSource":"junction"},"sourceId":"osm"},{"id":"osm:node:13417886318","latitude":38.9877524,"longitude":-1.8586638,"name":"Paseo Pedro Simón Abril near Calle María Marín","properties":{"access":"yes","bicycle_pa":"stands","capacity":6,"covered":"no","fee":"no","operator":"","nameSource":"junction"},"sourceId":"osm"},{"id":"osm:node:13417886328","latitude":38.9864858,"longitude":-1.8592761,"name":"Paseo Pedro Simón Abril near Calle Arquitecto Vandelvira","properties":{"access":"yes","bicycle_pa":"stands","capacity":6,"covered":"no","fee":"no","operator":"","nameSource":"junction"},"sourceId":"osm"},{"id":"osm:node:13417886395","latitude":38.9900239,"longitude":-1.8681879,"name":"Paseo Circunvalación near Calle Diego de Almagro","properties":{"access":"unknown","bicycle_pa":"safe_loops","capacity":4,"covered":"no","fee":"","operator":"","nameSource":"junction"},"sourceId":"osm"},{"id":"osm:node:13417886403","latitude":38.9917091,"longitude":-1.8689619,"name":"Calle San Fulgencio near Paseo Circunvalación","properties":{"access":"unknown","bicycle_pa":"safe_loops","capacity":4,"covered":"no","fee":"","operator":"","nameSource":"junction"},"sourceId":"osm"},{"id":"osm:node:13417886415","latitude":38.9941653,"longitude":-1.8709523,"name":"Calle Doctor Ferrán near Paseo Circunvalación","properties":{"access":"unknown","bicycle_pa":"stands","capacity":6,"covered":"no","fee":"","operator":"","nameSource":"junction"},"sourceId":"osm"},{"id":"osm:node:13423608634","latitude":38.9962496,"longitude":-1.867635,"name":"Calle Hermanos Jiménez near Avenida Arquitecto Julio Carrilero","properties":{"access":"yes","bicycle_pa":"stands","capacity":4,"covered":"no","fee":"no","operator":"","nameSource":"junction"},"sourceId":"osm"},{"id":"osm:node:13428325314","latitude":39.0031007,"longitude":-1.855813,"name":"Calle Nuestra Señora de Cubas by Monopatín","properties":{"access":"yes","bicycle_pa":"stands","capacity":6,"covered":"no","fee":"no","operator":"","nameSource":"landmark"},"sourceId":"osm"},{"id":"osm:node:13428325324","latitude":38.9992304,"longitude":-1.8489217,"name":"Avenida de la Estación near Calle Vicente Aleixandre","properties":{"access":"yes","bicycle_pa":"stands","capacity":6,"covered":"no","fee":"no","operator":"","nameSource":"junction"},"sourceId":"osm"},{"id":"osm:node:13428443230","latitude":38.9989624,"longitude":-1.8538818,"name":"Paseo de la Cuba near Calle Mariana Pineda","properties":{"access":"unknown","bicycle_pa":"safe_loops","capacity":4,"covered":"no","fee":"","operator":"","nameSource":"junction"},"sourceId":"osm"},{"id":"osm:node:13428443241","latitude":39.001124,"longitude":-1.8521026,"name":"Calle Doctor Alonso Vidal near Calle Palencia","properties":{"access":"unknown","bicycle_pa":"safe_loops","capacity":4,"covered":"no","fee":"","operator":"","nameSource":"junction"},"sourceId":"osm"},{"id":"osm:node:13428453688","latitude":39.0004726,"longitude":-1.8525843,"name":"Calle Valladolid near Calle Toledo","properties":{"access":"unknown","bicycle_pa":"","capacity":0,"covered":"","fee":"","operator":"","nameSource":"junction"},"sourceId":"osm"},{"id":"osm:node:13430213706","latitude":38.9947052,"longitude":-1.8559936,"name":"Plaza la Constitución near Calle del Rosario","properties":{"access":"yes","bicycle_pa":"stands","capacity":4,"covered":"no","fee":"no","operator":"","nameSource":"junction"},"sourceId":"osm"},{"id":"osm:node:13430213727","latitude":38.9968596,"longitude":-1.8549738,"name":"Calle Pablo Medina near Calle Carcelén","properties":{"access":"yes","bicycle_pa":"safe_loops","capacity":6,"covered":"no","fee":"no","operator":"","nameSource":"junction"},"sourceId":"osm"},{"id":"osm:node:13430213737","latitude":38.9977743,"longitude":-1.8551554,"name":"Calle Iris near Calle Carmen","properties":{"access":"yes","bicycle_pa":"safe_loops","capacity":5,"covered":"no","fee":"no","operator":"","nameSource":"junction"},"sourceId":"osm"},{"id":"osm:node:13430213766","latitude":38.9959653,"longitude":-1.8610871,"name":"Calle Doctor Ferrán near Calle Feria","properties":{"access":"unknown","bicycle_pa":"safe_loops","capacity":3,"covered":"no","fee":"","operator":"","nameSource":"junction"},"sourceId":"osm"},{"id":"osm:node:13432378813","latitude":38.9996354,"longitude":-1.8553135,"name":"Avenida Ramón y Cajal near Calle Carmen","properties":{"access":"yes","bicycle_pa":"stands","capacity":6,"covered":"no","fee":"no","operator":"","nameSource":"junction"},"sourceId":"osm"},{"id":"osm:node:13434026674","latitude":38.993062,"longitude":-1.8568252,"name":"Calle del Tinte near Pasaje de la Posada","properties":{"access":"unknown","bicycle_pa":"stands","capacity":8,"covered":"no","fee":"","operator":"","nameSource":"junction"},"sourceId":"osm"},{"id":"osm:node:13434026675","latitude":38.9929884,"longitude":-1.856938,"name":"Pasaje de la Posada near Calle del Tinte","properties":{"access":"unknown","bicycle_pa":"safe_loops","capacity":6,"covered":"no","fee":"","operator":"","nameSource":"junction"},"sourceId":"osm"},{"id":"osm:node:13444978241","latitude":38.9932868,"longitude":-1.8612299,"name":"Calle Ríos Rosas near Calle Dionisio Guardiola","properties":{"access":"yes","bicycle_pa":"stands","capacity":3,"covered":"no","fee":"no","operator":"","nameSource":"junction"},"sourceId":"osm"},{"id":"osm:node:13447793247","latitude":38.9917439,"longitude":-1.8502952,"name":"Calle José Zorrilla near Calle el Cid","properties":{"access":"unknown","bicycle_pa":"safe_loops","capacity":3,"covered":"no","fee":"","operator":"","nameSource":"junction"},"sourceId":"osm"},{"id":"osm:node:13447876469","latitude":38.9936279,"longitude":-1.8608014,"name":"Calle Ríos Rosas near Calle Dionisio Guardiola","properties":{"access":"yes","bicycle_pa":"stands","capacity":4,"covered":"no","fee":"no","operator":"","nameSource":"junction"},"sourceId":"osm"},{"id":"osm:node:13463879866","latitude":38.9918724,"longitude":-1.8590383,"name":"Calle Blasco de Garay near Calle Octavio Cuartero","properties":{"access":"unknown","bicycle_pa":"stands","capacity":8,"covered":"no","fee":"","operator":"","nameSource":"junction"},"sourceId":"osm"},{"id":"osm:node:13463881806","latitude":38.9919812,"longitude":-1.8604891,"name":"Calle Octavio Cuartero near Calle Torres Quevedo","properties":{"access":"unknown","bicycle_pa":"safe_loops","capacity":3,"covered":"no","fee":"","operator":"","nameSource":"junction"},"sourceId":"osm"},{"id":"osm:node:13471341127","latitude":38.9911761,"longitude":-1.8566029,"name":"Calle Tesifonte Gallego near Plaza de Gabriel Lodares","properties":{"access":"yes","bicycle_pa":"wall_loops","capacity":10,"covered":"no","fee":"no","operator":"","nameSource":"junction"},"sourceId":"osm"},{"id":"osm:node:13503840981","latitude":38.9859706,"longitude":-1.8633117,"name":"Calle Bernabé Cantos near Calle Lepanto","properties":{"access":"unknown","bicycle_pa":"stands","capacity":6,"covered":"no","fee":"","operator":"","nameSource":"junction"},"sourceId":"osm"},{"id":"osm:node:13511831444","latitude":38.9897611,"longitude":-1.8577366,"name":"Calle Marqués de Villores near Calle Pérez Galdós","properties":{"access":"unknown","bicycle_pa":"safe_loops","capacity":2,"covered":"no","fee":"","operator":"","nameSource":"junction"},"sourceId":"osm"},{"id":"osm:node:13511831452","latitude":38.9955496,"longitude":-1.8673659,"name":"Calle Hermanos Jiménez near Calle Velarde","properties":{"access":"unknown","bicycle_pa":"stands","capacity":2,"covered":"no","fee":"","operator":"","nameSource":"junction"},"sourceId":"osm"},{"id":"osm:node:13521486736","latitude":38.9862079,"longitude":-1.8554159,"name":"Calle Arcángel San Gabriel near Paseo Oliva Sabuco de Nantes","properties":{"access":"yes","bicycle_pa":"stands","capacity":8,"covered":"no","fee":"no","operator":"","nameSource":"junction"},"sourceId":"osm"},{"id":"osm:node:13521486741","latitude":38.9854818,"longitude":-1.8584417,"name":"Calle Arcángel San Gabriel near Calle Doctor García Reyes","properties":{"access":"yes","bicycle_pa":"stands","capacity":8,"covered":"no","fee":"no","operator":"","nameSource":"junction"},"sourceId":"osm"},{"id":"osm:node:13531670519","latitude":38.9926561,"longitude":-1.8669871,"name":"Calle Arcipreste Gálvez near Calle Hermanos Jiménez","properties":{"access":"yes","bicycle_pa":"stands","capacity":6,"covered":"no","fee":"no","operator":"","nameSource":"junction"},"sourceId":"osm"},{"id":"osm:node:13531670520","latitude":38.99288,"longitude":-1.8666494,"name":"Calle San Luis near Calle Hermanos Jiménez","properties":{"access":"yes","bicycle_pa":"stands","capacity":6,"covered":"no","fee":"no","operator":"","nameSource":"junction"},"sourceId":"osm"},{"id":"osm:node:13531670521","latitude":38.9937782,"longitude":-1.8671106,"name":"Calle Hermanos Jiménez near Calle Blasco Ibáñez","properties":{"access":"yes","bicycle_pa":"stands","capacity":6,"covered":"no","fee":"no","operator":"","nameSource":"junction"},"sourceId":"osm"},{"id":"osm:node:13595349124","latitude":38.9873095,"longitude":-1.8604858,"name":"Calle Doctor Bonilla near Calle Arquitecto Vandelvira","properties":{"access":"unknown","bicycle_pa":"stands","capacity":6,"covered":"no","fee":"","operator":"","nameSource":"junction"},"sourceId":"osm"},{"id":"osm:node:13607423873","latitude":38.9865053,"longitude":-1.8482023,"name":"Calle Hermanos Falcó near Calle Ángel","properties":{"access":"unknown","bicycle_pa":"stands","capacity":6,"covered":"no","fee":"","operator":"","nameSource":"junction"},"sourceId":"osm"},{"id":"osm:node:13609314646","latitude":39.008017,"longitude":-1.8711699,"name":"Avenida Gregorio Arcos near Calle Jesús del Gran Poder","properties":{"access":"unknown","bicycle_pa":"stands","capacity":6,"covered":"no","fee":"","operator":"","nameSource":"junction"},"sourceId":"osm"},{"id":"osm:node:13627003192","latitude":39.0003156,"longitude":-1.8631975,"name":"Calle Gracia near Calle Santiago","properties":{"access":"unknown","bicycle_pa":"safe_loops","capacity":4,"covered":"no","fee":"","operator":"","nameSource":"junction"},"sourceId":"osm"},{"id":"osm:node:13645157955","latitude":38.9935362,"longitude":-1.8671427,"name":"Calle Luis Herreros near Calle Blasco Ibáñez","properties":{"access":"unknown","bicycle_pa":"stands","capacity":4,"covered":"no","fee":"","operator":"","nameSource":"junction"},"sourceId":"osm"},{"id":"osm:node:13649480306","latitude":38.9864798,"longitude":-1.8533582,"name":"Calle Nuestra Señora de la Paz near Calle Cristóbal Lozano","properties":{"access":"unknown","bicycle_pa":"stands","capacity":6,"covered":"no","fee":"","operator":"","nameSource":"junction"},"sourceId":"osm"},{"id":"osm:node:13737197830","latitude":38.9846241,"longitude":-1.8661231,"name":"Avenida Primero de Mayo near Calle Padre Coll","properties":{"access":"unknown","bicycle_pa":"","capacity":0,"covered":"","fee":"","operator":"","nameSource":"junction"},"sourceId":"osm"},{"id":"osm:node:13737197835","latitude":38.9870724,"longitude":-1.8667723,"name":"Calle Méjico near Paseo Circunvalación","properties":{"access":"unknown","bicycle_pa":"building","capacity":0,"covered":"","fee":"","operator":"","nameSource":"junction"},"sourceId":"osm"},{"id":"osm:node:13745143653","latitude":38.9969002,"longitude":-1.8557433,"name":"Calle Carmen near Calle Pablo Medina","properties":{"access":"unknown","bicycle_pa":"stands","capacity":6,"covered":"","fee":"","operator":"","nameSource":"junction"},"sourceId":"osm"},{"id":"osm:node:13793297642","latitude":38.9670019,"longitude":-1.8526781,"name":"Camino de la Ciudad Deportiva by Ciudad Deportiva Andrés Iniesta","properties":{"access":"customers","bicycle_pa":"wall_loops","capacity":0,"covered":"no","fee":"no","operator":"","nameSource":"landmark"},"sourceId":"osm"},{"id":"osm:node:13818696025","latitude":38.9887198,"longitude":-1.8766616,"name":"Calle Óscar Romero near Calle Alcaraz","properties":{"access":"unknown","bicycle_pa":"","capacity":0,"covered":"","fee":"","operator":"","nameSource":"junction"},"sourceId":"osm"},{"id":"osm:node:13882109386","latitude":38.9857078,"longitude":-1.8676316,"name":"Avenida Primero de Mayo near Calle Base Aérea","properties":{"access":"unknown","bicycle_pa":"stands","capacity":6,"covered":"no","fee":"","operator":"","nameSource":"junction"},"sourceId":"osm"},{"id":"osm:node:13900850571","latitude":38.9919803,"longitude":-1.8573571,"name":"Calle Dionisio Guardiola near Calle Marqués de Villores","properties":{"access":"unknown","bicycle_pa":"safe_loops","capacity":2,"covered":"no","fee":"","operator":"","nameSource":"junction"},"sourceId":"osm"},{"id":"osm:node:13909379572","latitude":38.9819716,"longitude":-1.8556528,"name":"Calle Imperial near Calle San Juan","properties":{"access":"unknown","bicycle_pa":"","capacity":0,"covered":"","fee":"","operator":"","nameSource":"junction"},"sourceId":"osm"},{"id":"osm:node:13925751733","latitude":38.9766332,"longitude":-1.8479329,"name":"Avenida de la Mancha near Calle Maratón","properties":{"access":"unknown","bicycle_pa":"stands","capacity":6,"covered":"no","fee":"","operator":"","nameSource":"junction"},"sourceId":"osm"},{"id":"osm:node:13925819237","latitude":38.9867311,"longitude":-1.8599137,"name":"Calle Arquitecto Vandelvira near Calle Marqués de Villores","properties":{"access":"unknown","bicycle_pa":"stands","capacity":4,"covered":"no","fee":"","operator":"","nameSource":"junction"},"sourceId":"osm"},{"id":"osm:node:14011375109","latitude":38.9870844,"longitude":-1.8700334,"name":"Aparcabicis de rueda","properties":{"access":"yes","bicycle_pa":"wall_loops","capacity":3,"covered":"no","fee":"no","operator":"Ayuntamiento de Albacete","nameSource":"source"},"sourceId":"osm"},{"id":"osm:node:14011375110","latitude":38.9868514,"longitude":-1.8697488,"name":"Aparcabicis de cuadro","properties":{"access":"yes","bicycle_pa":"stands","capacity":6,"covered":"no","fee":"no","operator":"Ayuntamiento de Albacete","nameSource":"source"},"sourceId":"osm"},{"id":"osm:node:14018277431","latitude":38.9869397,"longitude":-1.8514571,"name":"Calle del Amparo near Calle Tobarra","properties":{"access":"unknown","bicycle_pa":"","capacity":0,"covered":"","fee":"","operator":"","nameSource":"junction"},"sourceId":"osm"},{"id":"osm:node:1540026456","latitude":38.9651668,"longitude":-1.8662804,"name":"Aula de Educación Ambiental cycle parking","properties":{"access":"unknown","bicycle_pa":"wall_loops","capacity":6,"covered":"no","fee":"","operator":"","nameSource":"landmark"},"sourceId":"osm"},{"id":"osm:node:1557289214","latitude":38.9985899,"longitude":-1.8477201,"name":"Plaza Estación de Autobuses by Domino's","properties":{"access":"unknown","bicycle_pa":"privee","capacity":2,"covered":"no","fee":"","operator":"Ayuntamiento","nameSource":"landmark"},"sourceId":"osm"},{"id":"osm:node:2780016810","latitude":39.0007875,"longitude":-1.8755311,"name":"Paseo De Los Chopos near Calle Lérida","properties":{"access":"unknown","bicycle_pa":"privee","capacity":5,"covered":"no","fee":"","operator":"Ayuntamiento","nameSource":"junction"},"sourceId":"osm"},{"id":"osm:node:2812966268","latitude":39.0010036,"longitude":-1.8545359,"name":"Calle Guadalajara near Travesía Palencia Guadalajara","properties":{"access":"unknown","bicycle_pa":"privee","capacity":6,"covered":"no","fee":"","operator":"Ayuntamiento","nameSource":"junction"},"sourceId":"osm"},{"id":"osm:node:2820096506","latitude":39.0043733,"longitude":-1.8646025,"name":"Avenida Cronista Mateos y Sotos cycle parking","properties":{"access":"unknown","bicycle_pa":"privee","capacity":5,"covered":"","fee":"","operator":"Ayuntamiento","nameSource":"street"},"sourceId":"osm"},{"id":"osm:node:2837977726","latitude":38.9984805,"longitude":-1.8737186,"name":"Paseo De Los Chopos near Calle Nuestra Señora de Monserrat","properties":{"access":"unknown","bicycle_pa":"privee","capacity":5,"covered":"no","fee":"","operator":"Ayuntamiento","nameSource":"junction"},"sourceId":"osm"},{"id":"osm:node:2875927581","latitude":39.006245,"longitude":-1.8663998,"name":"Calle Bir Ganduz near Calle Bruselas","properties":{"access":"unknown","bicycle_pa":"informal","capacity":5,"covered":"no","fee":"","operator":"Ayuntamiento","nameSource":"junction"},"sourceId":"osm"},{"id":"osm:node:2880052292","latitude":38.9789794,"longitude":-1.8560236,"name":"Paseo de los Estudiantes near Calle Cronista Francisco Ballesteros Gómez","properties":{"access":"unknown","bicycle_pa":"privee","capacity":20,"covered":"no","fee":"","operator":"Ayuntamiento","nameSource":"junction"},"sourceId":"osm"},{"id":"osm:node:2881913183","latitude":38.9973539,"longitude":-1.8523976,"name":"Paseo de la Cuba (Fuente las Ranas)","properties":{"access":"yes","bicycle_pa":"privee","capacity":12,"covered":"no","fee":"yes","operator":"Ayuntamiento Albacete","nameSource":"source"},"sourceId":"osm"},{"id":"osm:node:2883609204","latitude":38.9922474,"longitude":-1.8517532,"name":"Plaza Carretas","properties":{"access":"yes","bicycle_pa":"privee","capacity":12,"covered":"no","fee":"yes","operator":"Ayuntamiento Albacete","nameSource":"source"},"sourceId":"osm"},{"id":"osm:node:2883609205","latitude":38.9964245,"longitude":-1.86038,"name":"Calle Baños nº25","properties":{"access":"yes","bicycle_pa":"privee","capacity":12,"covered":"no","fee":"yes","operator":"Ayuntamiento Albacete","nameSource":"source"},"sourceId":"osm"},{"id":"osm:node:2886801825","latitude":39.007988,"longitude":-1.8734528,"name":"Calle Municipio de Molinicos near Calle María de Zayas","properties":{"access":"unknown","bicycle_pa":"informal","capacity":5,"covered":"no","fee":"","operator":"Ayuntamiento","nameSource":"junction"},"sourceId":"osm"},{"id":"osm:node:2886801826","latitude":39.0084797,"longitude":-1.8770685,"name":"Calle Saturnino Calleja by Exencia","properties":{"access":"unknown","bicycle_pa":"informal","capacity":5,"covered":"no","fee":"","operator":"Ayuntamiento","nameSource":"landmark"},"sourceId":"osm"},{"id":"osm:node:2886815575","latitude":38.9997081,"longitude":-1.8738399,"name":"Calle Lérida near Calle Jaca","properties":{"access":"unknown","bicycle_pa":"privee","capacity":5,"covered":"no","fee":"","operator":"Ayuntamiento","nameSource":"junction"},"sourceId":"osm"},{"id":"osm:node:2886815576","latitude":39.001159,"longitude":-1.8677621,"name":"Calle Camino de la Virgen near Calle Vitoria","properties":{"access":"unknown","bicycle_pa":"privee","capacity":5,"covered":"no","fee":"","operator":"Ayuntamiento","nameSource":"junction"},"sourceId":"osm"},{"id":"osm:node:2886815577","latitude":39.0059663,"longitude":-1.8657664,"name":"Calle Bir Ganduz near Calle Roma","properties":{"access":"unknown","bicycle_pa":"privee","capacity":5,"covered":"","fee":"","operator":"Ayuntamiento","nameSource":"junction"},"sourceId":"osm"},{"id":"osm:node:2886815578","latitude":39.0030401,"longitude":-1.866952,"name":"Calle Virgen del Pilar near Calle Dos de Mayo","properties":{"access":"unknown","bicycle_pa":"informal","capacity":5,"covered":"no","fee":"","operator":"Ayuntamiento","nameSource":"junction"},"sourceId":"osm"},{"id":"osm:node:2886815579","latitude":39.0081623,"longitude":-1.8681971,"name":"Avenida de la Mancha near Calle París","properties":{"access":"unknown","bicycle_pa":"informal","capacity":5,"covered":"yes","fee":"","operator":"Ayuntamiento","nameSource":"junction"},"sourceId":"osm"},{"id":"osm:node:2886815580","latitude":39.0006992,"longitude":-1.8679358,"name":"Calle Bilbao near Calle Camino de la Virgen","properties":{"access":"unknown","bicycle_pa":"informal","capacity":5,"covered":"","fee":"","operator":"Ayuntamiento","nameSource":"junction"},"sourceId":"osm"},{"id":"osm:node:2886815581","latitude":39.0069334,"longitude":-1.8790533,"name":"Calle Saturnino Calleja near Avenida Emilia Pardo Bazán","properties":{"access":"unknown","bicycle_pa":"informal","capacity":5,"covered":"no","fee":"","operator":"Ayuntamiento","nameSource":"junction"},"sourceId":"osm"},{"id":"osm:node:2886830431","latitude":39.003236,"longitude":-1.8626067,"name":"Calle Obispo Tagaste near Calle Gabriel Ciscar","properties":{"access":"unknown","bicycle_pa":"informal","capacity":5,"covered":"no","fee":"","operator":"Ayuntamiento","nameSource":"junction"},"sourceId":"osm"},{"id":"osm:node:2886830432","latitude":39.0049567,"longitude":-1.8623363,"name":"Avenida del Teatro near Avenida Cronista Mateos y Sotos","properties":{"access":"unknown","bicycle_pa":"informal","capacity":5,"covered":"no","fee":"","operator":"Ayuntamiento","nameSource":"junction"},"sourceId":"osm"},{"id":"osm:node:2886830433","latitude":39.0059633,"longitude":-1.860786,"name":"Pasaje de la Meteorología cycle parking","properties":{"access":"unknown","bicycle_pa":"informal","capacity":5,"covered":"","fee":"","operator":"Ayuntamiento","nameSource":"street"},"sourceId":"osm"},{"id":"osm:node:2886830434","latitude":39.0043761,"longitude":-1.8603375,"name":"Calle Juan de Toledo near Avenida Cronista Mateos y Sotos","properties":{"access":"unknown","bicycle_pa":"informal","capacity":5,"covered":"no","fee":"","operator":"Ayuntamiento","nameSource":"junction"},"sourceId":"osm"},{"id":"osm:node:2886842701","latitude":39.0030318,"longitude":-1.857945,"name":"Paseo de la Cuba cycle parking","properties":{"access":"unknown","bicycle_pa":"informal","capacity":5,"covered":"no","fee":"","operator":"Ayuntamiento","nameSource":"street"},"sourceId":"osm"},{"id":"osm:node:2886919002","latitude":39.0024169,"longitude":-1.8588221,"name":"Calle Ignacio Monturiol by Espacio Extra","properties":{"access":"unknown","bicycle_pa":"informal","capacity":5,"covered":"","fee":"","operator":"Ayuntamiento","nameSource":"landmark"},"sourceId":"osm"},{"id":"osm:node:2886919003","latitude":39.0017228,"longitude":-1.8581408,"name":"Calle Miguel López de Legazpi near Calle Ignacio Monturiol","properties":{"access":"unknown","bicycle_pa":"informal","capacity":5,"covered":"","fee":"","operator":"Ayuntamiento","nameSource":"junction"},"sourceId":"osm"},{"id":"osm:node:2886957303","latitude":38.9968253,"longitude":-1.8582336,"name":"Plaza del Periodista Antonio Andújar near Calle Zapateros","properties":{"access":"unknown","bicycle_pa":"informal","capacity":5,"covered":"no","fee":"","operator":"Ayuntamiento","nameSource":"junction"},"sourceId":"osm"},{"id":"osm:node:2886957304","latitude":38.9964187,"longitude":-1.8586382,"name":"Plaza del Periodista Antonio Andújar near Calle del Virrey Morcillo","properties":{"access":"unknown","bicycle_pa":"informal","capacity":5,"covered":"no","fee":"","operator":"Ayuntamiento","nameSource":"junction"},"sourceId":"osm"},{"id":"osm:node:2886957305","latitude":38.9967585,"longitude":-1.8582218,"name":"Plaza del Periodista Antonio Andújar near Calle Zapateros","properties":{"access":"unknown","bicycle_pa":"informal","capacity":5,"covered":"no","fee":"","operator":"Ayuntamiento","nameSource":"junction"},"sourceId":"osm"},{"id":"osm:node:2886957306","latitude":38.9963614,"longitude":-1.8571484,"name":"Calle Monjas near Calle Padre Romano","properties":{"access":"unknown","bicycle_pa":"informal","capacity":5,"covered":"no","fee":"","operator":"Ayuntamiento","nameSource":"junction"},"sourceId":"osm"},{"id":"osm:node:2886957309","latitude":38.9997174,"longitude":-1.8627488,"name":"Avenida Arquitecto Julio Carrilero near Calle García Mas","properties":{"access":"unknown","bicycle_pa":"informal","capacity":5,"covered":"","fee":"","operator":"Ayuntamiento","nameSource":"junction"},"sourceId":"osm"},{"id":"osm:node:2886957310","latitude":39.0005866,"longitude":-1.8577224,"name":"Calle Arquitecto Fernández near Avenida de la Guardia Civil","properties":{"access":"unknown","bicycle_pa":"informal","capacity":5,"covered":"no","fee":"","operator":"Ayuntamiento","nameSource":"junction"},"sourceId":"osm"},{"id":"osm:node:2887099219","latitude":38.9976371,"longitude":-1.8547987,"name":"Calle Iris by Carrefour Market","properties":{"access":"unknown","bicycle_pa":"informal","capacity":5,"covered":"no","fee":"","operator":"Ayuntamiento","nameSource":"landmark"},"sourceId":"osm"},{"id":"osm:node:2887099220","latitude":38.9979025,"longitude":-1.8561167,"name":"Calle Iris near Calle Carmen","properties":{"access":"unknown","bicycle_pa":"informal","capacity":5,"covered":"no","fee":"","operator":"Ayuntamiento","nameSource":"junction"},"sourceId":"osm"},{"id":"osm:node:2887099221","latitude":38.99741,"longitude":-1.8556489,"name":"Calle Carmen near Calle Pablo Medina","properties":{"access":"unknown","bicycle_pa":"informal","capacity":5,"covered":"no","fee":"","operator":"Ayuntamiento","nameSource":"junction"},"sourceId":"osm"},{"id":"osm:node:2887099223","latitude":38.9971013,"longitude":-1.8563866,"name":"Calle Pablo Medina near Calle Carmen","properties":{"access":"unknown","bicycle_pa":"informal","capacity":5,"covered":"no","fee":"","operator":"Ayuntamiento","nameSource":"junction"},"sourceId":"osm"},{"id":"osm:node:2892963794","latitude":38.9830103,"longitude":-1.8541952,"name":"Calle Hellín near Calle Ejército","properties":{"access":"unknown","bicycle_pa":"stands","capacity":12,"covered":"no","fee":"","operator":"","nameSource":"junction"},"sourceId":"osm"},{"id":"osm:node:2893917233","latitude":38.9916203,"longitude":-1.8789536,"name":"Calle Badajoz near Calle Linares","properties":{"access":"unknown","bicycle_pa":"privee","capacity":5,"covered":"no","fee":"","operator":"Ayuntamiento","nameSource":"junction"},"sourceId":"osm"},{"id":"osm:node:2893948781","latitude":38.9847237,"longitude":-1.8693647,"name":"Calle Méjico near Travesía Ecuador","properties":{"access":"unknown","bicycle_pa":"privee","capacity":5,"covered":"no","fee":"","operator":"Ayuntamiento","nameSource":"junction"},"sourceId":"osm"},{"id":"osm:node:2893948782","latitude":38.9884515,"longitude":-1.8697831,"name":"Calle la Paz by Instituto de Educación Secundaria Nº 13 Leonardo da Vinci","properties":{"access":"unknown","bicycle_pa":"privee","capacity":5,"covered":"no","fee":"","operator":"Ayuntamiento","nameSource":"landmark"},"sourceId":"osm"},{"id":"osm:node:2893948783","latitude":38.9869701,"longitude":-1.8675176,"name":"Calle Méjico near Calle Profesor Macedonio Jiménez","properties":{"access":"unknown","bicycle_pa":"privee","capacity":5,"covered":"no","fee":"","operator":"Ayuntamiento","nameSource":"junction"},"sourceId":"osm"},{"id":"osm:node:2893948784","latitude":38.9833707,"longitude":-1.8629864,"name":"Calle Arado near Calle Arboleda","properties":{"access":"unknown","bicycle_pa":"privee","capacity":5,"covered":"","fee":"","operator":"Ayuntamiento","nameSource":"junction"},"sourceId":"osm"},{"id":"osm:node:2893948785","latitude":38.9891062,"longitude":-1.8713683,"name":"Calle Camino de Morata by C.E.I.P. Castilla-La Mancha","properties":{"access":"unknown","bicycle_pa":"privee","capacity":5,"covered":"no","fee":"","operator":"Ayuntamiento","nameSource":"landmark"},"sourceId":"osm"},{"id":"osm:node:2893948786","latitude":38.9903944,"longitude":-1.8723714,"name":"Calle Los Cursillistas near Calle Seminario","properties":{"access":"unknown","bicycle_pa":"privee","capacity":5,"covered":"no","fee":"","operator":"Ayuntamiento","nameSource":"junction"},"sourceId":"osm"},{"id":"osm:node:2893948787","latitude":38.9889705,"longitude":-1.8695739,"name":"Calle la Paz near Calle Diego de Almagro","properties":{"access":"unknown","bicycle_pa":"privee","capacity":5,"covered":"no","fee":"","operator":"Ayuntamiento","nameSource":"junction"},"sourceId":"osm"},{"id":"osm:node:2893948788","latitude":38.9854889,"longitude":-1.8645582,"name":"Calle Blasco de Garay near Paseo Circunvalación","properties":{"access":"unknown","bicycle_pa":"privee","capacity":5,"covered":"no","fee":"","operator":"Ayuntamiento","nameSource":"junction"},"sourceId":"osm"},{"id":"osm:node:2893948789","latitude":38.9844694,"longitude":-1.869531,"name":"Calle Méjico near Calle Álamo","properties":{"access":"unknown","bicycle_pa":"privee","capacity":5,"covered":"no","fee":"","operator":"Ayuntamiento","nameSource":"junction"},"sourceId":"osm"},{"id":"osm:node:2893948791","latitude":38.9927064,"longitude":-1.8721032,"name":"Calle la Paz near Calle Joaquín Sánchez Jiménez","properties":{"access":"unknown","bicycle_pa":"privee","capacity":5,"covered":"yes","fee":"","operator":"Ayuntamiento","nameSource":"junction"},"sourceId":"osm"},{"id":"osm:node:2893948792","latitude":38.9934443,"longitude":-1.8735103,"name":"Carretera de Jaén near Calle Agustina Aroca","properties":{"access":"unknown","bicycle_pa":"privee","capacity":5,"covered":"no","fee":"","operator":"Ayuntamiento","nameSource":"junction"},"sourceId":"osm"},{"id":"osm:node:2893948793","latitude":38.9827619,"longitude":-1.8588075,"name":"Calle Alba near Calle Estrella","properties":{"access":"unknown","bicycle_pa":"privee","capacity":5,"covered":"no","fee":"","operator":"Ayuntamiento","nameSource":"junction"},"sourceId":"osm"},{"id":"osm:node:2893978180","latitude":38.9782706,"longitude":-1.8559384,"name":"Paseo de los Estudiantes near Calle Cronista Francisco Ballesteros Gómez","properties":{"access":"unknown","bicycle_pa":"privee","capacity":5,"covered":"no","fee":"","operator":"Ayuntamiento","nameSource":"junction"},"sourceId":"osm"},{"id":"osm:node:2893978181","latitude":38.9771864,"longitude":-1.8539473,"name":"Plaza de la Universidad by Edificio Simón Abril","properties":{"access":"unknown","bicycle_pa":"privee","capacity":5,"covered":"no","fee":"","operator":"Ayuntamiento","nameSource":"landmark"},"sourceId":"osm"},{"id":"osm:node:2893978182","latitude":38.9771447,"longitude":-1.8567288,"name":"Calle la Investigación cycle parking","properties":{"access":"unknown","bicycle_pa":"privee","capacity":5,"covered":"no","fee":"","operator":"Ayuntamiento","nameSource":"street"},"sourceId":"osm"},{"id":"osm:node:2893978183","latitude":38.9785772,"longitude":-1.8560126,"name":"Paseo de los Estudiantes near Calle Cronista Francisco Ballesteros Gómez","properties":{"access":"unknown","bicycle_pa":"privee","capacity":5,"covered":"no","fee":"","operator":"Ayuntamiento","nameSource":"junction"},"sourceId":"osm"},{"id":"osm:node:2893978184","latitude":38.9794592,"longitude":-1.8586707,"name":"Calle de Guillermina Medrano Aranda cycle parking","properties":{"access":"unknown","bicycle_pa":"privee","capacity":5,"covered":"yes","fee":"","operator":"Ayuntamiento","nameSource":"street"},"sourceId":"osm"},{"id":"osm:node:2893978185","latitude":38.9800408,"longitude":-1.8533465,"name":"Avenida de España cycle parking","properties":{"access":"unknown","bicycle_pa":"privee","capacity":5,"covered":"no","fee":"","operator":"Ayuntamiento","nameSource":"street"},"sourceId":"osm"},{"id":"osm:node:2893978186","latitude":38.978869,"longitude":-1.8542156,"name":"Calle Cronista Francisco Ballesteros Gómez near Calle Imperial","properties":{"access":"unknown","bicycle_pa":"privee","capacity":5,"covered":"no","fee":"","operator":"Ayuntamiento","nameSource":"junction"},"sourceId":"osm"},{"id":"osm:node:2893978187","latitude":38.9802557,"longitude":-1.8529737,"name":"Avenida de España cycle parking","properties":{"access":"unknown","bicycle_pa":"privee","capacity":10,"covered":"no","fee":"","operator":"Ayuntamiento","nameSource":"street"},"sourceId":"osm"},{"id":"osm:node:2893978188","latitude":38.9791506,"longitude":-1.8571499,"name":"Calle de Guillermina Medrano Aranda cycle parking","properties":{"access":"unknown","bicycle_pa":"privee","capacity":5,"covered":"","fee":"","operator":"Ayuntamiento","nameSource":"street"},"sourceId":"osm"},{"id":"osm:node:2893978189","latitude":38.9789963,"longitude":-1.8553689,"name":"Calle Cronista Francisco Ballesteros Gómez near Paseo de los Estudiantes","properties":{"access":"unknown","bicycle_pa":"privee","capacity":5,"covered":"no","fee":"","operator":"Ayuntamiento","nameSource":"junction"},"sourceId":"osm"},{"id":"osm:node:2893978190","latitude":38.9830236,"longitude":-1.8539536,"name":"Avenida de España near Calle Hellín","properties":{"access":"unknown","bicycle_pa":"privee","capacity":5,"covered":"no","fee":"","operator":"Ayuntamiento","nameSource":"junction"},"sourceId":"osm"},{"id":"osm:node:2893978192","latitude":38.9793633,"longitude":-1.8532258,"name":"Avenida de España near Avenida del Arte","properties":{"access":"unknown","bicycle_pa":"privee","capacity":5,"covered":"no","fee":"","operator":"Ayuntamiento","nameSource":"junction"},"sourceId":"osm"},{"id":"osm:node:2893978193","latitude":38.9814956,"longitude":-1.8563039,"name":"Calle Sancho Panza near Paseo de los Estudiantes","properties":{"access":"unknown","bicycle_pa":"privee","capacity":5,"covered":"no","fee":"","operator":"Ayuntamiento","nameSource":"junction"},"sourceId":"osm"},{"id":"osm:node:2893978194","latitude":38.9775346,"longitude":-1.857518,"name":"Paseo de la Innovación near Calle de Guillermina Medrano Aranda","properties":{"access":"unknown","bicycle_pa":"privee","capacity":5,"covered":"no","fee":"","operator":"Ayuntamiento","nameSource":"junction"},"sourceId":"osm"},{"id":"osm:node:2894077470","latitude":38.9840113,"longitude":-1.850075,"name":"Calle Tobarra near Calle Hellín","properties":{"access":"unknown","bicycle_pa":"privee","capacity":5,"covered":"no","fee":"","operator":"Ayuntamiento","nameSource":"junction"},"sourceId":"osm"},{"id":"osm:node:2894077471","latitude":38.9860418,"longitude":-1.8542161,"name":"Avenida de España near Calle Tetuán","properties":{"access":"unknown","bicycle_pa":"privee","capacity":5,"covered":"no","fee":"","operator":"Ayuntamiento","nameSource":"junction"},"sourceId":"osm"},{"id":"osm:node:2894077472","latitude":38.9870336,"longitude":-1.8541166,"name":"Plaza Benjamín Palencia near Avenida de España","properties":{"access":"unknown","bicycle_pa":"bollard","capacity":8,"covered":"no","fee":"","operator":"Ayuntamiento","nameSource":"junction"},"sourceId":"osm"},{"id":"osm:node:2894077474","latitude":38.992485,"longitude":-1.8473507,"name":"Calle Alcalde Conangla near Calle la Cruz","properties":{"access":"unknown","bicycle_pa":"privee","capacity":5,"covered":"no","fee":"","operator":"Ayuntamiento","nameSource":"junction"},"sourceId":"osm"},{"id":"osm:node:2894077475","latitude":38.9936578,"longitude":-1.8472746,"name":"Calle Ángeles Custodios near Calle Buen Pastor","properties":{"access":"unknown","bicycle_pa":"privee","capacity":5,"covered":"no","fee":"","operator":"Ayuntamiento","nameSource":"junction"},"sourceId":"osm"},{"id":"osm:node:2894077476","latitude":38.9893314,"longitude":-1.8496563,"name":"Calle Diego de Velázquez near Calle Puerta de Murcia","properties":{"access":"unknown","bicycle_pa":"privee","capacity":5,"covered":"yes","fee":"","operator":"Ayuntamiento","nameSource":"junction"},"sourceId":"osm"},{"id":"osm:node:2894077477","latitude":38.9887761,"longitude":-1.8494953,"name":"Calle Batalla del Salado near Calle Puerta de Murcia","properties":{"access":"yes","bicycle_pa":"privee","capacity":5,"covered":"no","fee":"","operator":"Ayuntamiento","nameSource":"junction"},"sourceId":"osm"},{"id":"osm:node:2894077479","latitude":38.9903504,"longitude":-1.8482621,"name":"Calle Alcalde Conangla near Calle la Unión","properties":{"access":"unknown","bicycle_pa":"privee","capacity":5,"covered":"no","fee":"","operator":"Ayuntamiento","nameSource":"junction"},"sourceId":"osm"},{"id":"osm:node:2894077482","latitude":38.9846481,"longitude":-1.84721,"name":"Calle Almansa near Calle Hermanos Falcó","properties":{"access":"unknown","bicycle_pa":"wall_loops","capacity":46,"covered":"no","fee":"","operator":"Ayuntamiento","nameSource":"junction"},"sourceId":"osm"},{"id":"osm:node:2894077484","latitude":38.9871075,"longitude":-1.8508916,"name":"Calle del Amparo near Calle Tobarra","properties":{"access":"unknown","bicycle_pa":"privee","capacity":5,"covered":"no","fee":"","operator":"Ayuntamiento","nameSource":"junction"},"sourceId":"osm"},{"id":"osm:node:2894077486","latitude":38.9891732,"longitude":-1.8557181,"name":"Avenida de España near Calle Teodoro Camino","properties":{"access":"unknown","bicycle_pa":"privee","capacity":5,"covered":"no","fee":"","operator":"Ayuntamiento","nameSource":"junction"},"sourceId":"osm"},{"id":"osm:node:2894077489","latitude":38.9873592,"longitude":-1.8483635,"name":"Calle del Amparo near Calle Hermanos Falcó","properties":{"access":"unknown","bicycle_pa":"privee","capacity":5,"covered":"no","fee":"","operator":"Ayuntamiento","nameSource":"junction"},"sourceId":"osm"},{"id":"osm:node:2894077490","latitude":38.9873636,"longitude":-1.852022,"name":"Calle Alarcón near Calle Batalla del Salado","properties":{"access":"unknown","bicycle_pa":"privee","capacity":5,"covered":"no","fee":"","operator":"Ayuntamiento","nameSource":"junction"},"sourceId":"osm"},{"id":"osm:node:2894077491","latitude":38.9883033,"longitude":-1.8579977,"name":"Calle Antonio Machado near Paseo Pedro Simón Abril","properties":{"access":"unknown","bicycle_pa":"privee","capacity":5,"covered":"no","fee":"","operator":"Ayuntamiento","nameSource":"junction"},"sourceId":"osm"},{"id":"osm:node:2894077492","latitude":38.9896911,"longitude":-1.8466862,"name":"Calle José Carbajal near Plaza Miguel Ángel Blanco","properties":{"access":"unknown","bicycle_pa":"privee","capacity":5,"covered":"no","fee":"","operator":"Ayuntamiento","nameSource":"junction"},"sourceId":"osm"},{"id":"osm:node:2894116408","latitude":38.9898382,"longitude":-1.8547071,"name":"Calle San José de Calasanz near Calle Periodista del Campo Aguilar","properties":{"access":"unknown","bicycle_pa":"privee","capacity":5,"covered":"no","fee":"","operator":"Ayuntamiento","nameSource":"junction"},"sourceId":"osm"},{"id":"osm:node:2894116413","latitude":38.9883051,"longitude":-1.857968,"name":"Calle Antonio Machado near Paseo Pedro Simón Abril","properties":{"access":"unknown","bicycle_pa":"privee","capacity":5,"covered":"no","fee":"","operator":"Ayuntamiento","nameSource":"junction"},"sourceId":"osm"},{"id":"osm:node:2894116420","latitude":38.990987,"longitude":-1.8526766,"name":"Calle Jesús Nazareno near Calle Parra","properties":{"access":"unknown","bicycle_pa":"privee","capacity":5,"covered":"no","fee":"","operator":"Ayuntamiento","nameSource":"junction"},"sourceId":"osm"},{"id":"osm:node:2894116434","latitude":38.9896456,"longitude":-1.851416,"name":"Calle Sol near Calle Marzo","properties":{"access":"unknown","bicycle_pa":"privee","capacity":5,"covered":"no","fee":"","operator":"Ayuntamiento","nameSource":"junction"},"sourceId":"osm"},{"id":"osm:node:2894116457","latitude":38.9903677,"longitude":-1.856716,"name":"Plaza de Gabriel Lodares near Calle Octavio Cuartero","properties":{"access":"unknown","bicycle_pa":"privee","capacity":5,"covered":"no","fee":"","operator":"Ayuntamiento","nameSource":"junction"},"sourceId":"osm"},{"id":"osm:node:2894142901","latitude":38.9902305,"longitude":-1.8654113,"name":"Calle Doctor Fleming near Calle María Marín","properties":{"access":"unknown","bicycle_pa":"privee","capacity":5,"covered":"","fee":"","operator":"Ayuntamiento","nameSource":"junction"},"sourceId":"osm"},{"id":"osm:node:2894142902","latitude":38.9924359,"longitude":-1.8665915,"name":"Calle Hermanos Jiménez near Calle Arcipreste Gálvez","properties":{"access":"unknown","bicycle_pa":"privee","capacity":5,"covered":"no","fee":"","operator":"Ayuntamiento","nameSource":"junction"},"sourceId":"osm"},{"id":"osm:node:2894142904","latitude":38.9939826,"longitude":-1.8671552,"name":"Calle Hermanos Jiménez near Calle Cristóbal Pérez Pastor","properties":{"access":"unknown","bicycle_pa":"privee","capacity":2,"covered":"no","fee":"","operator":"Ayuntamiento","nameSource":"junction"},"sourceId":"osm"},{"id":"osm:node:2894142905","latitude":38.9861985,"longitude":-1.8641888,"name":"Calle Doctor Collado Piña near Calle Lepanto","properties":{"access":"unknown","bicycle_pa":"privee","capacity":5,"covered":"","fee":"","operator":"Ayuntamiento","nameSource":"junction"},"sourceId":"osm"},{"id":"osm:node:2894155270","latitude":38.9922152,"longitude":-1.8594048,"name":"Calle Doctor Collado Piña near Calle Dionisio Guardiola","properties":{"access":"unknown","bicycle_pa":"privee","capacity":5,"covered":"no","fee":"","operator":"Ayuntamiento","nameSource":"junction"},"sourceId":"osm"},{"id":"osm:node:2894155271","latitude":38.9908345,"longitude":-1.861157,"name":"Calle Luis Rosales near Calle Torres Quevedo","properties":{"access":"unknown","bicycle_pa":"privee","capacity":5,"covered":"no","fee":"","operator":"Ayuntamiento","nameSource":"junction"},"sourceId":"osm"},{"id":"osm:node:2894155275","latitude":38.9950876,"longitude":-1.8593821,"name":"Calle Albarderos near Calle Baños","properties":{"access":"unknown","bicycle_pa":"privee","capacity":5,"covered":"no","fee":"","operator":"Ayuntamiento","nameSource":"junction"},"sourceId":"osm"},{"id":"osm:node:2894155276","latitude":38.9927215,"longitude":-1.8600666,"name":"Calle Torres Quevedo near Calle Dionisio Guardiola","properties":{"access":"unknown","bicycle_pa":"privee","capacity":5,"covered":"no","fee":"","operator":"","nameSource":"junction"},"sourceId":"osm"},{"id":"osm:node:2894220719","latitude":38.997443,"longitude":-1.8513037,"name":"Avenida de la Estación near Calle Alcalde José María de Miguel","properties":{"access":"unknown","bicycle_pa":"privee","capacity":6,"covered":"no","fee":"","operator":"Ayuntamiento","nameSource":"junction"},"sourceId":"osm"},{"id":"osm:node:2894220720","latitude":38.9930256,"longitude":-1.8571929,"name":"Pasaje Posada del Rosario","properties":{"access":"yes","bicycle_pa":"privee","capacity":12,"covered":"no","fee":"yes","operator":"Ayuntamiento Albacete","nameSource":"source"},"sourceId":"osm"},{"id":"osm:node:2894220721","latitude":39.0028108,"longitude":-1.853779,"name":"Calle Férez near Calle Letur","properties":{"access":"unknown","bicycle_pa":"privee","capacity":6,"covered":"no","fee":"","operator":"Ayuntamiento","nameSource":"junction"},"sourceId":"osm"},{"id":"osm:node:2894220722","latitude":38.9958855,"longitude":-1.8544187,"name":"Calle Isaac Peral near Callejón del Teatro Circo","properties":{"access":"unknown","bicycle_pa":"privee","capacity":4,"covered":"no","fee":"","operator":"Ayuntamiento","nameSource":"junction"},"sourceId":"osm"},{"id":"osm:node:2894220723","latitude":38.9961193,"longitude":-1.8547825,"name":"Calle Isaac Peral near Calle San Antonio","properties":{"access":"unknown","bicycle_pa":"privee","capacity":6,"covered":"no","fee":"","operator":"Ayuntamiento","nameSource":"junction"},"sourceId":"osm"},{"id":"osm:node:2894220724","latitude":38.9931505,"longitude":-1.8575985,"name":"Calle de la Caba near Calle del Rosario","properties":{"access":"unknown","bicycle_pa":"privee","capacity":5,"covered":"no","fee":"","operator":"Ayuntamiento","nameSource":"junction"},"sourceId":"osm"},{"id":"osm:node:2894220725","latitude":38.9948292,"longitude":-1.8558845,"name":"Plaza de la Constitución near Calle del Rosario","properties":{"access":"unknown","bicycle_pa":"privee","capacity":5,"covered":"no","fee":"","operator":"Ayuntamiento","nameSource":"junction"},"sourceId":"osm"},{"id":"osm:node:2894220727","latitude":38.9926401,"longitude":-1.8525987,"name":"Calle Mayor near Calle Purísima","properties":{"access":"unknown","bicycle_pa":"privee","capacity":5,"covered":"no","fee":"","operator":"Ayuntamiento","nameSource":"junction"},"sourceId":"osm"},{"id":"osm:node:2894220728","latitude":38.9976994,"longitude":-1.8462531,"name":"Calle Tirso de Molina near Calle Juan Guspi","properties":{"access":"unknown","bicycle_pa":"privee","capacity":6,"covered":"","fee":"","operator":"Ayuntamiento","nameSource":"junction"},"sourceId":"osm"},{"id":"osm:node:2894220729","latitude":38.9973734,"longitude":-1.8525291,"name":"Paseo de la Cuba near Avenida de la Estación","properties":{"access":"unknown","bicycle_pa":"privee","capacity":6,"covered":"no","fee":"","operator":"Ayuntamiento","nameSource":"junction"},"sourceId":"osm"},{"id":"osm:node:2894220730","latitude":38.9927318,"longitude":-1.8556301,"name":"Calle del Tinte near Calle Tesifonte Gallego","properties":{"access":"unknown","bicycle_pa":"privee","capacity":5,"covered":"no","fee":"","operator":"Ayuntamiento","nameSource":"junction"},"sourceId":"osm"},{"id":"osm:node:2894220732","latitude":38.9929278,"longitude":-1.8523873,"name":"Calle Purísima near Calle Concepción","properties":{"access":"unknown","bicycle_pa":"privee","capacity":5,"covered":"no","fee":"","operator":"Ayuntamiento","nameSource":"junction"},"sourceId":"osm"},{"id":"osm:node:2894220733","latitude":38.9961422,"longitude":-1.8563007,"name":"Calle San Julián near Calle Martínez Villena","properties":{"access":"unknown","bicycle_pa":"privee","capacity":6,"covered":"no","fee":"","operator":"Ayuntamiento","nameSource":"junction"},"sourceId":"osm"},{"id":"osm:node:2894220735","latitude":38.9964345,"longitude":-1.8523038,"name":"Calle Alcalde Conangla near Calle Salamanca","properties":{"access":"unknown","bicycle_pa":"privee","capacity":6,"covered":"","fee":"","operator":"Ayuntamiento","nameSource":"junction"},"sourceId":"osm"},{"id":"osm:node:2894220736","latitude":38.9961089,"longitude":-1.8466259,"name":"Calle Federico García Lorca near Calle Tomas Edison","properties":{"access":"unknown","bicycle_pa":"privee","capacity":6,"covered":"no","fee":"","operator":"Ayuntamiento","nameSource":"junction"},"sourceId":"osm"},{"id":"osm:node:2894220737","latitude":38.9949043,"longitude":-1.8547982,"name":"Plaza Altozano near Calle Francisco Fontecha","properties":{"access":"unknown","bicycle_pa":"privee","capacity":5,"covered":"no","fee":"","operator":"Ayuntamiento","nameSource":"junction"},"sourceId":"osm"},{"id":"osm:node:2894220738","latitude":38.9997755,"longitude":-1.8546833,"name":"Paseo de la Cuba near Avenida Ramón y Cajal","properties":{"access":"unknown","bicycle_pa":"privee","capacity":6,"covered":"","fee":"","operator":"Ayuntamiento","nameSource":"junction"},"sourceId":"osm"},{"id":"osm:node:2894220740","latitude":38.9957878,"longitude":-1.8532269,"name":"Paseo de la Libertad near Calle Carcelén","properties":{"access":"unknown","bicycle_pa":"privee","capacity":6,"covered":"no","fee":"","operator":"Ayuntamiento","nameSource":"junction"},"sourceId":"osm"},{"id":"osm:node:4502565989","latitude":38.9896414,"longitude":-1.8491294,"name":"Puerta de Valencia","properties":{"access":"unknown","bicycle_pa":"floor","capacity":8,"covered":"no","fee":"","operator":"Albabici","nameSource":"source"},"sourceId":"osm"},{"id":"osm:node:4597602354","latitude":38.9948647,"longitude":-1.8673016,"name":"Calle Doctor Ferrán near Calle Hermanos Jiménez","properties":{"access":"unknown","bicycle_pa":"informal","capacity":5,"covered":"no","fee":"","operator":"Ayuntamiento","nameSource":"junction"},"sourceId":"osm"}],"schemaVersion":2}
