{"key":"12/2025/1344","points":[{"categories":["hire"],"id":"osm:node:10215889617","latitude":52.457935,"longitude":-1.944654,"name":"Barlows road","properties":{"brand":"Beryl","fee":"yes","network":"Beryl","operator":"Beryl","website":"https://beryl.cc/scheme/west-midlands"},"sourceId":"osm"},{"categories":["hire"],"id":"osm:node:10215889618","latitude":52.459563,"longitude":-1.946922,"name":"Harborne - High Street","properties":{"fee":"yes","network":"West Midlands Cycle Hire","operator":"Beryl","website":"https://beryl.cc/scheme/west-midlands"},"sourceId":"osm"},{"categories":["hire"],"id":"osm:node:10215889619","latitude":52.447596,"longitude":-1.956098,"name":"Quinton road - Grove Lane","properties":{"fee":"yes","network":"West Midlands Cycle Hire","operator":"Beryl","website":"https://beryl.cc/scheme/west-midlands"},"sourceId":"osm"},{"categories":["hire"],"id":"osm:node:10215889620","latitude":52.457995,"longitude":-1.954281,"name":"Greenfield Road","properties":{"fee":"yes","network":"West Midlands Cycle Hire","operator":"Beryl","website":"https://beryl.cc/scheme/west-midlands"},"sourceId":"osm"},{"categories":["hire"],"id":"osm:node:10215889622","latitude":52.4583481,"longitude":-1.9581914,"name":"Lordsword Road","properties":{"fee":"yes","network":"West Midlands Cycle Hire","operator":"Beryl","website":"https://beryl.cc/scheme/west-midlands"},"sourceId":"osm"},{"categories":["hire"],"id":"osm:node:10219685382","latitude":52.4412766,"longitude":-1.9383311,"name":"Battery Retail Park","properties":{"brand":"Beryl","fee":"yes","network":"Beryl","operator":"Beryl","website":"https://beryl.cc/scheme/west-midlands"},"sourceId":"osm"},{"categories":["hire"],"id":"osm:node:10219685384","latitude":52.441706,"longitude":-1.94116,"name":"Chapel Lane","properties":{"fee":"yes","network":"West Midlands Cycle Hire","operator":"Beryl","website":"https://beryl.cc/scheme/west-midlands"},"sourceId":"osm"},{"categories":["hire"],"id":"osm:node:10219685386","latitude":52.4396805,"longitude":-1.9399455,"name":"Oak Tree Lane","properties":{"fee":"yes","network":"West Midlands Cycle Hire","operator":"Beryl","website":"https://beryl.cc/scheme/west-midlands"},"sourceId":"osm"},{"categories":["hire"],"id":"osm:node:10219700340","latitude":52.448979,"longitude":-1.94619,"name":"Metchely Hall","properties":{"fee":"yes","network":"West Midlands Cycle Hire","operator":"Beryl","website":"https://beryl.cc/scheme/west-midlands"},"sourceId":"osm"},{"categories":["hire"],"id":"osm:node:10219705188","latitude":52.447043,"longitude":-1.9335946,"name":"Bournbrook","properties":{"brand":"Beryl","fee":"yes","network":"Beryl","operator":"Beryl","website":"https://beryl.cc/scheme/west-midlands"},"sourceId":"osm"},{"categories":["shop"],"id":"osm:node:319580705","latitude":52.461703,"longitude":-1.9666472,"name":"Harborne Cycle Surgery","properties":{},"sourceId":"osm"},{"categories":["repair"],"id":"osm:node:430313658","latitude":52.4416775,"longitude":-1.9384893,"name":"Halfords","properties":{"brand":"Halfords","openingHours":"Mo-Fr 09:00-20:00; Sa 09:00-18:00; Su 10:00-17:00","serviceRepair":"yes","website":"https://www.halfords.com/locations/selly-oak-store/"},"sourceId":"osm"},{"categories":["repair"],"id":"osm:node:4841817607","latitude":52.4511025,"longitude":-1.9373641,"name":"Dero","properties":{"brand":"Dero","openingHours":"24/7","servicePump":"yes","serviceRepair":"yes","serviceTools":"yes"},"sourceId":"osm"},{"categories":["repair"],"id":"osm:node:7869334738","latitude":52.4422447,"longitude":-1.9364631,"name":"Dero","properties":{"brand":"Dero","openingHours":"24/7","servicePump":"yes","serviceTools":"yes"},"sourceId":"osm"},{"categories":["hire"],"id":"osm:node:8712618314","latitude":52.4511815,"longitude":-1.9382838,"name":"University Station Birmingham","properties":{"fee":"yes","network":"West Midlands Cycle Hire","operator":"Beryl","website":"https://beryl.cc/scheme/west-midlands"},"sourceId":"osm"},{"categories":["hire"],"id":"osm:node:8861977638","latitude":52.4566802,"longitude":-1.9373233,"name":"Pritchatts House","properties":{"fee":"yes","network":"West Midlands Cycle Hire","operator":"Beryl","website":"https://beryl.cc/scheme/west-midlands"},"sourceId":"osm"},{"categories":["repair"],"id":"osm:node:9735018565","latitude":52.4505473,"longitude":-1.9353019,"name":"Bicycle repair station","properties":{"fee":"no","servicePump":"yes","serviceTools":"yes"},"sourceId":"osm"},{"categories":["shop"],"id":"osm:way:121276200","latitude":52.44691022000001,"longitude":-1.9458651,"name":"Tri-1st","properties":{},"sourceId":"osm"}],"schemaVersion":2}
