{"key":"12/2012/1276","points":[{"id":"cec:1004","latitude":55.9263819072863,"longitude":-3.15619243040883,"name":"Old Dalkeith Road cycle parking","properties":{"FID":1004,"eastings":327852,"northings":670972,"bicycle_pa":"stands","capacity":5,"covered":"no","access":" ","fee":" ","operator":" ","CECLand":"Y","nameSource":"street"},"sourceId":"cec"},{"id":"cec:1018","latitude":55.933429772543,"longitude":-3.14138828594109,"name":"Duddingston Road West near Peffer Bank","properties":{"FID":1018,"eastings":328790,"northings":671741,"bicycle_pa":"stands","capacity":12,"covered":" ","access":" ","fee":" ","operator":" ","CECLand":" ","nameSource":"junction"},"sourceId":"cec"},{"id":"cec:1027","latitude":55.9516218222682,"longitude":-3.110296270879,"name":"Portobello High Street near Bellfield Lane","properties":{"FID":1027,"eastings":330765,"northings":673734,"bicycle_pa":"stands","capacity":10,"covered":"yes","access":"yes","fee":" ","operator":" ","CECLand":" ","nameSource":"junction"},"sourceId":"cec"},{"id":"cec:1041","latitude":55.9664346999872,"longitude":-3.14697433697385,"name":"Darvel Gait cycle parking","properties":{"FID":1041,"eastings":328502,"northings":675420,"bicycle_pa":"stands","capacity":2,"covered":" ","access":" ","fee":" ","operator":" ","CECLand":" ","nameSource":"street"},"sourceId":"cec"},{"id":"cec:1042","latitude":55.9663603020829,"longitude":-3.14724448554447,"name":"Darvel Gait cycle parking","properties":{"FID":1042,"eastings":328485,"northings":675412,"bicycle_pa":"stands","capacity":2,"covered":" ","access":" ","fee":" ","operator":" ","CECLand":" ","nameSource":"street"},"sourceId":"cec"},{"id":"cec:1043","latitude":55.9662038649893,"longitude":-3.14764036952875,"name":"Darvel Gait near Fleming Place","properties":{"FID":1043,"eastings":328460,"northings":675395,"bicycle_pa":"stands","capacity":2,"covered":" ","access":" ","fee":" ","operator":" ","CECLand":" ","nameSource":"junction"},"sourceId":"cec"},{"id":"cec:1044","latitude":55.9662615194985,"longitude":-3.14820279109943,"name":"Darvel Gait near Fleming Place","properties":{"FID":1044,"eastings":328425,"northings":675402,"bicycle_pa":"stands","capacity":2,"covered":" ","access":" ","fee":" ","operator":" ","CECLand":" ","nameSource":"junction"},"sourceId":"cec"},{"id":"cec:1045","latitude":55.966754499442,"longitude":-3.1473682877385,"name":"Fleming Place by NEDC Seagrove Centre","properties":{"FID":1045,"eastings":328478,"northings":675456,"bicycle_pa":"stands","capacity":2,"covered":" ","access":" ","fee":" ","operator":" ","CECLand":" ","nameSource":"landmark"},"sourceId":"cec"},{"id":"cec:1046","latitude":55.9666438705904,"longitude":-3.14766940795895,"name":"Fleming Place near Darvel Gait","properties":{"FID":1046,"eastings":328459,"northings":675444,"bicycle_pa":"stands","capacity":2,"covered":" ","access":" ","fee":" ","operator":" ","CECLand":" ","nameSource":"junction"},"sourceId":"cec"},{"id":"cec:1047","latitude":55.966586988579,"longitude":-3.14798813714442,"name":"Fleming Place near Darvel Gait","properties":{"FID":1047,"eastings":328439,"northings":675438,"bicycle_pa":"stands","capacity":2,"covered":" ","access":" ","fee":" ","operator":" ","CECLand":" ","nameSource":"junction"},"sourceId":"cec"},{"id":"cec:1067","latitude":55.9248378215955,"longitude":-3.12599640350474,"name":"Sandilands Close cycle parking","properties":{"FID":1067,"eastings":329736,"northings":670769,"bicycle_pa":"shed","capacity":4,"covered":" ","access":" ","fee":" ","operator":" ","CECLand":" ","nameSource":"street"},"sourceId":"cec"},{"id":"cec:1068","latitude":55.9250008317761,"longitude":-3.12585710762081,"name":"Sandilands Close cycle parking","properties":{"FID":1068,"eastings":329745,"northings":670787,"bicycle_pa":"shed","capacity":4,"covered":" ","access":" ","fee":" ","operator":" ","CECLand":"Y","nameSource":"street"},"sourceId":"cec"},{"id":"cec:1069","latitude":55.925075621896,"longitude":-3.1255392163817,"name":"Sandilands Close cycle parking","properties":{"FID":1069,"eastings":329765,"northings":670795,"bicycle_pa":"shed","capacity":4,"covered":" ","access":" ","fee":" ","operator":" ","CECLand":"Y","nameSource":"street"},"sourceId":"cec"},{"id":"cec:1070","latitude":55.9251396727894,"longitude":-3.12541305000395,"name":"Sandilands Close cycle parking","properties":{"FID":1070,"eastings":329773,"northings":670802,"bicycle_pa":"shed","capacity":4,"covered":" ","access":" ","fee":" ","operator":" ","CECLand":"Y","nameSource":"street"},"sourceId":"cec"},{"id":"cec:1071","latitude":55.9254522583188,"longitude":-3.12463795982625,"name":"Sandilands Close cycle parking","properties":{"FID":1071,"eastings":329822,"northings":670836,"bicycle_pa":"shed","capacity":4,"covered":" ","access":" ","fee":" ","operator":" ","CECLand":"Y","nameSource":"street"},"sourceId":"cec"},{"id":"cec:1072","latitude":55.9253871846302,"longitude":-3.12487612162293,"name":"Sandilands Close cycle parking","properties":{"FID":1072,"eastings":329807,"northings":670829,"bicycle_pa":"shed","capacity":4,"covered":" ","access":" ","fee":" ","operator":" ","CECLand":"Y","nameSource":"street"},"sourceId":"cec"},{"id":"cec:1073","latitude":55.9252496620877,"longitude":-3.12517619370791,"name":"Sandilands Close cycle parking","properties":{"FID":1073,"eastings":329788,"northings":670814,"bicycle_pa":"shed","capacity":4,"covered":" ","access":" ","fee":" ","operator":" ","CECLand":"Y","nameSource":"street"},"sourceId":"cec"},{"id":"cec:1077","latitude":55.9285759087804,"longitude":-3.13087431550781,"name":"Greendykes Road near Wighton Road","properties":{"FID":1077,"eastings":329438,"northings":671190,"bicycle_pa":"stands","capacity":6,"covered":"no","access":"yes","fee":" ","operator":" ","CECLand":" ","nameSource":"junction"},"sourceId":"cec"},{"id":"cec:1078","latitude":55.9280279332179,"longitude":-3.12988206561515,"name":"Tudsbery Avenue near Greendykes Road","properties":{"FID":1078,"eastings":329499,"northings":671128,"bicycle_pa":"stands","capacity":4,"covered":"no","access":"yes","fee":" ","operator":" ","CECLand":" ","nameSource":"junction"},"sourceId":"cec"},{"id":"cec:1082","latitude":55.9286056292088,"longitude":-3.12959481155655,"name":"Wighton Road near Stobbie Place","properties":{"FID":1082,"eastings":329518,"northings":671192,"bicycle_pa":"stands","capacity":4,"covered":"no","access":"yes","fee":" ","operator":" ","CECLand":" ","nameSource":"junction"},"sourceId":"cec"},{"id":"cec:1085","latitude":55.9449297232811,"longitude":-3.15309523916376,"name":"Queen's Drive cycle parking","properties":{"FID":1085,"eastings":328080,"northings":673033,"bicycle_pa":"stands","capacity":6,"covered":"no","access":" ","fee":" ","operator":" ","CECLand":" ","nameSource":"street"},"sourceId":"cec"},{"id":"cec:1089","latitude":55.9637212970285,"longitude":-3.15656978582952,"name":"Restalrig Park cycle parking","properties":{"FID":1089,"eastings":327898,"northings":675128,"bicycle_pa":"stands","capacity":6,"covered":"no","access":" ","fee":" ","operator":" ","CECLand":" ","nameSource":"street"},"sourceId":"cec"},{"id":"cec:1102","latitude":55.9559880891754,"longitude":-3.16197681616417,"name":"Sunnybank Place near Lower London Road","properties":{"FID":1102,"eastings":327546,"northings":674273,"bicycle_pa":"stands","capacity":10,"covered":"yes","access":" ","fee":" ","operator":" ","CECLand":" ","nameSource":"junction"},"sourceId":"cec"},{"id":"cec:1114","latitude":55.9538459877062,"longitude":-3.11671792164957,"name":"Williamfield Square near Rosefield Avenue","properties":{"FID":1114,"eastings":330368,"northings":673988,"bicycle_pa":"stands","capacity":14,"covered":"no","access":"yes","fee":" ","operator":" ","CECLand":"Y","nameSource":"junction"},"sourceId":"cec"},{"id":"cec:1209","latitude":55.930204678985,"longitude":-3.15672259489184,"name":"Peffermill Road cycle parking","properties":{"FID":1209,"eastings":327826,"northings":671398,"bicycle_pa":"stands","capacity":40,"covered":"no","access":"yes","fee":"no","operator":"University of Edinburgh","CECLand":" ","nameSource":"street"},"sourceId":"cec"},{"id":"cec:1210","latitude":55.9308327593344,"longitude":-3.15586102167534,"name":"Peffermill Road by Two Wheels","properties":{"FID":1210,"eastings":327881,"northings":671467,"bicycle_pa":"stands","capacity":10,"covered":"no","access":"yes","fee":"no","operator":"University of Edinburgh","CECLand":" ","nameSource":"landmark"},"sourceId":"cec"},{"id":"cec:1211","latitude":55.9311130293225,"longitude":-3.155677308952,"name":"Peffermill Road cycle parking","properties":{"FID":1211,"eastings":327893,"northings":671498,"bicycle_pa":"stands","capacity":10,"covered":"no","access":"yes","fee":"no","operator":"University of Edinburgh","CECLand":" ","nameSource":"street"},"sourceId":"cec"},{"id":"cec:1212","latitude":55.9318772142293,"longitude":-3.15371532776618,"name":"Peffermill Road cycle parking","properties":{"FID":1212,"eastings":328017,"northings":671581,"bicycle_pa":"stands","capacity":10,"covered":"no","access":"yes","fee":"no","operator":"University of Edinburgh","CECLand":" ","nameSource":"street"},"sourceId":"cec"},{"id":"cec:1213","latitude":55.9312260794042,"longitude":-3.15512047268229,"name":"Peffermill Road cycle parking","properties":{"FID":1213,"eastings":327928,"northings":671510,"bicycle_pa":"stands","capacity":24,"covered":"no","access":"yes","fee":"no","operator":"University of Edinburgh","CECLand":" ","nameSource":"street"},"sourceId":"cec"},{"id":"cec:1223","latitude":55.9341765507477,"longitude":-3.10184135546985,"name":"Newcraighall Road by Starbucks","properties":{"FID":1223,"eastings":331262,"northings":671784,"bicycle_pa":"stands","capacity":8,"covered":"no","access":" ","fee":" ","operator":" ","CECLand":" ","nameSource":"landmark"},"sourceId":"cec"},{"id":"cec:1226","latitude":55.9321342894183,"longitude":-3.13573194552844,"name":"Seacole Square cycle parking","properties":{"FID":1226,"eastings":329141,"northings":671591,"bicycle_pa":"stands","capacity":6,"covered":"no","access":" ","fee":" ","operator":" ","CECLand":" ","nameSource":"street"},"sourceId":"cec"},{"id":"cec:1227","latitude":55.9317889753126,"longitude":-3.13517762074167,"name":"Seacole Square cycle parking","properties":{"FID":1227,"eastings":329175,"northings":671552,"bicycle_pa":"stands","capacity":6,"covered":"no","access":" ","fee":" ","operator":" ","CECLand":" ","nameSource":"street"},"sourceId":"cec"},{"id":"cec:1228","latitude":55.9316661463742,"longitude":-3.13583027149131,"name":"Seacole Square cycle parking","properties":{"FID":1228,"eastings":329134,"northings":671539,"bicycle_pa":"stands","capacity":10,"covered":"no","access":" ","fee":" ","operator":" ","CECLand":" ","nameSource":"street"},"sourceId":"cec"},{"id":"cec:1229","latitude":55.931392525349,"longitude":-3.13627042001351,"name":"Seacole Square cycle parking","properties":{"FID":1229,"eastings":329106,"northings":671509,"bicycle_pa":"stands","capacity":12,"covered":"no","access":" ","fee":" ","operator":" ","CECLand":" ","nameSource":"street"},"sourceId":"cec"},{"id":"cec:1230","latitude":55.9315067915764,"longitude":-3.13654587117319,"name":"Seacole Square cycle parking","properties":{"FID":1230,"eastings":329089,"northings":671522,"bicycle_pa":"stands","capacity":4,"covered":"no","access":" ","fee":" ","operator":" ","CECLand":" ","nameSource":"street"},"sourceId":"cec"},{"id":"cec:1231","latitude":55.9316770229903,"longitude":-3.13659888059354,"name":"Seacole Square cycle parking","properties":{"FID":1231,"eastings":329086,"northings":671541,"bicycle_pa":"stands","capacity":8,"covered":"no","access":" ","fee":" ","operator":" ","CECLand":" ","nameSource":"street"},"sourceId":"cec"},{"id":"cec:1232","latitude":55.932265607255,"longitude":-3.13708032189108,"name":"Seacole Square cycle parking","properties":{"FID":1232,"eastings":329057,"northings":671607,"bicycle_pa":"stands","capacity":6,"covered":"no","access":" ","fee":" ","operator":" ","CECLand":" ","nameSource":"street"},"sourceId":"cec"},{"id":"cec:1233","latitude":55.9341571796359,"longitude":-3.12876415751164,"name":"Murchie Crescent near Moffat Way","properties":{"FID":1233,"eastings":329580,"northings":671809,"bicycle_pa":"stands","capacity":40,"covered":"yes","access":"private","fee":" ","operator":" ","CECLand":" ","nameSource":"junction"},"sourceId":"cec"},{"id":"cec:1246","latitude":55.9557860137922,"longitude":-3.15095178290994,"name":"Restalrig Road South cycle parking","properties":{"FID":1246,"eastings":328234,"northings":674239,"bicycle_pa":"stands","capacity":20,"covered":"yes","access":" ","fee":" ","operator":" ","CECLand":" ","nameSource":"street"},"sourceId":"cec"},{"id":"cec:1247","latitude":55.9557942481341,"longitude":-3.15103210721573,"name":"Restalrig Road South cycle parking","properties":{"FID":1247,"eastings":328229,"northings":674240,"bicycle_pa":"rack","capacity":40,"covered":"yes","access":" ","fee":" ","operator":" ","CECLand":" ","nameSource":"street"},"sourceId":"cec"},{"id":"cec:1249","latitude":55.9713757462163,"longitude":-3.15284049372043,"name":"Restalrig Railway Path by FunParx","properties":{"FID":1249,"eastings":328145,"northings":675976,"bicycle_pa":" ","capacity":4,"covered":"no","access":"customers","fee":" ","operator":" ","CECLand":" ","nameSource":"landmark"},"sourceId":"cec"},{"id":"cec:1251","latitude":55.9731693152148,"longitude":-3.15991203967154,"name":"Pillans Place near Sailmaker Road","properties":{"FID":1251,"eastings":327707,"northings":676183,"bicycle_pa":"stands","capacity":60,"covered":"yes","access":"private","fee":" ","operator":" ","CECLand":" ","nameSource":"junction"},"sourceId":"cec"},{"id":"cec:1252","latitude":55.973498132696,"longitude":-3.16125182798679,"name":"Sailmaker Road near Salamander Place","properties":{"FID":1252,"eastings":327624,"northings":676221,"bicycle_pa":"stands","capacity":60,"covered":"yes","access":"private","fee":" ","operator":" ","CECLand":" ","nameSource":"junction"},"sourceId":"cec"},{"id":"cec:1279","latitude":55.9562367140771,"longitude":-3.15751576382431,"name":"London Road near Clockmill Lane","properties":{"FID":1279,"eastings":327825,"northings":674296,"bicycle_pa":"shed","capacity":40,"covered":"yes","access":"yes","fee":"no","operator":" ","CECLand":" ","nameSource":"junction"},"sourceId":"cec"},{"id":"cec:1303","latitude":55.935414922256,"longitude":-3.11399399636876,"name":"Cleekim Drive near Duddingston Park South","properties":{"FID":1303,"eastings":330505,"northings":671934,"bicycle_pa":"stands","capacity":6,"covered":"no","access":" ","fee":" ","operator":" ","CECLand":" ","nameSource":"junction"},"sourceId":"cec"},{"id":"cec:1304","latitude":55.9660850849115,"longitude":-3.13232137964502,"name":"Seafield Road (cycleway) near Promenade","properties":{"FID":1304,"eastings":329416,"northings":675366,"bicycle_pa":"stands","capacity":4,"covered":"no","access":"yes","fee":"no","operator":" ","CECLand":"Y","nameSource":"junction"},"sourceId":"cec"},{"id":"cec:1305","latitude":55.9659250145149,"longitude":-3.13214048591408,"name":"Promenade near Seafield Road (cycleway)","properties":{"FID":1305,"eastings":329427,"northings":675348,"bicycle_pa":"stands","capacity":2,"covered":"no","access":"yes","fee":"no","operator":" ","CECLand":"Y","nameSource":"junction"},"sourceId":"cec"},{"id":"cec:1306","latitude":55.9323007195608,"longitude":-3.13424823798869,"name":"Niddrie Farm Grove by Niddrie Medical Practice","properties":{"FID":1306,"eastings":329234,"northings":671608,"bicycle_pa":"stands","capacity":10,"covered":" ","access":" ","fee":" ","operator":" ","CECLand":" ","nameSource":"landmark"},"sourceId":"cec"},{"id":"cec:1311","latitude":55.9717670158492,"longitude":-3.1590208867024,"name":"Pillans Walk near Pillans Square","properties":{"FID":1311,"eastings":327760,"northings":676026,"bicycle_pa":"stands","capacity":8,"covered":"no","access":"yes","fee":" ","operator":" ","CECLand":" ","nameSource":"junction"},"sourceId":"cec"},{"id":"cec:1314","latitude":55.9732341598352,"longitude":-3.16161246036851,"name":"Ropemaker Street near Salamander Place","properties":{"FID":1314,"eastings":327601,"northings":676192,"bicycle_pa":"stands","capacity":8,"covered":"no","access":"yes","fee":"no","operator":" ","CECLand":" ","nameSource":"junction"},"sourceId":"cec"},{"id":"cec:1323","latitude":55.9353166447539,"longitude":-3.10496315222365,"name":"Guy & Beard cycle parking","properties":{"FID":1323,"eastings":331069,"northings":671914,"bicycle_pa":"stands","capacity":4,"covered":"no","access":" ","fee":" ","operator":" ","CECLand":" ","nameSource":"landmark"},"sourceId":"cec"},{"id":"cec:1364","latitude":55.9247785183176,"longitude":-3.15852909950131,"name":"Inch Park cycle parking","properties":{"FID":1364,"eastings":327703,"northings":670796,"bicycle_pa":"staple","capacity":6,"covered":"no","access":"yes","fee":"no","operator":" ","CECLand":"Y","nameSource":"landmark"},"sourceId":"cec"},{"id":"cec:1376","latitude":55.9699380251406,"longitude":-3.1605043351322,"name":"East Hermitage Place near Summerfield Place","properties":{"FID":1376,"eastings":327664,"northings":675824,"bicycle_pa":"stands","capacity":6,"covered":" ","access":" ","fee":" ","operator":" ","CECLand":"Y","nameSource":"junction"},"sourceId":"cec"},{"id":"cec:1426","latitude":55.9719460650855,"longitude":-3.15622224057094,"name":"South Carron Wynd near South Carron Crescent","properties":{"FID":1426,"eastings":327935,"northings":676043,"bicycle_pa":"shed","capacity":100,"covered":" ","access":"private","fee":" ","operator":" ","CECLand":" ","nameSource":"junction"},"sourceId":"cec"},{"id":"cec:1438","latitude":55.9271958927031,"longitude":-3.15316854581965,"name":"Bridgend Cottages cycle parking","properties":{"FID":1438,"eastings":0,"northings":0,"bicycle_pa":" ","capacity":12,"covered":" ","access":" ","fee":" ","operator":" ","CECLand":"Y","nameSource":"street"},"sourceId":"cec"},{"id":"cec:1448","latitude":55.9476198304243,"longitude":-3.10002244503156,"name":"Joppa Gardens near Joppa Grove","properties":{"FID":1448,"eastings":0,"northings":0,"bicycle_pa":" ","capacity":10,"covered":" ","access":" ","fee":" ","operator":" ","CECLand":"Y","nameSource":"junction"},"sourceId":"cec"},{"id":"cec:166","latitude":55.9536602480842,"longitude":-3.15918448590254,"name":"Duke's Walk cycle parking","properties":{"FID":166,"eastings":327716,"northings":674011,"bicycle_pa":" ","capacity":6,"covered":" ","access":" ","fee":" ","operator":" ","CECLand":" ","nameSource":"street"},"sourceId":"cec"},{"id":"cec:190","latitude":55.9260947371345,"longitude":-3.13880377949735,"name":"Mains of Craigmillar near Craigmillar Castle Road","properties":{"FID":190,"eastings":328938,"northings":670922,"bicycle_pa":"stands","capacity":2,"covered":"no","access":" ","fee":"no","operator":" ","CECLand":" ","nameSource":"junction"},"sourceId":"cec"},{"id":"cec:193","latitude":55.9418029311174,"longitude":-3.15020042512076,"name":"Old Church Lane near Duddingston Low Road","properties":{"FID":193,"eastings":328255,"northings":672682,"bicycle_pa":"stands","capacity":8,"covered":"no","access":" ","fee":" ","operator":" ","CECLand":" ","nameSource":"junction"},"sourceId":"cec"},{"id":"cec:242","latitude":55.9552217007807,"longitude":-3.1478760256349,"name":"Piershill Square West near Portobello Road","properties":{"FID":242,"eastings":328425,"northings":674173,"bicycle_pa":"stands","capacity":2,"covered":"no","access":" ","fee":" ","operator":" ","CECLand":"Y","nameSource":"junction"},"sourceId":"cec"},{"id":"cec:243","latitude":55.9549835203765,"longitude":-3.14450569506033,"name":"Portobello Road near Piersfield Grove","properties":{"FID":243,"eastings":328635,"northings":674143,"bicycle_pa":"stands","capacity":8,"covered":"no","access":" ","fee":" ","operator":" ","CECLand":"Y","nameSource":"junction"},"sourceId":"cec"},{"id":"cec:244","latitude":55.9354218921783,"longitude":-3.10224493814135,"name":"Greggs cycle parking","properties":{"FID":244,"eastings":331239,"northings":671923,"bicycle_pa":"stands","capacity":8,"covered":"no","access":" ","fee":" ","operator":" ","CECLand":" ","nameSource":"landmark"},"sourceId":"cec"},{"id":"cec:250","latitude":55.9426495611943,"longitude":-3.10084953414275,"name":"Brunstane Road South near Brunstane Drive","properties":{"FID":250,"eastings":331339,"northings":672726,"bicycle_pa":"stands","capacity":10,"covered":"no","access":" ","fee":" ","operator":" ","CECLand":" ","nameSource":"junction"},"sourceId":"cec"},{"id":"cec:251","latitude":55.933824120757,"longitude":-3.09198741969223,"name":"Newcraighall Drive near Park View","properties":{"FID":251,"eastings":331877,"northings":671735,"bicycle_pa":"stands","capacity":46,"covered":"no","access":" ","fee":" ","operator":" ","CECLand":" ","nameSource":"junction"},"sourceId":"cec"},{"id":"cec:252","latitude":55.9338777347754,"longitude":-3.09202094188357,"name":"Newcraighall Drive near Park View","properties":{"FID":252,"eastings":331875,"northings":671741,"bicycle_pa":"lockers","capacity":10,"covered":" ","access":" ","fee":" ","operator":" ","CECLand":" ","nameSource":"junction"},"sourceId":"cec"},{"id":"cec:255","latitude":55.9344286783388,"longitude":-3.12265736955598,"name":"Hay Avenue near Cakemuir Grove","properties":{"FID":255,"eastings":329962,"northings":671833,"bicycle_pa":"stands","capacity":8,"covered":" ","access":" ","fee":" ","operator":" ","CECLand":" ","nameSource":"junction"},"sourceId":"cec"},{"id":"cec:286","latitude":55.9335659539036,"longitude":-3.10680196289027,"name":"Newcraighall Road by Smyths","properties":{"FID":286,"eastings":330951,"northings":671721,"bicycle_pa":"stands","capacity":6,"covered":"yes","access":" ","fee":" ","operator":" ","CECLand":" ","nameSource":"landmark"},"sourceId":"cec"},{"id":"cec:337","latitude":55.9583295314238,"longitude":-3.11870488454696,"name":"King's Place near Promenade","properties":{"FID":337,"eastings":330252,"northings":674489,"bicycle_pa":"stands","capacity":6,"covered":"no","access":" ","fee":" ","operator":" ","CECLand":"Y","nameSource":"junction"},"sourceId":"cec"},{"id":"cec:339","latitude":55.9532398107452,"longitude":-3.11519507589695,"name":"Portobello High Street near Beach Lane","properties":{"FID":339,"eastings":330462,"northings":673919,"bicycle_pa":"stands","capacity":6,"covered":"no","access":" ","fee":" ","operator":"CEC","CECLand":"Y","nameSource":"junction"},"sourceId":"cec"},{"id":"cec:340","latitude":55.9533628151995,"longitude":-3.11550289491125,"name":"Portobello High Street near Beach Lane","properties":{"FID":340,"eastings":330443,"northings":673933,"bicycle_pa":"stands","capacity":4,"covered":"no","access":" ","fee":" ","operator":"CEC","CECLand":"Y","nameSource":"junction"},"sourceId":"cec"},{"id":"cec:341","latitude":55.9536853273604,"longitude":-3.11560825164302,"name":"Portobello High Street near Rosefield Avenue","properties":{"FID":341,"eastings":330437,"northings":673969,"bicycle_pa":"stands","capacity":4,"covered":"no","access":" ","fee":" ","operator":"CEC","CECLand":"Y","nameSource":"junction"},"sourceId":"cec"},{"id":"cec:342","latitude":55.9523920816669,"longitude":-3.11256034171147,"name":"Regent Street near Portobello High Street","properties":{"FID":342,"eastings":330625,"northings":673822,"bicycle_pa":"stands","capacity":4,"covered":"no","access":" ","fee":" ","operator":"CEC","CECLand":"Y","nameSource":"junction"},"sourceId":"cec"},{"id":"cec:343","latitude":55.9532611766148,"longitude":-3.10685186754235,"name":"Promenade near Bellfield Street","properties":{"FID":343,"eastings":330983,"northings":673913,"bicycle_pa":"stands","capacity":10,"covered":"no","access":" ","fee":" ","operator":" ","CECLand":" ","nameSource":"junction"},"sourceId":"cec"},{"id":"cec:344","latitude":55.9569089913552,"longitude":-3.11682204458868,"name":"Promenade near Harbour Road","properties":{"FID":344,"eastings":330367,"northings":674329,"bicycle_pa":"stands","capacity":10,"covered":"no","access":" ","fee":" ","operator":" ","CECLand":" ","nameSource":"junction"},"sourceId":"cec"},{"id":"cec:345","latitude":55.9545949906028,"longitude":-3.14183566244143,"name":"Portobello Road by Morrisons","properties":{"FID":345,"eastings":328801,"northings":674097,"bicycle_pa":"ground_slots","capacity":20,"covered":" ","access":" ","fee":" ","operator":" ","CECLand":" ","nameSource":"landmark"},"sourceId":"cec"},{"id":"cec:381","latitude":55.9324249970448,"longitude":-3.15853355556413,"name":"Prestonfield Avenue by Prestonfield Park","properties":{"FID":381,"eastings":327717,"northings":671647,"bicycle_pa":"stands","capacity":4,"covered":"no","access":" ","fee":" ","operator":" ","CECLand":"Y","nameSource":"landmark"},"sourceId":"cec"},{"id":"cec:392","latitude":55.9412703645582,"longitude":-3.1446771777088,"name":"Duddingston Road West cycle parking","properties":{"FID":392,"eastings":328599,"northings":672617,"bicycle_pa":"stands","capacity":80,"covered":"yes","access":" ","fee":" ","operator":" ","CECLand":" ","nameSource":"street"},"sourceId":"cec"},{"id":"cec:399","latitude":55.9330288855415,"longitude":-3.1361583231283,"name":"Niddrie Mains Road near Seacole Square","properties":{"FID":399,"eastings":329116,"northings":671691,"bicycle_pa":"stands","capacity":20,"covered":"yes","access":" ","fee":" ","operator":" ","CECLand":"Y","nameSource":"junction"},"sourceId":"cec"},{"id":"cec:400","latitude":55.932808274093,"longitude":-3.13669607829304,"name":"Niddrie Mains Road by Tesco Express","properties":{"FID":400,"eastings":329082,"northings":671667,"bicycle_pa":"stands","capacity":2,"covered":"no","access":" ","fee":" ","operator":" ","CECLand":" ","nameSource":"landmark"},"sourceId":"cec"},{"id":"cec:406","latitude":55.9686958046709,"longitude":-3.14151377561799,"name":"Seafield Road by Greggs","properties":{"FID":406,"eastings":328847,"northings":675666,"bicycle_pa":"stands","capacity":10,"covered":"no","access":" ","fee":" ","operator":" ","CECLand":" ","nameSource":"landmark"},"sourceId":"cec"},{"id":"cec:422","latitude":55.9440536675785,"longitude":-3.09856776286425,"name":"Milton Road East near South Morton Street","properties":{"FID":422,"eastings":331484,"northings":672880,"bicycle_pa":"stands","capacity":122,"covered":"yes","access":" ","fee":" ","operator":" ","CECLand":" ","nameSource":"junction"},"sourceId":"cec"},{"id":"cec:470","latitude":55.9733329651458,"longitude":-3.15970863029201,"name":"Pillans Place near Sailmaker Road","properties":{"FID":470,"eastings":327720,"northings":676201,"bicycle_pa":"stands","capacity":2,"covered":"no","access":" ","fee":" ","operator":" ","CECLand":" ","nameSource":"junction"},"sourceId":"cec"},{"id":"cec:471","latitude":55.9734106423667,"longitude":-3.16004744657233,"name":"Sailmaker Road near Pillans Place","properties":{"FID":471,"eastings":327699,"northings":676210,"bicycle_pa":"stands","capacity":2,"covered":"no","access":" ","fee":" ","operator":" ","CECLand":" ","nameSource":"junction"},"sourceId":"cec"},{"id":"cec:472","latitude":55.9735398004385,"longitude":-3.1606441815311,"name":"Sailmaker Road near Salamander Place","properties":{"FID":472,"eastings":327662,"northings":676225,"bicycle_pa":"stands","capacity":2,"covered":"no","access":" ","fee":" ","operator":" ","CECLand":" ","nameSource":"junction"},"sourceId":"cec"},{"id":"cec:473","latitude":55.9734813630038,"longitude":-3.15921633989563,"name":"Pillans Place near Sailmaker Road","properties":{"FID":473,"eastings":327751,"northings":676217,"bicycle_pa":"stands","capacity":2,"covered":"no","access":" ","fee":" ","operator":" ","CECLand":" ","nameSource":"junction"},"sourceId":"cec"},{"id":"cec:474","latitude":55.9736263067967,"longitude":-3.16099928964386,"name":"Sailmaker Road near Salamander Place","properties":{"FID":474,"eastings":327640,"northings":676235,"bicycle_pa":"stands","capacity":2,"covered":"no","access":" ","fee":" ","operator":" ","CECLand":" ","nameSource":"junction"},"sourceId":"cec"},{"id":"cec:509","latitude":55.9318732770998,"longitude":-3.11712531087512,"name":"Jack Kane Sports Centre cycle parking","properties":{"FID":509,"eastings":330303,"northings":671543,"bicycle_pa":"stands","capacity":20,"covered":"no","access":" ","fee":" ","operator":" ","CECLand":"Y","nameSource":"landmark"},"sourceId":"cec"},{"id":"cec:523","latitude":55.951256480461,"longitude":-3.11294417689497,"name":"Windsor Place near Mount Lodge Place","properties":{"FID":523,"eastings":330599,"northings":673696,"bicycle_pa":"stands","capacity":2,"covered":"no","access":"customers","fee":" ","operator":" ","CECLand":" ","nameSource":"junction"},"sourceId":"cec"},{"id":"cec:524","latitude":55.9514147476439,"longitude":-3.10934551192648,"name":"Bellfield Lane near Hope Lane North","properties":{"FID":524,"eastings":330824,"northings":673710,"bicycle_pa":"stands","capacity":2,"covered":"no","access":" ","fee":" ","operator":" ","CECLand":"Y","nameSource":"junction"},"sourceId":"cec"},{"id":"cec:533","latitude":55.9404849165713,"longitude":-3.11671742204029,"name":"Mountcastle Drive South near Durham Road South","properties":{"FID":533,"eastings":330344,"northings":672501,"bicycle_pa":"stands","capacity":6,"covered":"no","access":" ","fee":" ","operator":" ","CECLand":" ","nameSource":"junction"},"sourceId":"cec"},{"id":"cec:541","latitude":55.9295340665002,"longitude":-3.12829344237012,"name":"Woolmet Place near Matthew Street","properties":{"FID":541,"eastings":329601,"northings":671294,"bicycle_pa":"stands","capacity":6,"covered":"no","access":" ","fee":" ","operator":" ","CECLand":" ","nameSource":"junction"},"sourceId":"cec"},{"id":"cec:542","latitude":55.9302125121568,"longitude":-3.12877733881993,"name":"Tudsbery Avenue near Robin Place","properties":{"FID":542,"eastings":329572,"northings":671370,"bicycle_pa":"stands","capacity":4,"covered":"no","access":" ","fee":" ","operator":" ","CECLand":" ","nameSource":"junction"},"sourceId":"cec"},{"id":"cec:545","latitude":55.9352001151527,"longitude":-3.09991761000666,"name":"A1 by M&S Foodhall","properties":{"FID":545,"eastings":331384,"northings":671896,"bicycle_pa":"stands","capacity":6,"covered":"no","access":" ","fee":" ","operator":" ","CECLand":" ","nameSource":"landmark"},"sourceId":"cec"},{"id":"cec:546","latitude":55.9343106922511,"longitude":-3.10491845034528,"name":"Caffè Nero cycle parking","properties":{"FID":546,"eastings":331070,"northings":671802,"bicycle_pa":"stands","capacity":8,"covered":"yes","access":" ","fee":" ","operator":" ","CECLand":" ","nameSource":"landmark"},"sourceId":"cec"},{"id":"cec:547","latitude":55.9321459175328,"longitude":-3.09882260137044,"name":"Whitehill Road by B&Q","properties":{"FID":547,"eastings":331447,"northings":671555,"bicycle_pa":"stands","capacity":10,"covered":"no","access":" ","fee":" ","operator":"B&Q","CECLand":" ","nameSource":"landmark"},"sourceId":"cec"},{"id":"cec:568","latitude":55.9315393143279,"longitude":-3.10735233579698,"name":"Lawhouse Toll by Home Bargains","properties":{"FID":568,"eastings":330913,"northings":671496,"bicycle_pa":"stands","capacity":8,"covered":"yes","access":" ","fee":" ","operator":" ","CECLand":" ","nameSource":"landmark"},"sourceId":"cec"},{"id":"cec:576","latitude":55.9532760350804,"longitude":-3.11417115453821,"name":"Bath Street near Bath Street Lane","properties":{"FID":576,"eastings":330526,"northings":673922,"bicycle_pa":"stands","capacity":6,"covered":"no","access":" ","fee":" ","operator":" ","CECLand":" ","nameSource":"junction"},"sourceId":"cec"},{"id":"cec:607","latitude":55.9549130328997,"longitude":-3.11794979276275,"name":"Bridge Street near Portobello High Street","properties":{"FID":607,"eastings":330293,"northings":674108,"bicycle_pa":"stands","capacity":6,"covered":"no","access":" ","fee":" ","operator":" ","CECLand":"Y","nameSource":"junction"},"sourceId":"cec"},{"id":"cec:613","latitude":55.9545194974492,"longitude":-3.10980255794635,"name":"Promenade near Bath Street","properties":{"FID":613,"eastings":330801,"northings":674056,"bicycle_pa":"stands","capacity":6,"covered":"no","access":" ","fee":" ","operator":" ","CECLand":"Y","nameSource":"junction"},"sourceId":"cec"},{"id":"cec:614","latitude":55.9520240518217,"longitude":-3.10353364632864,"name":"Laing Terrace near Promenade","properties":{"FID":614,"eastings":331188,"northings":673772,"bicycle_pa":"stands","capacity":10,"covered":"no","access":" ","fee":" ","operator":" ","CECLand":"Y","nameSource":"junction"},"sourceId":"cec"},{"id":"cec:615","latitude":55.9509978472319,"longitude":-3.10073406406056,"name":"Promenade near Brunstane Road North","properties":{"FID":615,"eastings":331361,"northings":673655,"bicycle_pa":"stands","capacity":6,"covered":"no","access":" ","fee":" ","operator":" ","CECLand":"Y","nameSource":"junction"},"sourceId":"cec"},{"id":"cec:616","latitude":55.9505939324987,"longitude":-3.09968171397121,"name":"Bedford Terrace near Promenade","properties":{"FID":616,"eastings":331426,"northings":673609,"bicycle_pa":"stands","capacity":6,"covered":"no","access":" ","fee":" ","operator":" ","CECLand":"Y","nameSource":"junction"},"sourceId":"cec"},{"id":"cec:637","latitude":55.9544140117207,"longitude":-3.10954329532455,"name":"Promenade near Marlborough Street","properties":{"FID":637,"eastings":330817,"northings":674044,"bicycle_pa":"stands","capacity":6,"covered":"no","access":" ","fee":" ","operator":" ","CECLand":"Y","nameSource":"junction"},"sourceId":"cec"},{"id":"cec:656","latitude":55.9611796770268,"longitude":-3.16312553459277,"name":"West Kilnacre cycle parking","properties":{"FID":656,"eastings":327484,"northings":674852,"bicycle_pa":"stands","capacity":6,"covered":" ","access":" ","fee":" ","operator":" ","CECLand":" ","nameSource":"street"},"sourceId":"cec"},{"id":"cec:657","latitude":55.9615561920175,"longitude":-3.16321692059348,"name":"West Kilnacre near Lochend Butterfly Way","properties":{"FID":657,"eastings":327479,"northings":674894,"bicycle_pa":"stands","capacity":8,"covered":" ","access":" ","fee":" ","operator":" ","CECLand":" ","nameSource":"junction"},"sourceId":"cec"},{"id":"cec:695","latitude":55.9441353472198,"longitude":-3.11546170489902,"name":"Park Avenue near Milton Road","properties":{"FID":695,"eastings":330429,"northings":672906,"bicycle_pa":" ","capacity":96,"covered":"yes","access":"private","fee":" ","operator":" ","CECLand":"Y","nameSource":"junction"},"sourceId":"cec"},{"id":"cec:696","latitude":55.9441924355667,"longitude":-3.11312573485209,"name":"Milton Road near Bailie Place","properties":{"FID":696,"eastings":330575,"northings":672910,"bicycle_pa":" ","capacity":48,"covered":"yes","access":"yes","fee":" ","operator":" ","CECLand":"Y","nameSource":"junction"},"sourceId":"cec"},{"id":"cec:697","latitude":55.9343373056747,"longitude":-3.11887706285124,"name":"Paterson Place near Niddrie Mains Road","properties":{"FID":697,"eastings":330198,"northings":671819,"bicycle_pa":"stands","capacity":10,"covered":"no","access":" ","fee":" ","operator":" ","CECLand":" ","nameSource":"junction"},"sourceId":"cec"},{"id":"cec:698","latitude":55.9344452468356,"longitude":-3.11886417586444,"name":"Paterson Place near Niddrie Mains Road","properties":{"FID":698,"eastings":330199,"northings":671831,"bicycle_pa":"stands","capacity":4,"covered":"no","access":" ","fee":" ","operator":" ","CECLand":"Y","nameSource":"junction"},"sourceId":"cec"},{"id":"cec:699","latitude":55.9344604485015,"longitude":-3.11916874952275,"name":"Paterson Place near Niddrie Mains Road","properties":{"FID":699,"eastings":330180,"northings":671833,"bicycle_pa":"stands","capacity":4,"covered":"no","access":" ","fee":" ","operator":" ","CECLand":"Y","nameSource":"junction"},"sourceId":"cec"},{"id":"cec:700","latitude":55.9347015335415,"longitude":-3.11933579148518,"name":"Paterson Place cycle parking","properties":{"FID":700,"eastings":330170,"northings":671860,"bicycle_pa":"stands","capacity":4,"covered":"no","access":" ","fee":" ","operator":" ","CECLand":" ","nameSource":"street"},"sourceId":"cec"},{"id":"cec:701","latitude":55.9349534933208,"longitude":-3.11929505558244,"name":"Paterson Place cycle parking","properties":{"FID":701,"eastings":330173,"northings":671888,"bicycle_pa":"stands","capacity":4,"covered":"no","access":" ","fee":" ","operator":" ","CECLand":" ","nameSource":"street"},"sourceId":"cec"},{"id":"cec:702","latitude":55.9351747198473,"longitude":-3.11966962139402,"name":"Paterson Place by Niddrie Community Church","properties":{"FID":702,"eastings":330150,"northings":671913,"bicycle_pa":"stands","capacity":6,"covered":"no","access":" ","fee":" ","operator":" ","CECLand":"Y","nameSource":"landmark"},"sourceId":"cec"},{"id":"cec:729","latitude":55.9560944754099,"longitude":-3.13806800117216,"name":"Craigentinny Avenue near Portobello Road","properties":{"FID":729,"eastings":329039,"northings":674260,"bicycle_pa":"stands","capacity":4,"covered":"no","access":"yes","fee":" ","operator":" ","CECLand":"Y","nameSource":"junction"},"sourceId":"cec"},{"id":"cec:730","latitude":55.9559285988203,"longitude":-3.11990096080805,"name":"Portobello High Street near Westbank Street","properties":{"FID":730,"eastings":330173,"northings":674223,"bicycle_pa":"stands","capacity":10,"covered":"yes","access":" ","fee":" ","operator":" ","CECLand":" ","nameSource":"junction"},"sourceId":"cec"},{"id":"cec:737","latitude":55.9413525310395,"longitude":-3.14743333055997,"name":"Old Church Lane near The Causeway","properties":{"FID":737,"eastings":328427,"northings":672629,"bicycle_pa":" ","capacity":4,"covered":" ","access":" ","fee":" ","operator":" ","CECLand":" ","nameSource":"junction"},"sourceId":"cec"},{"id":"cec:740","latitude":55.9404503089932,"longitude":-3.11260201051362,"name":"Innocent Cycle Path cycle parking","properties":{"FID":740,"eastings":330601,"northings":672493,"bicycle_pa":"stands","capacity":8,"covered":"no","access":" ","fee":" ","operator":" ","CECLand":"Y","nameSource":"street"},"sourceId":"cec"},{"id":"cec:761","latitude":55.932681249626,"longitude":-3.13293084259628,"name":"Niddrie Mains Road near Craigmillar Castle Avenue","properties":{"FID":761,"eastings":329317,"northings":671649,"bicycle_pa":"wall_loops","capacity":10,"covered":"no","access":" ","fee":" ","operator":"Lidl","CECLand":" ","nameSource":"junction"},"sourceId":"cec"},{"id":"cec:79","latitude":55.9571101541496,"longitude":-3.16399649306785,"name":"Marionville Road near Moray Park","properties":{"FID":79,"eastings":327422,"northings":674400,"bicycle_pa":" ","capacity":6,"covered":" ","access":" ","fee":" ","operator":" ","CECLand":" ","nameSource":"junction"},"sourceId":"cec"},{"id":"cec:80","latitude":55.9595096733583,"longitude":-3.15054976227698,"name":"Restalrig Drive near Marionville Road","properties":{"FID":80,"eastings":328266,"northings":674653,"bicycle_pa":"wall_loops","capacity":4,"covered":"no","access":" ","fee":" ","operator":" ","CECLand":"Y","nameSource":"junction"},"sourceId":"cec"},{"id":"cec:814","latitude":55.936083217268,"longitude":-3.10464886389117,"name":"EDETA Training Services cycle parking","properties":{"FID":814,"eastings":331090,"northings":671999,"bicycle_pa":"stands","capacity":6,"covered":" ","access":" ","fee":" ","operator":" ","CECLand":" ","nameSource":"landmark"},"sourceId":"cec"},{"id":"cec:874","latitude":55.9266831467371,"longitude":-3.1480073549835,"name":"The Inch cycle parking","properties":{"FID":874,"eastings":328364,"northings":670997,"bicycle_pa":"stands","capacity":4,"covered":"no","access":" ","fee":" ","operator":" ","CECLand":"Y","nameSource":"place"},"sourceId":"cec"},{"id":"cec:907","latitude":55.952315463056,"longitude":-3.1041024356925,"name":"John Street near Promenade","properties":{"FID":907,"eastings":331153,"northings":673805,"bicycle_pa":"stands","capacity":10,"covered":"no","access":" ","fee":" ","operator":" ","CECLand":"Y","nameSource":"junction"},"sourceId":"cec"},{"id":"cec:948","latitude":55.9268435337449,"longitude":-3.15391761113087,"name":"Bridgend Cottages by Bridgend Farmhouse Cafe","properties":{"FID":948,"eastings":327995,"northings":671021,"bicycle_pa":"stands","capacity":18,"covered":"no","access":" ","fee":" ","operator":" ","CECLand":"Y","nameSource":"landmark"},"sourceId":"cec"},{"id":"cec:962","latitude":55.9491546139619,"longitude":-3.12473361086168,"name":"Hamilton Drive cycle parking","properties":{"FID":962,"eastings":329859,"northings":673474,"bicycle_pa":"anchors","capacity":3,"covered":"no","access":"yes","fee":"no","operator":" ","CECLand":" ","nameSource":"street"},"sourceId":"cec"},{"id":"cec:963","latitude":55.949344791759,"longitude":-3.12161657772413,"name":"Hamilton Terrace near Hamilton Drive","properties":{"FID":963,"eastings":330054,"northings":673492,"bicycle_pa":"anchors","capacity":3,"covered":"no","access":"yes","fee":"no","operator":" ","CECLand":" ","nameSource":"junction"},"sourceId":"cec"},{"id":"cec:975","latitude":55.9435544421231,"longitude":-3.11808676668403,"name":"Durham Road near Durham Road South","properties":{"FID":975,"eastings":330264,"northings":672844,"bicycle_pa":"stands","capacity":6,"covered":"no","access":" ","fee":" ","operator":" ","CECLand":"Y","nameSource":"junction"},"sourceId":"cec"},{"id":"cec:976","latitude":55.9564936008762,"longitude":-3.12494637210468,"name":"East Telferton by Royal Mail Edinburgh East Delivery Office","properties":{"FID":976,"eastings":329859,"northings":674291,"bicycle_pa":"rack","capacity":10,"covered":"yes","access":" ","fee":" ","operator":" ","CECLand":"Y","nameSource":"landmark"},"sourceId":"cec"},{"id":"cec:989","latitude":55.9342438732077,"longitude":-3.10134706484162,"name":"Newcraighall Road by Starbucks","properties":{"FID":989,"eastings":331293,"northings":671791,"bicycle_pa":"stands","capacity":8,"covered":"yes","access":" ","fee":" ","operator":" ","CECLand":" ","nameSource":"landmark"},"sourceId":"cec"},{"id":"cec:990","latitude":55.9342984726988,"longitude":-3.1042778352527,"name":"ProCook cycle parking","properties":{"FID":990,"eastings":331110,"northings":671800,"bicycle_pa":"stands","capacity":6,"covered":"no","access":" ","fee":" ","operator":" ","CECLand":" ","nameSource":"landmark"},"sourceId":"cec"},{"id":"cec:991","latitude":55.9352284224498,"longitude":-3.10177522866379,"name":"O2 cycle parking","properties":{"FID":991,"eastings":331268,"northings":671901,"bicycle_pa":"stands","capacity":4,"covered":"no","access":" ","fee":" ","operator":" ","CECLand":" ","nameSource":"landmark"},"sourceId":"cec"},{"id":"cec:992","latitude":55.9352366889598,"longitude":-3.10185549910458,"name":"Barrhead Travel cycle parking","properties":{"FID":992,"eastings":331263,"northings":671902,"bicycle_pa":"stands","capacity":6,"covered":"no","access":" ","fee":" ","operator":" ","CECLand":" ","nameSource":"landmark"},"sourceId":"cec"},{"id":"cec:993","latitude":55.9352678907994,"longitude":-3.10238462030987,"name":"Greggs cycle parking","properties":{"FID":993,"eastings":331230,"northings":671906,"bicycle_pa":"stands","capacity":8,"covered":"yes","access":" ","fee":" ","operator":" ","CECLand":" ","nameSource":"landmark"},"sourceId":"cec"},{"id":"cec:999","latitude":55.9541193926135,"longitude":-3.11629336978096,"name":"Adelphi Grove near Portobello High Street","properties":{"FID":999,"eastings":330395,"northings":674018,"bicycle_pa":"stands","capacity":4,"covered":"no","access":" ","fee":" ","operator":" ","CECLand":"Y","nameSource":"junction"},"sourceId":"cec"},{"id":"osm:node:11465541291","latitude":55.9325853,"longitude":-3.1320528,"name":"Wauchope Avenue near Craigmillar Castle Avenue","properties":{"access":"unknown","bicycle_pa":"","capacity":0,"covered":"","fee":"","operator":"","nameSource":"junction"},"sourceId":"osm"},{"id":"osm:node:11497396471","latitude":55.9599801,"longitude":-3.1382269,"name":"Britwell Crescent near Craigentinny Road","properties":{"access":"unknown","bicycle_pa":"stands","capacity":6,"covered":"no","fee":"no","operator":"","nameSource":"junction"},"sourceId":"osm"},{"id":"osm:node:11950039663","latitude":55.9415601,"longitude":-3.1455738,"name":"Duddingston Road West near Old Church Lane","properties":{"access":"unknown","bicycle_pa":"stands","capacity":4,"covered":"no","fee":"","operator":"","nameSource":"junction"},"sourceId":"osm"},{"id":"osm:node:12153618443","latitude":55.9460256,"longitude":-3.1392095,"name":"Lady Nairne Crescent near Lady Nairne Loan","properties":{"access":"customers","bicycle_pa":"stands","capacity":6,"covered":"yes","fee":"yes","operator":"Cyclehoop","nameSource":"junction"},"sourceId":"osm"},{"id":"osm:node:12153618444","latitude":55.9463208,"longitude":-3.1350202,"name":"Duddingston Mills near Willowbrae Road","properties":{"access":"customers","bicycle_pa":"stands","capacity":6,"covered":"yes","fee":"yes","operator":"Cyclehoop","nameSource":"junction"},"sourceId":"osm"},{"id":"osm:node:12453120338","latitude":55.9539493,"longitude":-3.1094823,"name":"Marlborough Street near Straiton Place","properties":{"access":"customers","bicycle_pa":"stands","capacity":12,"covered":"yes","fee":"yes","operator":"Cyclehoop","nameSource":"junction"},"sourceId":"osm"},{"id":"osm:node:12583133666","latitude":55.9520891,"longitude":-3.1083201,"name":"Bellfield Street by Bellfield Community Hub","properties":{"access":"yes","bicycle_pa":"stands","capacity":10,"covered":"no","fee":"no","operator":"","nameSource":"landmark"},"sourceId":"osm"},{"id":"osm:node:1259828940","latitude":55.9396486,"longitude":-3.0803455,"name":"Stables Cafe cycle parking","properties":{"access":"unknown","bicycle_pa":"","capacity":6,"covered":"","fee":"","operator":"","nameSource":"landmark"},"sourceId":"osm"},{"id":"osm:node:12736431591","latitude":55.9562173,"longitude":-3.1332356,"name":"Moira Park near Portobello Road","properties":{"access":"yes","bicycle_pa":"stands","capacity":4,"covered":"no","fee":"no","operator":"","nameSource":"junction"},"sourceId":"osm"},{"id":"osm:node:12741115215","latitude":55.952811,"longitude":-3.1105707,"name":"Marlborough Street by Portobello United Reformed Church","properties":{"access":"customers","bicycle_pa":"stands","capacity":6,"covered":"yes","fee":"yes","operator":"Cyclehoop","nameSource":"landmark"},"sourceId":"osm"},{"id":"osm:node:12741115216","latitude":55.9531127,"longitude":-3.1101834,"name":"Marlborough Street near Regent Street Lane","properties":{"access":"customers","bicycle_pa":"stands","capacity":6,"covered":"yes","fee":"yes","operator":"Cyclehoop","nameSource":"junction"},"sourceId":"osm"},{"id":"osm:node:12741126322","latitude":55.9547197,"longitude":-3.1108122,"name":"Bath Street near Bath Place","properties":{"access":"customers","bicycle_pa":"stands","capacity":12,"covered":"yes","fee":"yes","operator":"Cyclehoop","nameSource":"junction"},"sourceId":"osm"},{"id":"osm:node:12809835974","latitude":55.9331323,"longitude":-3.1053007,"name":"A6095 near Newcraighall Road","properties":{"access":"unknown","bicycle_pa":"stands","capacity":4,"covered":"no","fee":"","operator":"","nameSource":"junction"},"sourceId":"osm"},{"id":"osm:node:12810018792","latitude":55.9326839,"longitude":-3.1078052,"name":"Newcraighall Road by The Leith Collective","properties":{"access":"unknown","bicycle_pa":"stands","capacity":4,"covered":"no","fee":"","operator":"","nameSource":"landmark"},"sourceId":"osm"},{"id":"osm:node:12810018794","latitude":55.9320624,"longitude":-3.107807,"name":"Lawhouse Toll by Superdrug","properties":{"access":"unknown","bicycle_pa":"stands","capacity":6,"covered":"no","fee":"","operator":"","nameSource":"landmark"},"sourceId":"osm"},{"id":"osm:node:13094139349","latitude":55.9285913,"longitude":-3.1241988,"name":"Pringle Terrace near Greendykes Road","properties":{"access":"unknown","bicycle_pa":"stands","capacity":6,"covered":"","fee":"","operator":"","nameSource":"junction"},"sourceId":"osm"},{"id":"osm:node:13116890842","latitude":55.9598553,"longitude":-3.1468194,"name":"Loaning Road by Craigentinny Community Centre","properties":{"access":"yes","bicycle_pa":"stands","capacity":6,"covered":"","fee":"no","operator":"","nameSource":"landmark"},"sourceId":"osm"},{"id":"osm:node:13123379151","latitude":55.9680379,"longitude":-3.1396248,"name":"Seafield Road by Lidl","properties":{"access":"customers","bicycle_pa":"stands","capacity":10,"covered":"yes","fee":"","operator":"","nameSource":"landmark"},"sourceId":"osm"},{"id":"osm:node:13125282780","latitude":55.9425926,"longitude":-3.1486736,"name":"The Measured Walk near The Pend","properties":{"access":"unknown","bicycle_pa":"wall_loops","capacity":4,"covered":"no","fee":"","operator":"","nameSource":"junction"},"sourceId":"osm"},{"id":"osm:node:13239359836","latitude":55.9552074,"longitude":-3.1422462,"name":"Portobello Road by Piershill Library","properties":{"access":"unknown","bicycle_pa":"rack","capacity":6,"covered":"no","fee":"no","operator":"","nameSource":"landmark"},"sourceId":"osm"},{"id":"osm:node:13248073902","latitude":55.9526932,"longitude":-3.1146904,"name":"Brighton Place near Bath Street","properties":{"access":"yes","bicycle_pa":"stands","capacity":6,"covered":"no","fee":"no","operator":"CEC","nameSource":"junction"},"sourceId":"osm"},{"id":"osm:node:13250622984","latitude":55.9573596,"longitude":-3.149439,"name":"Restalrig Avenue near Restalrig Road South","properties":{"access":"yes","bicycle_pa":"stands","capacity":1,"covered":"no","fee":"no","operator":"","nameSource":"junction"},"sourceId":"osm"},{"id":"osm:node:13591279808","latitude":55.955862,"longitude":-3.1237893,"name":"Sir Harry Lauder Road by The Climbing Hangar","properties":{"access":"unknown","bicycle_pa":"","capacity":0,"covered":"yes","fee":"","operator":"","nameSource":"landmark"},"sourceId":"osm"},{"id":"osm:node:13709855129","latitude":55.9621459,"longitude":-3.1606034,"name":"Lochend Park cycle parking","properties":{"access":"yes","bicycle_pa":"stands","capacity":6,"covered":"no","fee":"no","operator":"","nameSource":"street"},"sourceId":"osm"},{"id":"osm:node:13905191192","latitude":55.9615489,"longitude":-3.1434608,"name":"Craigentinny Road near Restalrig Drive","properties":{"access":"customers","bicycle_pa":"stands","capacity":6,"covered":"yes","fee":"yes","operator":"","nameSource":"junction"},"sourceId":"osm"},{"id":"osm:node:8200239703","latitude":55.9377784,"longitude":-3.0806917,"name":"Newhailes Road cycle parking","properties":{"access":"unknown","bicycle_pa":"stands","capacity":10,"covered":"","fee":"","operator":"","nameSource":"street"},"sourceId":"osm"},{"id":"osm:node:8514471752","latitude":55.954516,"longitude":-3.1172747,"name":"Portobello High Street near Pipe Street","properties":{"access":"customers","bicycle_pa":"shed","capacity":6,"covered":"yes","fee":"yes","operator":"Cyclehoop","nameSource":"junction"},"sourceId":"osm"},{"id":"osm:node:8514471753","latitude":55.9545449,"longitude":-3.1173237,"name":"Portobello High Street near Pipe Street","properties":{"access":"customers","bicycle_pa":"shed","capacity":6,"covered":"yes","fee":"yes","operator":"Cyclehoop","nameSource":"junction"},"sourceId":"osm"},{"id":"osm:node:8632181395","latitude":55.9527527,"longitude":-3.105687,"name":"Pittville Street near Promenade","properties":{"access":"customers","bicycle_pa":"stands","capacity":12,"covered":"yes","fee":"yes","operator":"Cyclehoop","nameSource":"junction"},"sourceId":"osm"},{"id":"osm:node:9759795775","latitude":55.9516121,"longitude":-3.1027479,"name":"Arran Place near James Street","properties":{"access":"customers","bicycle_pa":"stands","capacity":12,"covered":"yes","fee":"yes","operator":"Cyclehoop","nameSource":"junction"},"sourceId":"osm"},{"id":"osm:way:1236659485","latitude":55.97162648,"longitude":-3.15522432,"name":"South Carron Wynd near Salamander Yards","properties":{"access":"private","bicycle_pa":"shed","capacity":0,"covered":"","fee":"","operator":"","nameSource":"junction"},"sourceId":"osm"},{"id":"osm:way:1270866759","latitude":55.95576136666667,"longitude":-3.159546283333333,"name":"London Road by McDonald's","properties":{"access":"private","bicycle_pa":"shed","capacity":0,"covered":"","fee":"","operator":"","nameSource":"landmark"},"sourceId":"osm"},{"id":"osm:way:1460906168","latitude":55.9323114,"longitude":-3.13534674,"name":"Seacole Square near Niddrie Mains Road","properties":{"access":"unknown","bicycle_pa":"lockers","capacity":0,"covered":"yes","fee":"","operator":"City of Edinburgh Council","nameSource":"junction"},"sourceId":"osm"},{"id":"osm:way:337580545","latitude":55.95570921666666,"longitude":-3.1579274833333337,"name":"Clockmill Lane near London Road","properties":{"access":"private","bicycle_pa":"shed","capacity":0,"covered":"","fee":"","operator":"","nameSource":"junction"},"sourceId":"osm"}],"schemaVersion":1}
