{"key":"12/2091/1550","points":[{"categories":["hire"],"id":"osm:node:11153400606","latitude":40.0022276,"longitude":3.8427742,"name":"velo joan","properties":{"operator":"velo joan"},"sourceId":"osm"},{"categories":["shop"],"id":"osm:node:11357854842","latitude":40.0008942,"longitude":3.8414319,"name":"Procycling Menorca","properties":{},"sourceId":"osm"},{"categories":["hire"],"id":"osm:node:13152566033","latitude":40.0003963,"longitude":3.8425737,"name":"Baléar/rentals","properties":{"website":"https://www.alquileresbalear.com/"},"sourceId":"osm"},{"categories":["shop"],"id":"osm:node:1705399992","latitude":39.9980747,"longitude":3.8339044,"name":"Tot Velo","properties":{},"sourceId":"osm"},{"categories":["hire"],"id":"osm:node:1963309155","latitude":39.9826542,"longitude":3.8365359,"name":"Cycle hire","properties":{},"sourceId":"osm"}],"schemaVersion":2}
