{"key":"12/2023/1251","points":[{"id":"osm:node:10045855622","latitude":57.1569701,"longitude":-2.1344151,"name":"Cornhill Road near Ashgrove Road West","properties":{"access":"unknown","bicycle_pa":"stands","capacity":10,"covered":"no","fee":"","operator":"","nameSource":"junction"},"sourceId":"osm"},{"id":"osm:node:10046113153","latitude":57.1567177,"longitude":-2.1349668,"name":"Ashgrove Road West cycle parking","properties":{"access":"yes","bicycle_pa":"lockers","capacity":10,"covered":"","fee":"no","operator":"University of Aberdeen","nameSource":"street"},"sourceId":"osm"},{"id":"osm:node:10046113154","latitude":57.1567536,"longitude":-2.1350127,"name":"Ashgrove Road West cycle parking","properties":{"access":"yes","bicycle_pa":"shed","capacity":10,"covered":"","fee":"no","operator":"","nameSource":"street"},"sourceId":"osm"},{"id":"osm:node:10051141458","latitude":57.1528919,"longitude":-2.1349834,"name":"Westburn Road by Topiary Giraffes","properties":{"access":"unknown","bicycle_pa":"stands","capacity":0,"covered":"yes","fee":"","operator":"NHS Grampian","nameSource":"landmark"},"sourceId":"osm"},{"id":"osm:node:10124931708","latitude":57.1525425,"longitude":-2.1443613,"name":"Westburn Road by Elmbank Group Practice","properties":{"access":"customers","bicycle_pa":"","capacity":0,"covered":"yes","fee":"","operator":"","nameSource":"landmark"},"sourceId":"osm"},{"id":"osm:node:1045551085","latitude":57.1494135,"longitude":-2.122872,"name":"Rosemount Place near Craigie Loanings","properties":{"access":"yes","bicycle_pa":"stands","capacity":4,"covered":"no","fee":"no","operator":"","nameSource":"junction"},"sourceId":"osm"},{"id":"osm:node:10655442605","latitude":57.1441263,"longitude":-2.1278051,"name":"Fountainhall Road near Beaconsfield Place","properties":{"access":"yes","bicycle_pa":"stands","capacity":10,"covered":"no","fee":"no","operator":"","nameSource":"junction"},"sourceId":"osm"},{"id":"osm:node:1095626685","latitude":57.1583895,"longitude":-2.1160914,"name":"Berryden Road near B986","properties":{"access":"unknown","bicycle_pa":"wall_loops","capacity":8,"covered":"no","fee":"","operator":"","nameSource":"junction"},"sourceId":"osm"},{"id":"osm:node:1095626745","latitude":57.1585342,"longitude":-2.114584,"name":"Leslie Terrace by Starbucks","properties":{"access":"unknown","bicycle_pa":"stands","capacity":8,"covered":"yes","fee":"","operator":"","nameSource":"landmark"},"sourceId":"osm"},{"id":"osm:node:1104879066","latitude":57.1495975,"longitude":-2.1172446,"name":"Rosemount Place near Esslemont Avenue","properties":{"access":"unknown","bicycle_pa":"stands","capacity":4,"covered":"no","fee":"","operator":"","nameSource":"junction"},"sourceId":"osm"},{"id":"osm:node:1179585913","latitude":57.1494645,"longitude":-2.1187251,"name":"Wallfield Crescent near Rosemount Place","properties":{"access":"unknown","bicycle_pa":"stands","capacity":1,"covered":"no","fee":"","operator":"","nameSource":"junction"},"sourceId":"osm"},{"id":"osm:node:11822454187","latitude":57.1374693,"longitude":-2.1132035,"name":"Hardgate near Fonthill Road","properties":{"access":"yes","bicycle_pa":"stands","capacity":4,"covered":"no","fee":"no","operator":"","nameSource":"junction"},"sourceId":"osm"},{"id":"osm:node:11919442326","latitude":57.1389399,"longitude":-2.1783747,"name":"Hazlehead Park cycle parking","properties":{"access":"unknown","bicycle_pa":"stands","capacity":12,"covered":"no","fee":"","operator":"","nameSource":"landmark"},"sourceId":"osm"},{"id":"osm:node:11919463139","latitude":57.1390124,"longitude":-2.1783057,"name":"Hazlehead Park cycle parking","properties":{"access":"unknown","bicycle_pa":"stands","capacity":6,"covered":"no","fee":"","operator":"","nameSource":"landmark"},"sourceId":"osm"},{"id":"osm:node:12023394057","latitude":57.1372901,"longitude":-2.1134005,"name":"Fonthill Road near Hardgate","properties":{"access":"unknown","bicycle_pa":"stands","capacity":10,"covered":"no","fee":"","operator":"","nameSource":"junction"},"sourceId":"osm"},{"id":"osm:node:12113088362","latitude":57.1612575,"longitude":-2.1138477,"name":"bensons for beds cycle parking","properties":{"access":"private","bicycle_pa":"lockers","capacity":0,"covered":"","fee":"","operator":"","nameSource":"landmark"},"sourceId":"osm"},{"id":"osm:node:12335303151","latitude":57.138526,"longitude":-2.1303938,"name":"C127C near Forest Avenue","properties":{"access":"unknown","bicycle_pa":"stands","capacity":4,"covered":"no","fee":"","operator":"","nameSource":"junction"},"sourceId":"osm"},{"id":"osm:node:12465376576","latitude":57.1439537,"longitude":-2.1111464,"name":"Rose Street near Thistle Street","properties":{"access":"unknown","bicycle_pa":"stands","capacity":6,"covered":"no","fee":"","operator":"","nameSource":"junction"},"sourceId":"osm"},{"id":"osm:node:12522795201","latitude":57.1545573,"longitude":-2.139503,"name":"Foresterhill Road by Aberdeen Royal Infirmary (Southbound)","properties":{"access":"yes","bicycle_pa":"informal","capacity":0,"covered":"no","fee":"","operator":"","nameSource":"landmark"},"sourceId":"osm"},{"id":"osm:node:12522798301","latitude":57.1550775,"longitude":-2.1371615,"name":"The Stock Shop cycle parking","properties":{"access":"yes","bicycle_pa":"stands","capacity":10,"covered":"no","fee":"","operator":"","nameSource":"landmark"},"sourceId":"osm"},{"id":"osm:node:12872213298","latitude":57.171869,"longitude":-2.1149637,"name":"Hayton Road near Gort Road","properties":{"access":"unknown","bicycle_pa":"stands","capacity":10,"covered":"no","fee":"no","operator":"","nameSource":"junction"},"sourceId":"osm"},{"id":"osm:node:12872213299","latitude":57.1719043,"longitude":-2.1149533,"name":"Hayton Road near Gort Road","properties":{"access":"unknown","bicycle_pa":"stands","capacity":10,"covered":"no","fee":"no","operator":"","nameSource":"junction"},"sourceId":"osm"},{"id":"osm:node:12872213300","latitude":57.1718593,"longitude":-2.1146177,"name":"Hayton Road near Gort Road","properties":{"access":"unknown","bicycle_pa":"stands","capacity":6,"covered":"no","fee":"no","operator":"","nameSource":"junction"},"sourceId":"osm"},{"id":"osm:node:12942548236","latitude":57.1545319,"longitude":-2.1207381,"name":"Cornhill Road cycle parking","properties":{"access":"unknown","bicycle_pa":"stands","capacity":8,"covered":"no","fee":"","operator":"","nameSource":"street"},"sourceId":"osm"},{"id":"osm:node:12979402407","latitude":57.1495732,"longitude":-2.1195132,"name":"Rosemount Place near Thomson Street","properties":{"access":"unknown","bicycle_pa":"stands","capacity":5,"covered":"no","fee":"","operator":"","nameSource":"junction"},"sourceId":"osm"},{"id":"osm:node:13020438957","latitude":57.1566516,"longitude":-2.1151817,"name":"Berryden Road by Burger King","properties":{"access":"unknown","bicycle_pa":"stands","capacity":0,"covered":"yes","fee":"","operator":"","nameSource":"landmark"},"sourceId":"osm"},{"id":"osm:node:13072211701","latitude":57.1492915,"longitude":-2.1759406,"name":"Eday Road near Shapinsay Road","properties":{"access":"permissive","bicycle_pa":"lockers","capacity":6,"covered":"yes","fee":"","operator":"","nameSource":"junction"},"sourceId":"osm"},{"id":"osm:node:13072213001","latitude":57.148573,"longitude":-2.1739178,"name":"Eday Road cycle parking","properties":{"access":"permissive","bicycle_pa":"lockers","capacity":5,"covered":"yes","fee":"","operator":"","nameSource":"street"},"sourceId":"osm"},{"id":"osm:node:13072213901","latitude":57.1473809,"longitude":-2.1729058,"name":"Woodend Hospital cycle parking","properties":{"access":"yes","bicycle_pa":"stands","capacity":10,"covered":"no","fee":"","operator":"","nameSource":"landmark"},"sourceId":"osm"},{"id":"osm:node:13072219501","latitude":57.1476824,"longitude":-2.1709295,"name":"Woodend Hospital cycle parking","properties":{"access":"yes","bicycle_pa":"rack","capacity":3,"covered":"no","fee":"","operator":"","nameSource":"landmark"},"sourceId":"osm"},{"id":"osm:node:13072224101","latitude":57.1481854,"longitude":-2.1741188,"name":"Woodend cycle parking","properties":{"access":"permissive","bicycle_pa":"lockers","capacity":3,"covered":"yes","fee":"","operator":"","nameSource":"place"},"sourceId":"osm"},{"id":"osm:node:13316278680","latitude":57.1596968,"longitude":-2.1414804,"name":"Brierfield Terrace by Aldi","properties":{"access":"unknown","bicycle_pa":"","capacity":0,"covered":"","fee":"","operator":"","nameSource":"landmark"},"sourceId":"osm"},{"id":"osm:node:13413518269","latitude":57.1595615,"longitude":-2.1418857,"name":"Brierfield Terrace by Aldi","properties":{"access":"customers","bicycle_pa":"stands","capacity":8,"covered":"no","fee":"","operator":"","nameSource":"landmark"},"sourceId":"osm"},{"id":"osm:node:13695446007","latitude":57.1527099,"longitude":-2.1562473,"name":"Whitemyres Avenue by The Castle","properties":{"access":"unknown","bicycle_pa":"","capacity":6,"covered":"","fee":"","operator":"","nameSource":"landmark"},"sourceId":"osm"},{"id":"osm:node:13826743901","latitude":57.1558165,"longitude":-2.1625096,"name":"Greenfern Place near Greenfern Road","properties":{"access":"unknown","bicycle_pa":"","capacity":0,"covered":"","fee":"","operator":"","nameSource":"junction"},"sourceId":"osm"},{"id":"osm:node:13953937083","latitude":57.1441668,"longitude":-2.1101153,"name":"Thistle Street near Chapel Street","properties":{"access":"yes","bicycle_pa":"stands","capacity":4,"covered":"no","fee":"no","operator":"Aberdeen City Council","nameSource":"junction"},"sourceId":"osm"},{"id":"osm:node:1454087581","latitude":57.1505949,"longitude":-2.1123303,"name":"Rosemount Place near Mount Street","properties":{"access":"unknown","bicycle_pa":"stands","capacity":2,"covered":"no","fee":"","operator":"","nameSource":"junction"},"sourceId":"osm"},{"id":"osm:node:2616242398","latitude":57.145644,"longitude":-2.180658,"name":"Westhill Cycle Path cycle parking","properties":{"access":"unknown","bicycle_pa":"stands","capacity":6,"covered":"no","fee":"","operator":"","nameSource":"street"},"sourceId":"osm"},{"id":"osm:node:2625962540","latitude":57.1436779,"longitude":-2.1097482,"name":"Chapel Street near Union Street","properties":{"access":"yes","bicycle_pa":"stands","capacity":4,"covered":"no","fee":"no","operator":"Aberdeen City Council","nameSource":"junction"},"sourceId":"osm"},{"id":"osm:node:2779870218","latitude":57.1673482,"longitude":-2.1193112,"name":"Great Northern Road near Barron Street","properties":{"access":"unknown","bicycle_pa":"stands","capacity":4,"covered":"no","fee":"","operator":"","nameSource":"junction"},"sourceId":"osm"},{"id":"osm:node:2781144078","latitude":57.171069,"longitude":-2.1272337,"name":"Great Northern Road near Queen Street","properties":{"access":"unknown","bicycle_pa":"stands","capacity":4,"covered":"","fee":"","operator":"","nameSource":"junction"},"sourceId":"osm"},{"id":"osm:node:2895456455","latitude":57.1717974,"longitude":-2.1131499,"name":"Pennan Road cycle parking","properties":{"access":"unknown","bicycle_pa":"wall_loops","capacity":3,"covered":"yes","fee":"","operator":"","nameSource":"street"},"sourceId":"osm"},{"id":"osm:node:3682575621","latitude":57.1606143,"longitude":-2.112647,"name":"Bedford Road by bensons for beds","properties":{"access":"unknown","bicycle_pa":"stands","capacity":12,"covered":"","fee":"","operator":"","nameSource":"landmark"},"sourceId":"osm"},{"id":"osm:node:6197899004","latitude":57.1780081,"longitude":-2.1832267,"name":"Cloverfield Gardens cycle parking","properties":{"access":"private","bicycle_pa":"wall_loops","capacity":60,"covered":"yes","fee":"","operator":"Bucksburn Academy","nameSource":"street"},"sourceId":"osm"},{"id":"osm:node:6444087666","latitude":57.1735872,"longitude":-2.1490229,"name":"Haudagain Roundabout Bypass near Auchmill Road","properties":{"access":"unknown","bicycle_pa":"stands","capacity":16,"covered":"no","fee":"","operator":"","nameSource":"junction"},"sourceId":"osm"},{"id":"osm:node:6563335577","latitude":57.1741062,"longitude":-2.1869897,"name":"Middle Brae near Nether Brae","properties":{"access":"unknown","bicycle_pa":"stands","capacity":0,"covered":"no","fee":"","operator":"","nameSource":"junction"},"sourceId":"osm"},{"id":"osm:node:7090605128","latitude":57.1799958,"longitude":-2.1868445,"name":"Sclattie Park near Sclattie Roundabout","properties":{"access":"unknown","bicycle_pa":"stands","capacity":4,"covered":"no","fee":"","operator":"","nameSource":"junction"},"sourceId":"osm"},{"id":"osm:node:7235573476","latitude":57.1799086,"longitude":-2.1114837,"name":"Campus Two by Bin Enclosure","properties":{"access":"permissive","bicycle_pa":"stands","capacity":4,"covered":"no","fee":"no","operator":"","nameSource":"landmark"},"sourceId":"osm"},{"id":"osm:node:8291919245","latitude":57.1660965,"longitude":-2.1116124,"name":"St Machar Drive near St Machar Road","properties":{"access":"private","bicycle_pa":"","capacity":0,"covered":"","fee":"","operator":"","nameSource":"junction"},"sourceId":"osm"},{"id":"osm:node:8541436460","latitude":57.1619261,"longitude":-2.1167372,"name":"Clifton Road near A96","properties":{"access":"yes","bicycle_pa":"stands","capacity":10,"covered":"no","fee":"no","operator":"","nameSource":"junction"},"sourceId":"osm"},{"id":"osm:node:8555157883","latitude":57.1685052,"longitude":-2.1212514,"name":"Great Northern Road near Printfield Walk","properties":{"access":"unknown","bicycle_pa":"stands","capacity":10,"covered":"yes","fee":"","operator":"","nameSource":"junction"},"sourceId":"osm"},{"id":"osm:node:8592611643","latitude":57.1578925,"longitude":-2.1102285,"name":"George Street near Calsayseat Road","properties":{"access":"yes","bicycle_pa":"stands","capacity":10,"covered":"no","fee":"no","operator":"","nameSource":"junction"},"sourceId":"osm"},{"id":"osm:node:860554841","latitude":57.1431445,"longitude":-2.1258294,"name":"Albyn Place near Queen's Cross","properties":{"access":"unknown","bicycle_pa":"stands","capacity":14,"covered":"no","fee":"","operator":"","nameSource":"junction"},"sourceId":"osm"},{"id":"osm:node:860554955","latitude":57.1536785,"longitude":-2.1380891,"name":"Foresterhill Road by Pink Zone Café","properties":{"access":"staff","bicycle_pa":"lockers","capacity":0,"covered":"","fee":"","operator":"","nameSource":"landmark"},"sourceId":"osm"},{"id":"osm:node:860555157","latitude":57.1540421,"longitude":-2.1370096,"name":"Foresterhill Road cycle parking","properties":{"access":"staff","bicycle_pa":"lockers","capacity":25,"covered":"yes","fee":"","operator":"NHS Frampian","nameSource":"street"},"sourceId":"osm"},{"id":"osm:node:8617394166","latitude":57.157101,"longitude":-2.1356293,"name":"Ashgrove Road West cycle parking","properties":{"access":"unknown","bicycle_pa":"stands","capacity":10,"covered":"yes","fee":"","operator":"","nameSource":"street"},"sourceId":"osm"},{"id":"osm:node:864935173","latitude":57.1567953,"longitude":-2.1350462,"name":"Ashgrove Road West cycle parking","properties":{"access":"yes","bicycle_pa":"shed","capacity":10,"covered":"","fee":"no","operator":"","nameSource":"street"},"sourceId":"osm"},{"id":"osm:node:8812956110","latitude":57.1664966,"longitude":-2.1729548,"name":"Davidson Drive near Lintmill Terrace","properties":{"access":"unknown","bicycle_pa":"","capacity":0,"covered":"","fee":"","operator":"","nameSource":"junction"},"sourceId":"osm"},{"id":"osm:node:8994079307","latitude":57.1424726,"longitude":-2.1654338,"name":"Provost Graham Avenue near Hazlehead Crescent","properties":{"access":"private","bicycle_pa":"","capacity":0,"covered":"yes","fee":"no","operator":"","nameSource":"junction"},"sourceId":"osm"},{"id":"osm:node:9048154268","latitude":57.1412193,"longitude":-2.1132401,"name":"Holburn Street near Ashvale Place","properties":{"access":"unknown","bicycle_pa":"stands","capacity":4,"covered":"no","fee":"","operator":"","nameSource":"junction"},"sourceId":"osm"},{"id":"osm:node:9124509417","latitude":57.1573801,"longitude":-2.1457601,"name":"Oldcroft Place near Stockethill Avenue","properties":{"access":"yes","bicycle_pa":"stands","capacity":4,"covered":"no","fee":"no","operator":"","nameSource":"junction"},"sourceId":"osm"},{"id":"osm:node:9238507827","latitude":57.155392,"longitude":-2.1395952,"name":"Foresterhill Road cycle parking","properties":{"access":"staff","bicycle_pa":"shed","capacity":20,"covered":"yes","fee":"no","operator":"","nameSource":"street"},"sourceId":"osm"},{"id":"osm:node:9238508083","latitude":57.1542814,"longitude":-2.116804,"name":"Fulton Clinic cycle parking","properties":{"access":"staff","bicycle_pa":"shed","capacity":20,"covered":"yes","fee":"no","operator":"","nameSource":"landmark"},"sourceId":"osm"},{"id":"osm:node:9238517609","latitude":57.1542231,"longitude":-2.1311259,"name":"Foresterhill Court by Foresterhill Mosque","properties":{"access":"staff","bicycle_pa":"shed","capacity":20,"covered":"yes","fee":"no","operator":"","nameSource":"landmark"},"sourceId":"osm"},{"id":"osm:node:9282890389","latitude":57.1395244,"longitude":-2.113984,"name":"Holburn Street near Howburn Place","properties":{"access":"unknown","bicycle_pa":"stands","capacity":6,"covered":"no","fee":"","operator":"","nameSource":"junction"},"sourceId":"osm"},{"id":"osm:node:9282890402","latitude":57.1397774,"longitude":-2.1138999,"name":"Holburn Street near Hollybank Place","properties":{"access":"unknown","bicycle_pa":"stands","capacity":6,"covered":"no","fee":"","operator":"","nameSource":"junction"},"sourceId":"osm"},{"id":"osm:node:9310301964","latitude":57.1440391,"longitude":-2.127701,"name":"Fountainhall Road near Albert Lane","properties":{"access":"unknown","bicycle_pa":"stands","capacity":10,"covered":"no","fee":"","operator":"","nameSource":"junction"},"sourceId":"osm"},{"id":"osm:way:1092447299","latitude":57.15473694,"longitude":-2.1396104,"name":"Foresterhill Road cycle parking","properties":{"access":"yes","bicycle_pa":"shed","capacity":10,"covered":"","fee":"no","operator":"","nameSource":"street"},"sourceId":"osm"},{"id":"osm:way:1092447300","latitude":57.15478975999999,"longitude":-2.13965786,"name":"Foresterhill Road cycle parking","properties":{"access":"yes","bicycle_pa":"shed","capacity":10,"covered":"","fee":"no","operator":"","nameSource":"street"},"sourceId":"osm"},{"id":"osm:way:1092693666","latitude":57.155627159999995,"longitude":-2.12813514,"name":"Cornhill Road by Argyll Dental Practice & Outreach Centre","properties":{"access":"private","bicycle_pa":"lockers","capacity":10,"covered":"yes","fee":"","operator":"University of Aberdeen","nameSource":"landmark"},"sourceId":"osm"},{"id":"osm:way:1096400917","latitude":57.153981279999996,"longitude":-2.1315422,"name":"Foresterhill Court by Foresterhill Mosque","properties":{"access":"unknown","bicycle_pa":"lockers","capacity":10,"covered":"","fee":"","operator":"","nameSource":"landmark"},"sourceId":"osm"},{"id":"osm:way:1096400928","latitude":57.15411086,"longitude":-2.1316727,"name":"Foresterhill Court by Foresterhill Mosque","properties":{"access":"unknown","bicycle_pa":"shed","capacity":0,"covered":"","fee":"","operator":"","nameSource":"landmark"},"sourceId":"osm"},{"id":"osm:way:1096803563","latitude":57.15560333999999,"longitude":-2.13309002,"name":"Cornhill Road cycle parking","properties":{"access":"unknown","bicycle_pa":"lockers","capacity":30,"covered":"","fee":"","operator":"NHS Grampian","nameSource":"street"},"sourceId":"osm"},{"id":"osm:way:1096828561","latitude":57.156513419999996,"longitude":-2.1326799199999997,"name":"Cornhill Road cycle parking","properties":{"access":"unknown","bicycle_pa":"lockers","capacity":0,"covered":"","fee":"","operator":"University of Aberdeen","nameSource":"street"},"sourceId":"osm"},{"id":"osm:way:1096828562","latitude":57.15638256,"longitude":-2.13264276,"name":"Cornhill Road cycle parking","properties":{"access":"unknown","bicycle_pa":"lockers","capacity":0,"covered":"","fee":"","operator":"University of Aberdeen","nameSource":"street"},"sourceId":"osm"},{"id":"osm:way:1096828563","latitude":57.15641608571429,"longitude":-2.1325842,"name":"Cornhill Road cycle parking","properties":{"access":"unknown","bicycle_pa":"shed","capacity":0,"covered":"","fee":"","operator":"University of Aberdeen","nameSource":"street"},"sourceId":"osm"},{"id":"osm:way:1096828565","latitude":57.15613504,"longitude":-2.1331419,"name":"Cornhill Road cycle parking","properties":{"access":"yes","bicycle_pa":"shed","capacity":0,"covered":"","fee":"no","operator":"","nameSource":"street"},"sourceId":"osm"},{"id":"osm:way:1097129167","latitude":57.15653478,"longitude":-2.1364145,"name":"Ashgrove Road West cycle parking","properties":{"access":"customers","bicycle_pa":"shed","capacity":0,"covered":"","fee":"","operator":"University of Aberdeen","nameSource":"street"},"sourceId":"osm"},{"id":"osm:way:1097135133","latitude":57.155899899999994,"longitude":-2.13703724,"name":"Tiki cycle parking","properties":{"access":"unknown","bicycle_pa":"stands","capacity":20,"covered":"no","fee":"","operator":"University of Aberdeen","nameSource":"landmark"},"sourceId":"osm"},{"id":"osm:way:1097490063","latitude":57.15586702,"longitude":-2.1356527,"name":"University of Aberdeen Medical Library cycle parking","properties":{"access":"customers","bicycle_pa":"lockers","capacity":11,"covered":"","fee":"","operator":"University of Aberdeen","nameSource":"landmark"},"sourceId":"osm"},{"id":"osm:way:1098654470","latitude":57.15591568,"longitude":-2.1338767200000004,"name":"Aberdeen Medico-Chirurgical Hall cycle parking","properties":{"access":"customers","bicycle_pa":"lockers","capacity":10,"covered":"","fee":"","operator":"NHS Grampian","nameSource":"landmark"},"sourceId":"osm"},{"id":"osm:way:1098654482","latitude":57.155589019999994,"longitude":-2.1348103600000004,"name":"Aroma cycle parking","properties":{"access":"customers","bicycle_pa":"lockers","capacity":20,"covered":"","fee":"","operator":"NHS Grampian","nameSource":"landmark"},"sourceId":"osm"},{"id":"osm:way:1098654483","latitude":57.155564000000005,"longitude":-2.13479752,"name":"Aroma cycle parking","properties":{"access":"customers","bicycle_pa":"lockers","capacity":10,"covered":"","fee":"","operator":"NHS Grampian","nameSource":"landmark"},"sourceId":"osm"},{"id":"osm:way:1233885955","latitude":57.1801894,"longitude":-2.14692226,"name":"Fairview Grange by Tesco Pharmacy","properties":{"access":"yes","bicycle_pa":"stands","capacity":4,"covered":"yes","fee":"no","operator":"","nameSource":"landmark"},"sourceId":"osm"},{"id":"osm:way:609344022","latitude":57.143324099999994,"longitude":-2.17723314,"name":"Groats Road cycle parking","properties":{"access":"permissive","bicycle_pa":"stands","capacity":0,"covered":"","fee":"","operator":"","nameSource":"street"},"sourceId":"osm"},{"id":"osm:way:609344031","latitude":57.14355616,"longitude":-2.17798052,"name":"Groats Road cycle parking","properties":{"access":"unknown","bicycle_pa":"lockers","capacity":0,"covered":"yes","fee":"","operator":"","nameSource":"street"},"sourceId":"osm"},{"id":"osm:way:678786148","latitude":57.15327384,"longitude":-2.11636112,"name":"Westburn Court near Westburn Road","properties":{"access":"permissive","bicycle_pa":"rack","capacity":10,"covered":"yes","fee":"no","operator":"NHS Grampian","nameSource":"junction"},"sourceId":"osm"},{"id":"osm:way:775601759","latitude":57.179479583333325,"longitude":-2.111076,"name":"Campus Two cycle parking","properties":{"access":"yes","bicycle_pa":"shed","capacity":8,"covered":"yes","fee":"no","operator":"","nameSource":"street"},"sourceId":"osm"},{"id":"osm:way:825263894","latitude":57.155640077777775,"longitude":-2.1174494444444445,"name":"May Baird Place near May Baird Park","properties":{"access":"unknown","bicycle_pa":"shed","capacity":0,"covered":"","fee":"","operator":"","nameSource":"junction"},"sourceId":"osm"},{"id":"osm:way:825263922","latitude":57.15593646666667,"longitude":-2.1165626166666662,"name":"May Baird Wynd near May Baird Park","properties":{"access":"unknown","bicycle_pa":"shed","capacity":0,"covered":"","fee":"no","operator":"","nameSource":"junction"},"sourceId":"osm"},{"id":"osm:way:825505122","latitude":57.15617948333334,"longitude":-2.116483666666667,"name":"May Baird Wynd near May Baird Park","properties":{"access":"unknown","bicycle_pa":"shed","capacity":0,"covered":"","fee":"","operator":"","nameSource":"junction"},"sourceId":"osm"},{"id":"osm:way:825505131","latitude":57.155753733333334,"longitude":-2.1177519666666664,"name":"May Baird Place near May Baird Park","properties":{"access":"private","bicycle_pa":"shed","capacity":0,"covered":"","fee":"","operator":"","nameSource":"junction"},"sourceId":"osm"},{"id":"osm:way:910620171","latitude":57.17381052,"longitude":-2.11376528,"name":"Papermill Gardens near Papermill Drive","properties":{"access":"unknown","bicycle_pa":"stands","capacity":6,"covered":"no","fee":"no","operator":"","nameSource":"junction"},"sourceId":"osm"}],"schemaVersion":2}
