{"key":"12/2023/1322","points":[{"id":"osm:node:11365752094","latitude":53.617363,"longitude":-2.156541,"name":"Constantine Road near Drake Street","properties":{"access":"unknown","bicycle_pa":"stands","capacity":10,"covered":"no","fee":"","operator":"","nameSource":"junction"},"sourceId":"osm"},{"id":"osm:node:11365767981","latitude":53.6165559,"longitude":-2.1586935,"name":"Town Hall Square near The Esplanade","properties":{"access":"unknown","bicycle_pa":"stands","capacity":10,"covered":"no","fee":"","operator":"","nameSource":"junction"},"sourceId":"osm"},{"id":"osm:node:11365768130","latitude":53.6156876,"longitude":-2.1604433,"name":"Town Hall Square near The Esplanade","properties":{"access":"unknown","bicycle_pa":"stands","capacity":6,"covered":"no","fee":"","operator":"","nameSource":"junction"},"sourceId":"osm"},{"id":"osm:node:11365776054","latitude":53.617519,"longitude":-2.1543215,"name":"Smith Street by H&M","properties":{"access":"unknown","bicycle_pa":"stands","capacity":20,"covered":"no","fee":"","operator":"","nameSource":"landmark"},"sourceId":"osm"},{"id":"osm:node:11365776055","latitude":53.6174556,"longitude":-2.154329,"name":"Smith Street by Greggs","properties":{"access":"yes","bicycle_pa":"stands","capacity":20,"covered":"no","fee":"no","operator":"","nameSource":"landmark"},"sourceId":"osm"},{"id":"osm:node:12639677350","latitude":53.6102725,"longitude":-2.1110269,"name":"Chapel Gate near Dale Street","properties":{"access":"unknown","bicycle_pa":"","capacity":0,"covered":"","fee":"","operator":"","nameSource":"junction"},"sourceId":"osm"},{"id":"osm:node:12927809532","latitude":53.6098706,"longitude":-2.1101766,"name":"Dale Street by The Co-operative Food","properties":{"access":"unknown","bicycle_pa":"","capacity":0,"covered":"","fee":"","operator":"","nameSource":"landmark"},"sourceId":"osm"},{"id":"osm:node:13369869022","latitude":53.6177663,"longitude":-2.1504766,"name":"Entwisle Road near George Street","properties":{"access":"unknown","bicycle_pa":"stands","capacity":8,"covered":"yes","fee":"","operator":"","nameSource":"junction"},"sourceId":"osm"},{"id":"osm:node:13386833204","latitude":53.6171461,"longitude":-2.1554303,"name":"Smith Street cycle parking","properties":{"access":"yes","bicycle_pa":"stands","capacity":20,"covered":"no","fee":"no","operator":"","nameSource":"street"},"sourceId":"osm"},{"id":"osm:node:13386833206","latitude":53.6171413,"longitude":-2.1560848,"name":"Smith Street near Constantine Road","properties":{"access":"yes","bicycle_pa":"stands","capacity":10,"covered":"no","fee":"no","operator":"","nameSource":"junction"},"sourceId":"osm"},{"id":"osm:node:13388611029","latitude":53.6167911,"longitude":-2.1497816,"name":"Molesworth Street near Robinson Street","properties":{"access":"unknown","bicycle_pa":"stands","capacity":8,"covered":"no","fee":"","operator":"","nameSource":"junction"},"sourceId":"osm"},{"id":"osm:node:13388611030","latitude":53.6168359,"longitude":-2.1498169,"name":"Molesworth Street near Robinson Street","properties":{"access":"unknown","bicycle_pa":"stands","capacity":6,"covered":"no","fee":"","operator":"","nameSource":"junction"},"sourceId":"osm"},{"id":"osm:node:8142127731","latitude":53.6152672,"longitude":-2.1541369,"name":"Kenion Street near Baron Street","properties":{"access":"unknown","bicycle_pa":"stands","capacity":0,"covered":"","fee":"","operator":"","nameSource":"junction"},"sourceId":"osm"},{"id":"osm:node:8176617511","latitude":53.6109415,"longitude":-2.1545561,"name":"Maclure Road near Dowling Street","properties":{"access":"unknown","bicycle_pa":"stands","capacity":0,"covered":"","fee":"","operator":"","nameSource":"junction"},"sourceId":"osm"},{"id":"osm:way:878928335","latitude":53.61072643999999,"longitude":-2.15468972,"name":"Maclure Road near Lower Tweedale Street","properties":{"access":"yes","bicycle_pa":"shed","capacity":0,"covered":"yes","fee":"","operator":"","nameSource":"junction"},"sourceId":"osm"},{"id":"osm:way:922612925","latitude":53.61711579999999,"longitude":-2.162753016666666,"name":"College Road near Newgate","properties":{"access":"private","bicycle_pa":"stands","capacity":0,"covered":"","fee":"","operator":"","nameSource":"junction"},"sourceId":"osm"}],"schemaVersion":2}
