{"key":"12/2023/1325","points":[{"id":"osm:node:10112416581","latitude":53.4409641,"longitude":-2.1884231,"name":"Crayfield Road near Stockport Road","properties":{"access":"private","bicycle_pa":"shed","capacity":0,"covered":"yes","fee":"yes","operator":"","nameSource":"junction"},"sourceId":"osm"},{"id":"osm:node:10112416582","latitude":53.4408993,"longitude":-2.188458,"name":"Stockport Road near Crayfield Road","properties":{"access":"unknown","bicycle_pa":"stands","capacity":20,"covered":"no","fee":"","operator":"","nameSource":"junction"},"sourceId":"osm"},{"id":"osm:node:10112416584","latitude":53.4409829,"longitude":-2.1882636,"name":"Crayfield Road near Stockport Road","properties":{"access":"unknown","bicycle_pa":"stands","capacity":9,"covered":"no","fee":"","operator":"","nameSource":"junction"},"sourceId":"osm"},{"id":"osm:node:10564310697","latitude":53.4562133,"longitude":-2.1930985,"name":"Northmoor Road near Stainer Street","properties":{"access":"unknown","bicycle_pa":"stands","capacity":6,"covered":"no","fee":"no","operator":"","nameSource":"junction"},"sourceId":"osm"},{"id":"osm:node:10720765364","latitude":53.4379025,"longitude":-2.1663788,"name":"Castlerigg Close cycle parking","properties":{"access":"yes","bicycle_pa":"stands","capacity":8,"covered":"no","fee":"no","operator":"Stockport Metropolitan Borough Council","nameSource":"street"},"sourceId":"osm"},{"id":"osm:node:10723089774","latitude":53.4376342,"longitude":-2.160023,"name":"Gorton Road near Broadstone Road","properties":{"access":"yes","bicycle_pa":"stands","capacity":1,"covered":"no","fee":"no","operator":"Stockport Metropolitan Borough Council","nameSource":"junction"},"sourceId":"osm"},{"id":"osm:node:10723110424","latitude":53.43742,"longitude":-2.1603516,"name":"Broadstone Road near Stanhope Street","properties":{"access":"yes","bicycle_pa":"stands","capacity":1,"covered":"no","fee":"no","operator":"Stockport Metropolitan Borough Council","nameSource":"junction"},"sourceId":"osm"},{"id":"osm:node:10934094462","latitude":53.4591264,"longitude":-2.1616293,"name":"Hyde Road near Abbeywood Avenue","properties":{"access":"unknown","bicycle_pa":"stands","capacity":6,"covered":"no","fee":"","operator":"","nameSource":"junction"},"sourceId":"osm"},{"id":"osm:node:11802758583","latitude":53.4619967,"longitude":-2.1734622,"name":"Garratt Way cycle parking","properties":{"access":"unknown","bicycle_pa":"stands","capacity":12,"covered":"yes","fee":"","operator":"","nameSource":"street"},"sourceId":"osm"},{"id":"osm:node:11806627306","latitude":53.4598307,"longitude":-2.1632165,"name":"Hyde Road near Woodland Avenue","properties":{"access":"unknown","bicycle_pa":"stands","capacity":24,"covered":"no","fee":"","operator":"","nameSource":"junction"},"sourceId":"osm"},{"id":"osm:node:11807038386","latitude":53.4733332,"longitude":-2.1668705,"name":"Turton Street near Ashton Old Road","properties":{"access":"permissive","bicycle_pa":"stands","capacity":6,"covered":"no","fee":"","operator":"","nameSource":"junction"},"sourceId":"osm"},{"id":"osm:node:11807888942","latitude":53.4725931,"longitude":-2.1657305,"name":"Stanley Street by Lidl","properties":{"access":"unknown","bicycle_pa":"wall_loops","capacity":6,"covered":"yes","fee":"","operator":"","nameSource":"landmark"},"sourceId":"osm"},{"id":"osm:node:11815338443","latitude":53.4624012,"longitude":-2.1773874,"name":"Garratt Way near Hampden Crescent","properties":{"access":"unknown","bicycle_pa":"stands","capacity":0,"covered":"no","fee":"","operator":"","nameSource":"junction"},"sourceId":"osm"},{"id":"osm:node:11824729318","latitude":53.4741492,"longitude":-2.1651571,"name":"Rock Street by Greggs","properties":{"access":"unknown","bicycle_pa":"stands","capacity":3,"covered":"yes","fee":"","operator":"","nameSource":"landmark"},"sourceId":"osm"},{"id":"osm:node:11832908148","latitude":53.4622245,"longitude":-2.1756837,"name":"Robertson Close near Garratt Way","properties":{"access":"unknown","bicycle_pa":"rack","capacity":0,"covered":"no","fee":"no","operator":"","nameSource":"junction"},"sourceId":"osm"},{"id":"osm:node:11944558477","latitude":53.4780143,"longitude":-2.1258256,"name":"Manchester Road by Costa","properties":{"access":"unknown","bicycle_pa":"","capacity":0,"covered":"","fee":"","operator":"","nameSource":"landmark"},"sourceId":"osm"},{"id":"osm:node:12124160934","latitude":53.4589019,"longitude":-2.1179563,"name":"Boots cycle parking","properties":{"access":"yes","bicycle_pa":"stands","capacity":5,"covered":"no","fee":"no","operator":"","nameSource":"landmark"},"sourceId":"osm"},{"id":"osm:node:12124160935","latitude":53.4588914,"longitude":-2.1180238,"name":"Boots cycle parking","properties":{"access":"yes","bicycle_pa":"stands","capacity":5,"covered":"no","fee":"no","operator":"","nameSource":"landmark"},"sourceId":"osm"},{"id":"osm:node:12124162454","latitude":53.4587101,"longitude":-2.1190121,"name":"Game cycle parking","properties":{"access":"yes","bicycle_pa":"stands","capacity":5,"covered":"no","fee":"no","operator":"","nameSource":"landmark"},"sourceId":"osm"},{"id":"osm:node:12124162455","latitude":53.4587218,"longitude":-2.1189508,"name":"Game cycle parking","properties":{"access":"yes","bicycle_pa":"stands","capacity":5,"covered":"no","fee":"no","operator":"","nameSource":"landmark"},"sourceId":"osm"},{"id":"osm:node:12124178701","latitude":53.4591162,"longitude":-2.1167997,"name":"Worthington Way by Clarks","properties":{"access":"yes","bicycle_pa":"stands","capacity":5,"covered":"no","fee":"no","operator":"","nameSource":"landmark"},"sourceId":"osm"},{"id":"osm:node:12124178702","latitude":53.4591049,"longitude":-2.1168657,"name":"Worthington Way by Clarks","properties":{"access":"yes","bicycle_pa":"stands","capacity":5,"covered":"no","fee":"no","operator":"","nameSource":"landmark"},"sourceId":"osm"},{"id":"osm:node:12124181491","latitude":53.4579701,"longitude":-2.1190703,"name":"Wilton Street by The Works","properties":{"access":"yes","bicycle_pa":"stands","capacity":8,"covered":"no","fee":"no","operator":"","nameSource":"landmark"},"sourceId":"osm"},{"id":"osm:node:12124649090","latitude":53.4460243,"longitude":-2.1597073,"name":"Longford Road West cycle parking","properties":{"access":"yes","bicycle_pa":"stands","capacity":4,"covered":"no","fee":"no","operator":"","nameSource":"street"},"sourceId":"osm"},{"id":"osm:node:12124663499","latitude":53.449823,"longitude":-2.1421908,"name":"Windmill Lane cycle parking","properties":{"access":"yes","bicycle_pa":"stands","capacity":2,"covered":"no","fee":"no","operator":"","nameSource":"street"},"sourceId":"osm"},{"id":"osm:node:12124684236","latitude":53.4535955,"longitude":-2.1578936,"name":"Gorton Road near Belfield Road","properties":{"access":"yes","bicycle_pa":"stands","capacity":1,"covered":"no","fee":"no","operator":"","nameSource":"junction"},"sourceId":"osm"},{"id":"osm:node:12124698458","latitude":53.4544079,"longitude":-2.1583223,"name":"Reddish Lane near Burnfield Road","properties":{"access":"yes","bicycle_pa":"stands","capacity":1,"covered":"no","fee":"no","operator":"","nameSource":"junction"},"sourceId":"osm"},{"id":"osm:node:12124698594","latitude":53.4552824,"longitude":-2.1583688,"name":"Reddish Lane near Athol Street","properties":{"access":"yes","bicycle_pa":"stands","capacity":5,"covered":"yes","fee":"no","operator":"Asda Stores Ltd","nameSource":"junction"},"sourceId":"osm"},{"id":"osm:node:12124698858","latitude":53.4533791,"longitude":-2.1576057,"name":"Belfield Road near Gorton Road","properties":{"access":"yes","bicycle_pa":"stands","capacity":2,"covered":"no","fee":"no","operator":"","nameSource":"junction"},"sourceId":"osm"},{"id":"osm:node:12209004037","latitude":53.4374438,"longitude":-2.1448964,"name":"Mill Lane near River View","properties":{"access":"unknown","bicycle_pa":"stands","capacity":8,"covered":"no","fee":"","operator":"","nameSource":"junction"},"sourceId":"osm"},{"id":"osm:node:12410366576","latitude":53.463307,"longitude":-2.1844792,"name":"Hyde Road near Glencastle Road","properties":{"access":"unknown","bicycle_pa":"stands","capacity":0,"covered":"","fee":"","operator":"","nameSource":"junction"},"sourceId":"osm"},{"id":"osm:node:12547037327","latitude":53.4474738,"longitude":-2.1914352,"name":"Belvoir Avenue near Stockport Road","properties":{"access":"unknown","bicycle_pa":"stands","capacity":2,"covered":"no","fee":"","operator":"","nameSource":"junction"},"sourceId":"osm"},{"id":"osm:node:12704473550","latitude":53.4730615,"longitude":-2.1642059,"name":"Ashton Old Road near Erin Street","properties":{"access":"unknown","bicycle_pa":"stands","capacity":6,"covered":"no","fee":"","operator":"","nameSource":"junction"},"sourceId":"osm"},{"id":"osm:node:12919947724","latitude":53.4423512,"longitude":-2.1904732,"name":"Stockport Road near Delamere Road","properties":{"access":"unknown","bicycle_pa":"","capacity":0,"covered":"no","fee":"","operator":"","nameSource":"junction"},"sourceId":"osm"},{"id":"osm:node:12919969007","latitude":53.4430628,"longitude":-2.1909433,"name":"Ethel Terrace near Stockport Road","properties":{"access":"unknown","bicycle_pa":"stands","capacity":2,"covered":"no","fee":"","operator":"","nameSource":"junction"},"sourceId":"osm"},{"id":"osm:node:13065700041","latitude":53.4479381,"longitude":-2.1916274,"name":"Stockport Road near Woodfold Avenue","properties":{"access":"unknown","bicycle_pa":"stands","capacity":6,"covered":"no","fee":"","operator":"","nameSource":"junction"},"sourceId":"osm"},{"id":"osm:node:13124897355","latitude":53.4495221,"longitude":-2.156484,"name":"Wallwork Street by Reddish North","properties":{"access":"unknown","bicycle_pa":"stands","capacity":6,"covered":"yes","fee":"","operator":"","nameSource":"landmark"},"sourceId":"osm"},{"id":"osm:node:13321800951","latitude":53.4555822,"longitude":-2.1132475,"name":"Stockport Road near Albert Street","properties":{"access":"yes","bicycle_pa":"stands","capacity":6,"covered":"no","fee":"no","operator":"","nameSource":"junction"},"sourceId":"osm"},{"id":"osm:node:13326091130","latitude":53.44479,"longitude":-2.1820516,"name":"Carnegie Avenue near Garfield Avenue","properties":{"access":"private","bicycle_pa":"shed","capacity":0,"covered":"yes","fee":"","operator":"Manchester","nameSource":"junction"},"sourceId":"osm"},{"id":"osm:node:13509887434","latitude":53.4484017,"longitude":-2.1918418,"name":"Jean Close near Stockport Road","properties":{"access":"yes","bicycle_pa":"stands","capacity":4,"covered":"no","fee":"no","operator":"","nameSource":"junction"},"sourceId":"osm"},{"id":"osm:node:2939352563","latitude":53.4854046,"longitude":-2.192806,"name":"Stuart Street cycle parking","properties":{"access":"unknown","bicycle_pa":"stands","capacity":0,"covered":"","fee":"","operator":"","nameSource":"street"},"sourceId":"osm"},{"id":"osm:node:3007421782","latitude":53.48458,"longitude":-2.1213691,"name":"Lord Sheldon Way cycle parking","properties":{"access":"unknown","bicycle_pa":"","capacity":0,"covered":"","fee":"","operator":"","nameSource":"street"},"sourceId":"osm"},{"id":"osm:node:3065180133","latitude":53.482829,"longitude":-2.194563,"name":"Alan Turing Way by Asda Café","properties":{"access":"unknown","bicycle_pa":"wall_loops","capacity":0,"covered":"no","fee":"no","operator":"","nameSource":"landmark"},"sourceId":"osm"},{"id":"osm:node:3799193075","latitude":53.4740314,"longitude":-2.1648183,"name":"Greggs cycle parking","properties":{"access":"unknown","bicycle_pa":"stands","capacity":10,"covered":"no","fee":"","operator":"","nameSource":"landmark"},"sourceId":"osm"},{"id":"osm:node:4580504314","latitude":53.4457598,"longitude":-2.1909399,"name":"Cardus Street near Carrill Grove East","properties":{"access":"unknown","bicycle_pa":"stands","capacity":4,"covered":"no","fee":"","operator":"","nameSource":"junction"},"sourceId":"osm"},{"id":"osm:node:4588316964","latitude":53.446187,"longitude":-2.1915925,"name":"Stockport Road near Barlow Road","properties":{"access":"yes","bicycle_pa":"anchors","capacity":15,"covered":"no","fee":"no","operator":"","nameSource":"junction"},"sourceId":"osm"},{"id":"osm:node:4657765503","latitude":53.4412743,"longitude":-2.1892198,"name":"Stockport Road near York Street","properties":{"access":"unknown","bicycle_pa":"stands","capacity":2,"covered":"no","fee":"","operator":"","nameSource":"junction"},"sourceId":"osm"},{"id":"osm:node:5861673902","latitude":53.4441479,"longitude":-2.1931426,"name":"The Street With No Name near Albert Road","properties":{"access":"unknown","bicycle_pa":"stands","capacity":4,"covered":"no","fee":"","operator":"","nameSource":"junction"},"sourceId":"osm"},{"id":"osm:node:6372547038","latitude":53.4810278,"longitude":-2.16404,"name":"Cooper Street near Manor Road","properties":{"access":"yes","bicycle_pa":"racks","capacity":5,"covered":"","fee":"","operator":"","nameSource":"junction"},"sourceId":"osm"},{"id":"osm:node:6774847916","latitude":53.445255,"longitude":-2.18624,"name":"Cromwell Grove near Barlow Road","properties":{"access":"unknown","bicycle_pa":"stands","capacity":6,"covered":"no","fee":"","operator":"","nameSource":"junction"},"sourceId":"osm"},{"id":"osm:node:768953420","latitude":53.4803599,"longitude":-2.1243874,"name":"Lord Sheldon Way cycle parking","properties":{"access":"unknown","bicycle_pa":"","capacity":4,"covered":"","fee":"","operator":"","nameSource":"street"},"sourceId":"osm"},{"id":"osm:node:8390632655","latitude":53.4578391,"longitude":-2.113853,"name":"Lance Corporal Andrew Breeze Way near Ashton Road","properties":{"access":"unknown","bicycle_pa":"","capacity":0,"covered":"","fee":"","operator":"","nameSource":"junction"},"sourceId":"osm"},{"id":"osm:node:9081687745","latitude":53.4447227,"longitude":-2.1919122,"name":"Station View near Stockport Road","properties":{"access":"unknown","bicycle_pa":"stands","capacity":6,"covered":"no","fee":"","operator":"","nameSource":"junction"},"sourceId":"osm"},{"id":"osm:way:1268732632","latitude":53.46890478,"longitude":-2.16636898,"name":"Lees Street near Constable Street","properties":{"access":"unknown","bicycle_pa":"covered","capacity":6,"covered":"yes","fee":"no","operator":"","nameSource":"junction"},"sourceId":"osm"},{"id":"osm:way:1297703458","latitude":53.45883808000001,"longitude":-2.15701244,"name":"Foundation Years Nurseries Debdale cycle parking","properties":{"access":"yes","bicycle_pa":"rack","capacity":12,"covered":"yes","fee":"no","operator":"","nameSource":"landmark"},"sourceId":"osm"},{"id":"osm:way:1453942340","latitude":53.46277213999999,"longitude":-2.1874352200000002,"name":"Hyde Road by Co-op Academy Belle Vue","properties":{"access":"unknown","bicycle_pa":"","capacity":0,"covered":"","fee":"","operator":"","nameSource":"landmark"},"sourceId":"osm"},{"id":"osm:way:680573854","latitude":53.4810033,"longitude":-2.1640428199999997,"name":"Cooper Street near Manor Road","properties":{"access":"unknown","bicycle_pa":"lockers","capacity":5,"covered":"","fee":"","operator":"","nameSource":"junction"},"sourceId":"osm"}],"schemaVersion":2}
