{"key":"12/2023/1337","points":[{"id":"osm:node:10779856071","latitude":52.8075256,"longitude":-2.1201091,"name":"Balk Passage near Broad Street","properties":{"access":"unknown","bicycle_pa":"stands","capacity":6,"covered":"no","fee":"","operator":"","nameSource":"junction"},"sourceId":"osm"},{"id":"osm:node:11766686793","latitude":52.8070047,"longitude":-2.1406609,"name":"Hurst Grove cycle parking","properties":{"access":"unknown","bicycle_pa":"","capacity":6,"covered":"yes","fee":"no","operator":"","nameSource":"street"},"sourceId":"osm"},{"id":"osm:node:13630272505","latitude":52.8066381,"longitude":-2.1434337,"name":"Martin Drive cycle parking","properties":{"access":"private","bicycle_pa":"","capacity":0,"covered":"","fee":"","operator":"","nameSource":"street"},"sourceId":"osm"},{"id":"osm:node:13630272510","latitude":52.8066922,"longitude":-2.1433943,"name":"Alnwick Place cycle parking","properties":{"access":"private","bicycle_pa":"","capacity":0,"covered":"","fee":"","operator":"","nameSource":"street"},"sourceId":"osm"},{"id":"osm:node:13630272512","latitude":52.8065842,"longitude":-2.143474,"name":"Martin Drive cycle parking","properties":{"access":"private","bicycle_pa":"","capacity":0,"covered":"","fee":"","operator":"","nameSource":"street"},"sourceId":"osm"},{"id":"osm:node:2018469586","latitude":52.8064598,"longitude":-2.1142533,"name":"Tipping Street near Eastgate Street","properties":{"access":"unknown","bicycle_pa":"stands","capacity":10,"covered":"no","fee":"","operator":"","nameSource":"junction"},"sourceId":"osm"},{"id":"osm:node:420547575","latitude":52.8089816,"longitude":-2.1185757,"name":"Gaolgate Street near Hunters Row","properties":{"access":"unknown","bicycle_pa":"","capacity":18,"covered":"","fee":"","operator":"","nameSource":"junction"},"sourceId":"osm"},{"id":"osm:node:580713324","latitude":52.82145,"longitude":-2.1266463,"name":"Stone Road near Charles Cotton Street","properties":{"access":"unknown","bicycle_pa":"","capacity":6,"covered":"","fee":"no","operator":"","nameSource":"junction"},"sourceId":"osm"},{"id":"osm:node:593782462","latitude":52.8076557,"longitude":-2.1204977,"name":"Balk Passage near Broad Street","properties":{"access":"unknown","bicycle_pa":"","capacity":0,"covered":"","fee":"","operator":"","nameSource":"junction"},"sourceId":"osm"},{"id":"osm:node:6092408398","latitude":52.8040717,"longitude":-2.1227203,"name":"Railway Street near Station Road","properties":{"access":"unknown","bicycle_pa":"stands","capacity":30,"covered":"yes","fee":"","operator":"","nameSource":"junction"},"sourceId":"osm"},{"id":"osm:node:6581933484","latitude":52.8041903,"longitude":-2.1228865,"name":"Railway Street near Station Road","properties":{"access":"private","bicycle_pa":"shed","capacity":0,"covered":"yes","fee":"","operator":"","nameSource":"junction"},"sourceId":"osm"},{"id":"osm:node:8440349185","latitude":52.8052925,"longitude":-2.1164614,"name":"Greengate Street near Mill Street","properties":{"access":"yes","bicycle_pa":"stands","capacity":8,"covered":"no","fee":"","operator":"","nameSource":"junction"},"sourceId":"osm"},{"id":"osm:node:8926628776","latitude":52.8028804,"longitude":-2.1155519,"name":"Friars' Walk near Middle Friars","properties":{"access":"unknown","bicycle_pa":"stands","capacity":2,"covered":"no","fee":"","operator":"","nameSource":"junction"},"sourceId":"osm"},{"id":"osm:node:8926628777","latitude":52.8030976,"longitude":-2.1154208,"name":"Friars' Walk near Bailey Street","properties":{"access":"unknown","bicycle_pa":"stands","capacity":3,"covered":"no","fee":"","operator":"","nameSource":"junction"},"sourceId":"osm"}],"schemaVersion":2}
