{"key":"12/2023/1342","points":[{"id":"osm:node:10856228736","latitude":52.5424243,"longitude":-2.1207908,"name":"Bilston Street near Castle Street","properties":{"access":"unknown","bicycle_pa":"","capacity":6,"covered":"","fee":"","operator":"","nameSource":"junction"},"sourceId":"osm"},{"id":"osm:node:10856434852","latitude":52.5402732,"longitude":-2.1210316,"name":"Dudley Street near Vicar Street","properties":{"access":"unknown","bicycle_pa":"","capacity":0,"covered":"","fee":"","operator":"","nameSource":"junction"},"sourceId":"osm"},{"id":"osm:node:10983157482","latitude":52.5827985,"longitude":-2.1254146,"name":"St George's Parade near Tempest Street","properties":{"access":"unknown","bicycle_pa":"","capacity":2,"covered":"","fee":"","operator":"","nameSource":"junction"},"sourceId":"osm"},{"id":"osm:node:10983157501","latitude":52.5887247,"longitude":-2.1405678,"name":"Park Road West by West Park Tea Rooms","properties":{"access":"unknown","bicycle_pa":"","capacity":10,"covered":"","fee":"","operator":"","nameSource":"landmark"},"sourceId":"osm"},{"id":"osm:node:1332198112","latitude":52.586721,"longitude":-2.1248662,"name":"Lichfield Street near Princes Square","properties":{"access":"unknown","bicycle_pa":"","capacity":0,"covered":"","fee":"","operator":"","nameSource":"junction"},"sourceId":"osm"},{"id":"osm:node:1332435979","latitude":52.5860043,"longitude":-2.1284747,"name":"Queen Square near Wolverhampton Walk","properties":{"access":"unknown","bicycle_pa":"stands","capacity":6,"covered":"no","fee":"","operator":"","nameSource":"junction"},"sourceId":"osm"},{"id":"osm:node:1332657609","latitude":52.5842165,"longitude":-2.129764,"name":"Victoria Street near St John's Street","properties":{"access":"unknown","bicycle_pa":"stands","capacity":6,"covered":"no","fee":"no","operator":"","nameSource":"junction"},"sourceId":"osm"},{"id":"osm:node:1333392231","latitude":52.5845793,"longitude":-2.1318254,"name":"School Street near Skinner Street","properties":{"access":"unknown","bicycle_pa":"","capacity":10,"covered":"","fee":"","operator":"","nameSource":"junction"},"sourceId":"osm"},{"id":"osm:node:1538276698","latitude":52.5869983,"longitude":-2.1207646,"name":"Railway Drive cycle parking","properties":{"access":"unknown","bicycle_pa":"stands","capacity":38,"covered":"yes","fee":"","operator":"","nameSource":"street"},"sourceId":"osm"},{"id":"osm:node:2979726274","latitude":52.5862647,"longitude":-2.1228684,"name":"Victoria Square near Berry Street","properties":{"access":"unknown","bicycle_pa":"","capacity":8,"covered":"","fee":"","operator":"","nameSource":"junction"},"sourceId":"osm"},{"id":"osm:node:2984158816","latitude":52.5814958,"longitude":-2.128192,"name":"Bond Street near St John's Square","properties":{"access":"unknown","bicycle_pa":"","capacity":0,"covered":"","fee":"","operator":"","nameSource":"junction"},"sourceId":"osm"},{"id":"osm:node:3927335082","latitude":52.5863333,"longitude":-2.1229166,"name":"Victoria Square near Berry Street","properties":{"access":"unknown","bicycle_pa":"","capacity":8,"covered":"","fee":"","operator":"","nameSource":"junction"},"sourceId":"osm"},{"id":"osm:node:3927335085","latitude":52.5866911,"longitude":-2.1220228,"name":"Railway Drive by Superdrug","properties":{"access":"unknown","bicycle_pa":"","capacity":14,"covered":"","fee":"","operator":"","nameSource":"landmark"},"sourceId":"osm"},{"id":"osm:node:4598315725","latitude":52.5872036,"longitude":-2.1201655,"name":"Railway Drive by Costa","properties":{"access":"unknown","bicycle_pa":"","capacity":12,"covered":"yes","fee":"","operator":"","nameSource":"landmark"},"sourceId":"osm"},{"id":"osm:node:4749818463","latitude":52.5874257,"longitude":-2.1199433,"name":"Railway Drive by Costa","properties":{"access":"unknown","bicycle_pa":"rack","capacity":16,"covered":"yes","fee":"","operator":"","nameSource":"landmark"},"sourceId":"osm"},{"id":"osm:node:4763503338","latitude":52.585913,"longitude":-2.1276858,"name":"Dudley Street near Lichfield Street","properties":{"access":"unknown","bicycle_pa":"stands","capacity":6,"covered":"","fee":"","operator":"","nameSource":"junction"},"sourceId":"osm"},{"id":"osm:node:4763529527","latitude":52.5855811,"longitude":-2.1291447,"name":"Victoria Street near Darlington Street","properties":{"access":"unknown","bicycle_pa":"stands","capacity":6,"covered":"no","fee":"","operator":"","nameSource":"junction"},"sourceId":"osm"},{"id":"osm:node:4769439149","latitude":52.5874169,"longitude":-2.1297163,"name":"Paternoster Row cycle parking","properties":{"access":"unknown","bicycle_pa":"stands","capacity":0,"covered":"","fee":"","operator":"","nameSource":"street"},"sourceId":"osm"},{"id":"osm:node:5183105886","latitude":52.5840285,"longitude":-2.1257654,"name":"Bilston Street near Garrick Street","properties":{"access":"unknown","bicycle_pa":"","capacity":12,"covered":"yes","fee":"","operator":"","nameSource":"junction"},"sourceId":"osm"},{"id":"osm:node:5800352878","latitude":52.5825437,"longitude":-2.1265295,"name":"Temple Street near Convent Close","properties":{"access":"unknown","bicycle_pa":"","capacity":18,"covered":"yes","fee":"","operator":"","nameSource":"junction"},"sourceId":"osm"},{"id":"osm:node:7237678554","latitude":52.5831003,"longitude":-2.1343819,"name":"Ring Road St Marks by Sainsbury's Wolverhampton","properties":{"access":"unknown","bicycle_pa":"stands","capacity":12,"covered":"yes","fee":"no","operator":"","nameSource":"landmark"},"sourceId":"osm"},{"id":"osm:node:7553542482","latitude":52.5872728,"longitude":-2.1274293,"name":"Wulfruna Street near St. Peter's Close","properties":{"access":"yes","bicycle_pa":"stands","capacity":2,"covered":"no","fee":"no","operator":"","nameSource":"junction"},"sourceId":"osm"},{"id":"osm:node:7553542483","latitude":52.5877695,"longitude":-2.1286743,"name":"St. Peter's Square near Wulfruna Street","properties":{"access":"yes","bicycle_pa":"stands","capacity":2,"covered":"no","fee":"no","operator":"","nameSource":"junction"},"sourceId":"osm"},{"id":"osm:node:8146775698","latitude":52.5735886,"longitude":-2.1240021,"name":"Birmingham Road cycle parking","properties":{"access":"unknown","bicycle_pa":"stands","capacity":16,"covered":"no","fee":"no","operator":"","nameSource":"street"},"sourceId":"osm"},{"id":"osm:node:8168035276","latitude":52.5807309,"longitude":-2.1319812,"name":"Penn Road Island near Ring Road St. Johns","properties":{"access":"unknown","bicycle_pa":"stands","capacity":8,"covered":"no","fee":"no","operator":"","nameSource":"junction"},"sourceId":"osm"},{"id":"osm:node:8171412894","latitude":52.5834154,"longitude":-2.123916,"name":"Old Hall Street near St George's Parade","properties":{"access":"unknown","bicycle_pa":"stands","capacity":2,"covered":"no","fee":"no","operator":"","nameSource":"junction"},"sourceId":"osm"},{"id":"osm:node:8171450837","latitude":52.5860568,"longitude":-2.1255304,"name":"King Street near Princess Street","properties":{"access":"unknown","bicycle_pa":"stands","capacity":4,"covered":"no","fee":"no","operator":"","nameSource":"junction"},"sourceId":"osm"},{"id":"osm:node:8174089891","latitude":52.5829043,"longitude":-2.1263244,"name":"Cleveland Street near Garrick Street","properties":{"access":"unknown","bicycle_pa":"stands","capacity":10,"covered":"no","fee":"no","operator":"","nameSource":"junction"},"sourceId":"osm"},{"id":"osm:node:8174102621","latitude":52.5832028,"longitude":-2.1256133,"name":"Garrick Street near Cleveland Street","properties":{"access":"unknown","bicycle_pa":"stands","capacity":4,"covered":"no","fee":"no","operator":"","nameSource":"junction"},"sourceId":"osm"},{"id":"osm:node:8174203674","latitude":52.5832013,"longitude":-2.1253506,"name":"Garrick Street near Old Hall Street","properties":{"access":"unknown","bicycle_pa":"stands","capacity":6,"covered":"no","fee":"no","operator":"","nameSource":"junction"},"sourceId":"osm"},{"id":"osm:node:8174716410","latitude":52.5873465,"longitude":-2.1747827,"name":"A454 near Bridgnorth Road","properties":{"access":"unknown","bicycle_pa":"stands","capacity":4,"covered":"no","fee":"no","operator":"","nameSource":"junction"},"sourceId":"osm"},{"id":"osm:node:8174730146","latitude":52.5873971,"longitude":-2.1745621,"name":"Henwood Road near A454","properties":{"access":"unknown","bicycle_pa":"stands","capacity":6,"covered":"no","fee":"no","operator":"","nameSource":"junction"},"sourceId":"osm"},{"id":"osm:node:8186940030","latitude":52.5834432,"longitude":-2.1325111,"name":"Salop Street near School Street","properties":{"access":"unknown","bicycle_pa":"","capacity":0,"covered":"","fee":"","operator":"","nameSource":"junction"},"sourceId":"osm"},{"id":"osm:node:8227947098","latitude":52.5833563,"longitude":-2.1346492,"name":"Ring Road St Marks by Sainsbury's Wolverhampton","properties":{"access":"unknown","bicycle_pa":"stands","capacity":20,"covered":"yes","fee":"no","operator":"","nameSource":"landmark"},"sourceId":"osm"},{"id":"osm:node:8307256999","latitude":52.5431517,"longitude":-2.1925502,"name":"Sutherland Drive by The Platform","properties":{"access":"customers","bicycle_pa":"rack","capacity":5,"covered":"no","fee":"no","operator":"","nameSource":"landmark"},"sourceId":"osm"},{"id":"osm:node:8307257000","latitude":52.5431178,"longitude":-2.1927544,"name":"Sutherland Drive by The Platform","properties":{"access":"customers","bicycle_pa":"rack","capacity":5,"covered":"no","fee":"no","operator":"","nameSource":"landmark"},"sourceId":"osm"},{"id":"osm:node:8324491863","latitude":52.5826815,"longitude":-2.1348641,"name":"Ring Road St Marks by Sainsbury's","properties":{"access":"unknown","bicycle_pa":"stands","capacity":18,"covered":"yes","fee":"no","operator":"","nameSource":"landmark"},"sourceId":"osm"}],"schemaVersion":2}
