{"key":"12/2023/1362","points":[{"id":"osm:node:3534228947","latitude":51.4622237,"longitude":-2.1159064,"name":"Cocklebury Road by Chippenham","properties":{"access":"unknown","bicycle_pa":"stands","capacity":20,"covered":"yes","fee":"","operator":"","nameSource":"landmark"},"sourceId":"osm"},{"id":"osm:node:3534228957","latitude":51.4621627,"longitude":-2.116078,"name":"Cocklebury Road near Monkton Hill","properties":{"access":"unknown","bicycle_pa":"stands","capacity":16,"covered":"yes","fee":"","operator":"","nameSource":"junction"},"sourceId":"osm"},{"id":"osm:node:3534228961","latitude":51.4623507,"longitude":-2.1155805,"name":"Cocklebury Road by Chippenham Railway Station","properties":{"access":"unknown","bicycle_pa":"stands","capacity":10,"covered":"yes","fee":"","operator":"","nameSource":"landmark"},"sourceId":"osm"},{"id":"osm:node:3534228962","latitude":51.4623807,"longitude":-2.1154813,"name":"Cocklebury Road by Chippenham Railway Station","properties":{"access":"unknown","bicycle_pa":"stands","capacity":10,"covered":"yes","fee":"","operator":"","nameSource":"landmark"},"sourceId":"osm"},{"id":"osm:node:9735065219","latitude":51.469847,"longitude":-2.1510194,"name":"Sheldon Corner near A420","properties":{"access":"customers","bicycle_pa":"handlebar_holder","capacity":12,"covered":"no","fee":"no","operator":"","nameSource":"junction"},"sourceId":"osm"},{"id":"osm:way:1076773919","latitude":51.46257674000001,"longitude":-2.11571246,"name":"Old Road by Steamers Internet Cafe","properties":{"access":"unknown","bicycle_pa":"two-tier","capacity":20,"covered":"yes","fee":"","operator":"","nameSource":"landmark"},"sourceId":"osm"},{"id":"osm:way:1076774213","latitude":51.4626123,"longitude":-2.1156185,"name":"Old Road by Steamers Internet Cafe","properties":{"access":"unknown","bicycle_pa":"stands","capacity":12,"covered":"yes","fee":"","operator":"","nameSource":"landmark"},"sourceId":"osm"}],"schemaVersion":2}
