{"key":"12/2023/1504","points":[{"id":"osm:node:11978194169","latitude":43.0527852,"longitude":-2.1790012,"name":"Joseba Rezola ibilbidea near Joseba Rezola pasealekua","properties":{"access":"unknown","bicycle_pa":"stands","capacity":10,"covered":"yes","fee":"","operator":"","nameSource":"junction"},"sourceId":"osm"},{"id":"osm:node:11978194269","latitude":43.0597821,"longitude":-2.1726208,"name":"Filipinak kalea cycle parking","properties":{"access":"unknown","bicycle_pa":"stands","capacity":12,"covered":"no","fee":"","operator":"","nameSource":"street"},"sourceId":"osm"},{"id":"osm:node:11981097899","latitude":43.054059,"longitude":-2.178184,"name":"Kale Nagusia near Euskalherria kalea","properties":{"access":"unknown","bicycle_pa":"wall_loops","capacity":6,"covered":"no","fee":"","operator":"","nameSource":"junction"},"sourceId":"osm"},{"id":"osm:node:11985116200","latitude":43.0551732,"longitude":-2.1732826,"name":"San Ignazio kalea near Buztuntza etxetaldea","properties":{"access":"unknown","bicycle_pa":"wall_loops","capacity":6,"covered":"no","fee":"","operator":"","nameSource":"junction"},"sourceId":"osm"},{"id":"osm:node:11985143670","latitude":43.0533652,"longitude":-2.1722892,"name":"Bizikleta aparkalekua","properties":{"access":"unknown","bicycle_pa":"stands","capacity":28,"covered":"yes","fee":"","operator":"","nameSource":"source"},"sourceId":"osm"},{"id":"osm:node:11985149669","latitude":43.0552137,"longitude":-2.1733586,"name":"San Ignazio kalea near Gipuzkoa kalea","properties":{"access":"unknown","bicycle_pa":"wall_loops","capacity":6,"covered":"no","fee":"","operator":"","nameSource":"junction"},"sourceId":"osm"},{"id":"osm:node:11985149973","latitude":43.0519386,"longitude":-2.1740434,"name":"Altamira kalea near Zumalakarregi etorbidea","properties":{"access":"unknown","bicycle_pa":"wall_loops","capacity":6,"covered":"no","fee":"","operator":"","nameSource":"junction"},"sourceId":"osm"},{"id":"osm:node:11985149975","latitude":43.0529682,"longitude":-2.1701688,"name":"Bizikleta aparkalekua","properties":{"access":"unknown","bicycle_pa":"stands","capacity":26,"covered":"yes","fee":"","operator":"","nameSource":"source"},"sourceId":"osm"},{"id":"osm:node:11985150674","latitude":43.0513055,"longitude":-2.1749293,"name":"Lazkaomendi etorbidea near Zumalakarregi etorbidea","properties":{"access":"unknown","bicycle_pa":"wall_loops","capacity":6,"covered":"no","fee":"","operator":"","nameSource":"junction"},"sourceId":"osm"},{"id":"osm:node:11985184969","latitude":43.0538374,"longitude":-2.1839424,"name":"Urdaneta kalea by Arantxa ile-apaindegia","properties":{"access":"unknown","bicycle_pa":"stands","capacity":12,"covered":"no","fee":"","operator":"","nameSource":"landmark"},"sourceId":"osm"},{"id":"osm:node:12014804369","latitude":43.0539377,"longitude":-2.1769917,"name":"Bizikleta aparkalekua","properties":{"access":"unknown","bicycle_pa":"stands","capacity":6,"covered":"no","fee":"","operator":"","nameSource":"source"},"sourceId":"osm"},{"id":"osm:node:12016936570","latitude":43.0479141,"longitude":-2.1828765,"name":"Bizikleta aparkalekua","properties":{"access":"unknown","bicycle_pa":"wall_loops","capacity":36,"covered":"yes","fee":"","operator":"","nameSource":"source"},"sourceId":"osm"},{"id":"osm:node:12016936669","latitude":43.0472483,"longitude":-2.1830119,"name":"Bizikleta aparkalekua","properties":{"access":"unknown","bicycle_pa":"wall_loops","capacity":24,"covered":"yes","fee":"","operator":"","nameSource":"source"},"sourceId":"osm"},{"id":"osm:node:12020289769","latitude":43.0535843,"longitude":-2.1779218,"name":"Bizikleta aparkalekua","properties":{"access":"unknown","bicycle_pa":"stands","capacity":10,"covered":"no","fee":"","operator":"","nameSource":"source"},"sourceId":"osm"},{"id":"osm:node:12020531571","latitude":43.0536375,"longitude":-2.1781668,"name":"Bizikleta aparkalekua","properties":{"access":"unknown","bicycle_pa":"stands","capacity":10,"covered":"yes","fee":"","operator":"","nameSource":"source"},"sourceId":"osm"},{"id":"osm:node:12020551669","latitude":43.0537905,"longitude":-2.1795656,"name":"Bizikleta aparkalekua","properties":{"access":"unknown","bicycle_pa":"stands","capacity":10,"covered":"no","fee":"","operator":"","nameSource":"source"},"sourceId":"osm"},{"id":"osm:node:12030781069","latitude":43.0529584,"longitude":-2.181819,"name":"Bizikleta aparkalekua","properties":{"access":"unknown","bicycle_pa":"stands","capacity":8,"covered":"no","fee":"","operator":"","nameSource":"source"},"sourceId":"osm"},{"id":"osm:node:12042164669","latitude":43.0505693,"longitude":-2.1794459,"name":"Mallutz kalea cycle parking","properties":{"access":"unknown","bicycle_pa":"","capacity":0,"covered":"no","fee":"","operator":"","nameSource":"street"},"sourceId":"osm"},{"id":"osm:node:13517111201","latitude":43.0531541,"longitude":-2.1798003,"name":"Santa Maria kalea near Etxezarreta kalea","properties":{"access":"unknown","bicycle_pa":"stands","capacity":0,"covered":"no","fee":"","operator":"","nameSource":"junction"},"sourceId":"osm"}],"schemaVersion":2}
