{"key":"12/2061/1341","points":[{"id":"osm:node:1020412422","latitude":52.619773,"longitude":1.223195,"name":"Edith Cavell","properties":{"access":"unknown","bicycle_pa":"stands","capacity":30,"covered":"yes","fee":"","operator":"University of East Anglia","nameSource":"source"},"sourceId":"osm"},{"id":"osm:node:10677818830","latitude":52.6380529,"longitude":1.2225102,"name":"Boatman Way cycle parking","properties":{"access":"unknown","bicycle_pa":"wall_loops","capacity":3,"covered":"no","fee":"","operator":"","nameSource":"street"},"sourceId":"osm"},{"id":"osm:node:11233583240","latitude":52.6210337,"longitude":1.2285174,"name":"Cringleford Heights cycle parking","properties":{"access":"unknown","bicycle_pa":"stands","capacity":2,"covered":"no","fee":"","operator":"","nameSource":"place"},"sourceId":"osm"},{"id":"osm:node:11233583244","latitude":52.6208945,"longitude":1.2264663,"name":"Colney cycle parking","properties":{"access":"unknown","bicycle_pa":"stands","capacity":6,"covered":"no","fee":"","operator":"","nameSource":"place"},"sourceId":"osm"},{"id":"osm:node:11233583246","latitude":52.6196003,"longitude":1.2267002,"name":"Cringleford Heights cycle parking","properties":{"access":"unknown","bicycle_pa":"stands","capacity":2,"covered":"no","fee":"","operator":"","nameSource":"place"},"sourceId":"osm"},{"id":"osm:node:1156188375","latitude":52.6223402,"longitude":1.2209162,"name":"Caroline Pellew Way by Smoking area","properties":{"access":"unknown","bicycle_pa":"wall_loops","capacity":48,"covered":"yes","fee":"","operator":"","nameSource":"landmark"},"sourceId":"osm"},{"id":"osm:node:11703574274","latitude":52.6057052,"longitude":1.1797743,"name":"Little Melton Road near Coachmaker Way","properties":{"access":"unknown","bicycle_pa":"stands","capacity":8,"covered":"yes","fee":"","operator":"","nameSource":"junction"},"sourceId":"osm"},{"id":"osm:node:11703574290","latitude":52.6059923,"longitude":1.1800231,"name":"Coachmaker Way near Little Melton Road","properties":{"access":"unknown","bicycle_pa":"stands","capacity":8,"covered":"yes","fee":"","operator":"","nameSource":"junction"},"sourceId":"osm"},{"id":"osm:node:12066366702","latitude":52.6374356,"longitude":1.216768,"name":"Wendene by Domino's","properties":{"access":"unknown","bicycle_pa":"stands","capacity":2,"covered":"no","fee":"","operator":"","nameSource":"landmark"},"sourceId":"osm"},{"id":"osm:node:12093541865","latitude":52.6381155,"longitude":1.217743,"name":"Wendene by Kingdom Hall of Jehovah's Witnesses","properties":{"access":"unknown","bicycle_pa":"stands","capacity":1,"covered":"","fee":"no","operator":"","nameSource":"landmark"},"sourceId":"osm"},{"id":"osm:node:12327082229","latitude":52.6017883,"longitude":1.2279341,"name":"Ward Close by Crackerjacks Nursery","properties":{"access":"unknown","bicycle_pa":"stands","capacity":10,"covered":"yes","fee":"","operator":"","nameSource":"landmark"},"sourceId":"osm"},{"id":"osm:node:12327082267","latitude":52.601926,"longitude":1.2284142,"name":"Walpole Crescent near Ward Close","properties":{"access":"unknown","bicycle_pa":"stands","capacity":6,"covered":"yes","fee":"","operator":"","nameSource":"junction"},"sourceId":"osm"},{"id":"osm:node:1244213600","latitude":52.637034,"longitude":1.2165139,"name":"Wendene by The Norkie","properties":{"access":"unknown","bicycle_pa":"","capacity":0,"covered":"","fee":"","operator":"","nameSource":"landmark"},"sourceId":"osm"},{"id":"osm:node:1244213668","latitude":52.6369993,"longitude":1.2176478,"name":"Boatman Way by Bowthorpe Pharmacy","properties":{"access":"unknown","bicycle_pa":"wall_loops","capacity":8,"covered":"no","fee":"","operator":"","nameSource":"landmark"},"sourceId":"osm"},{"id":"osm:node:1261338047","latitude":52.6184426,"longitude":1.2227133,"name":"Colney Lane cycle parking","properties":{"access":"unknown","bicycle_pa":"","capacity":28,"covered":"no","fee":"","operator":"","nameSource":"street"},"sourceId":"osm"},{"id":"osm:node:1261338180","latitude":52.6185096,"longitude":1.2224068,"name":"Colney Lane cycle parking","properties":{"access":"unknown","bicycle_pa":"","capacity":30,"covered":"no","fee":"","operator":"","nameSource":"street"},"sourceId":"osm"},{"id":"osm:node:1261338278","latitude":52.6163267,"longitude":1.2210151,"name":"Colney Woodland Walk cycle parking","properties":{"access":"unknown","bicycle_pa":"stands","capacity":16,"covered":"no","fee":"","operator":"","nameSource":"street"},"sourceId":"osm"},{"id":"osm:node:1261338344","latitude":52.617285,"longitude":1.2218074,"name":"Colney Woodland Walk cycle parking","properties":{"access":"unknown","bicycle_pa":"","capacity":20,"covered":"no","fee":"","operator":"","nameSource":"street"},"sourceId":"osm"},{"id":"osm:node:1261338350","latitude":52.6181613,"longitude":1.2217797,"name":"Feast@ Cafe Bar cycle parking","properties":{"access":"unknown","bicycle_pa":"","capacity":28,"covered":"no","fee":"","operator":"","nameSource":"landmark"},"sourceId":"osm"},{"id":"osm:node:13729923834","latitude":52.612026,"longitude":1.2271173,"name":"Holliday Avenue near La Cour Lane","properties":{"access":"unknown","bicycle_pa":"wall_loops","capacity":8,"covered":"no","fee":"","operator":"","nameSource":"junction"},"sourceId":"osm"},{"id":"osm:node:13780501766","latitude":52.6208542,"longitude":1.2174834,"name":"Rosalind Franklin Road by Community Diagnostic Centre Staff Garden","properties":{"access":"unknown","bicycle_pa":"stands","capacity":10,"covered":"no","fee":"no","operator":"","nameSource":"landmark"},"sourceId":"osm"},{"id":"osm:node:13780501777","latitude":52.6213482,"longitude":1.2179626,"name":"Rosalind Franklin Road by Community Diagnostic Centre Staff Garden","properties":{"access":"unknown","bicycle_pa":"two-tier","capacity":24,"covered":"yes","fee":"","operator":"","nameSource":"landmark"},"sourceId":"osm"},{"id":"osm:node:13919572342","latitude":52.6360121,"longitude":1.2162116,"name":"Bowthorpe Hall Road near Rubytail Way","properties":{"access":"unknown","bicycle_pa":"","capacity":0,"covered":"","fee":"","operator":"","nameSource":"junction"},"sourceId":"osm"},{"id":"osm:node:1690596230","latitude":52.6395573,"longitude":1.226046,"name":"Boatman Way near Humbleyard","properties":{"access":"unknown","bicycle_pa":"stands","capacity":12,"covered":"no","fee":"","operator":"","nameSource":"junction"},"sourceId":"osm"},{"id":"osm:node:1690596244","latitude":52.6396039,"longitude":1.2268344,"name":"Boatman Way near Honey Bee Way","properties":{"access":"unknown","bicycle_pa":"stands","capacity":8,"covered":"no","fee":"","operator":"","nameSource":"junction"},"sourceId":"osm"},{"id":"osm:node:1690620758","latitude":52.6375604,"longitude":1.2172239,"name":"Wendene by WOW Norwich","properties":{"access":"unknown","bicycle_pa":"stands","capacity":12,"covered":"no","fee":"","operator":"","nameSource":"landmark"},"sourceId":"osm"},{"id":"osm:node:2684008085","latitude":52.621551,"longitude":1.2194113,"name":"Genome Centre","properties":{"access":"unknown","bicycle_pa":"stands","capacity":0,"covered":"yes","fee":"","operator":"","nameSource":"source"},"sourceId":"osm"},{"id":"osm:node:2684008089","latitude":52.6217786,"longitude":1.2185798,"name":"Genome Centre","properties":{"access":"unknown","bicycle_pa":"stands","capacity":0,"covered":"yes","fee":"","operator":"","nameSource":"source"},"sourceId":"osm"},{"id":"osm:node:2684008092","latitude":52.6218793,"longitude":1.2186678,"name":"Genome Centre","properties":{"access":"unknown","bicycle_pa":"wall_loops","capacity":0,"covered":"yes","fee":"","operator":"","nameSource":"source"},"sourceId":"osm"},{"id":"osm:node:2684008186","latitude":52.6233968,"longitude":1.2244714,"name":"Colney Lane cycle parking","properties":{"access":"unknown","bicycle_pa":"wall_loops","capacity":0,"covered":"yes","fee":"","operator":"","nameSource":"street"},"sourceId":"osm"},{"id":"osm:node:2718032250","latitude":52.6213123,"longitude":1.2230895,"name":"Colney Lane cycle parking","properties":{"access":"unknown","bicycle_pa":"","capacity":0,"covered":"yes","fee":"","operator":"","nameSource":"street"},"sourceId":"osm"},{"id":"osm:node:3129288223","latitude":52.640302,"longitude":1.2124427,"name":"Hawkmoth Way by Chapel Break","properties":{"access":"unknown","bicycle_pa":"stands","capacity":6,"covered":"no","fee":"","operator":"","nameSource":"landmark"},"sourceId":"osm"},{"id":"osm:node:3806000767","latitude":52.6231879,"longitude":1.2198145,"name":"Caroline Pellew Way cycle parking","properties":{"access":"unknown","bicycle_pa":"stands","capacity":24,"covered":"yes","fee":"","operator":"","nameSource":"street"},"sourceId":"osm"},{"id":"osm:node:3806000768","latitude":52.6232136,"longitude":1.2197363,"name":"Caroline Pellew Way cycle parking","properties":{"access":"unknown","bicycle_pa":"stands","capacity":24,"covered":"yes","fee":"","operator":"","nameSource":"street"},"sourceId":"osm"},{"id":"osm:node:501813887","latitude":52.621458,"longitude":1.2241306,"name":"Colney Lane cycle parking","properties":{"access":"unknown","bicycle_pa":"wall_loops","capacity":5,"covered":"no","fee":"","operator":"","nameSource":"street"},"sourceId":"osm"},{"id":"osm:node:5253825701","latitude":52.6036127,"longitude":1.2221874,"name":"Norwich Road near Thickthorn Interchange","properties":{"access":"unknown","bicycle_pa":"stands","capacity":14,"covered":"yes","fee":"","operator":"","nameSource":"junction"},"sourceId":"osm"},{"id":"osm:node:587687997","latitude":52.6029205,"longitude":1.2199662,"name":"Thickthorn Services cycle parking","properties":{"access":"unknown","bicycle_pa":"stands","capacity":12,"covered":"yes","fee":"","operator":"Norfolk County Council","nameSource":"street"},"sourceId":"osm"},{"id":"osm:node:587687998","latitude":52.6028524,"longitude":1.2199486,"name":"Thickthorn Services cycle parking","properties":{"access":"unknown","bicycle_pa":"stands","capacity":12,"covered":"yes","fee":"","operator":"Norfolk County Council","nameSource":"street"},"sourceId":"osm"},{"id":"osm:node:6426865152","latitude":52.6313129,"longitude":1.18399,"name":"The Warren near Stocks Hill","properties":{"access":"unknown","bicycle_pa":"wall_loops","capacity":5,"covered":"no","fee":"","operator":"","nameSource":"junction"},"sourceId":"osm"},{"id":"osm:node:6504384802","latitude":52.5929731,"longitude":1.1763947,"name":"Norwich Road cycle parking","properties":{"access":"customers","bicycle_pa":"stands","capacity":10,"covered":"no","fee":"no","operator":"","nameSource":"street"},"sourceId":"osm"},{"id":"osm:node:6631757425","latitude":52.6213178,"longitude":1.2185772,"name":"Community Diagnostic Centre Staff Garden cycle parking","properties":{"access":"unknown","bicycle_pa":"","capacity":64,"covered":"yes","fee":"","operator":"","nameSource":"landmark"},"sourceId":"osm"},{"id":"osm:node:6631757426","latitude":52.6212575,"longitude":1.2187931,"name":"Earlham Institute cycle parking","properties":{"access":"unknown","bicycle_pa":"shed","capacity":64,"covered":"yes","fee":"","operator":"","nameSource":"landmark"},"sourceId":"osm"},{"id":"osm:node:6637023822","latitude":52.6101256,"longitude":1.2304101,"name":"Dragonfly Lane near Verbena Road","properties":{"access":"unknown","bicycle_pa":"stands","capacity":10,"covered":"half","fee":"","operator":"","nameSource":"junction"},"sourceId":"osm"},{"id":"osm:node:669397409","latitude":52.600099,"longitude":1.1823038,"name":"Hethersett Academy cycle parking","properties":{"access":"unknown","bicycle_pa":"","capacity":24,"covered":"","fee":"","operator":"Hethersett High School","nameSource":"landmark"},"sourceId":"osm"},{"id":"osm:node:6814017070","latitude":52.6196113,"longitude":1.2187837,"name":"Colney Lane near Rosalind Franklin Road","properties":{"access":"unknown","bicycle_pa":"stands","capacity":5,"covered":"no","fee":"","operator":"","nameSource":"junction"},"sourceId":"osm"},{"id":"osm:node:6814017071","latitude":52.6195282,"longitude":1.2186469,"name":"Rosalind Franklin Road near Colney Lane","properties":{"access":"unknown","bicycle_pa":"stands","capacity":5,"covered":"yes","fee":"","operator":"","nameSource":"junction"},"sourceId":"osm"},{"id":"osm:node:6814017072","latitude":52.6194753,"longitude":1.2186013,"name":"Rosalind Franklin Road near Colney Lane","properties":{"access":"unknown","bicycle_pa":"stands","capacity":5,"covered":"yes","fee":"","operator":"","nameSource":"junction"},"sourceId":"osm"},{"id":"osm:node:6814017073","latitude":52.6193776,"longitude":1.2185141,"name":"Rosalind Franklin Road near Colney Lane","properties":{"access":"unknown","bicycle_pa":"stands","capacity":5,"covered":"yes","fee":"","operator":"","nameSource":"junction"},"sourceId":"osm"},{"id":"osm:node:6814232385","latitude":52.6192408,"longitude":1.2228271,"name":"Colney Lane cycle parking","properties":{"access":"unknown","bicycle_pa":"stands","capacity":54,"covered":"no","fee":"","operator":"","nameSource":"street"},"sourceId":"osm"},{"id":"osm:node:6814320911","latitude":52.6203896,"longitude":1.2195186,"name":"Rosalind Franklin Road cycle parking","properties":{"access":"unknown","bicycle_pa":"","capacity":6,"covered":"yes","fee":"","operator":"","nameSource":"street"},"sourceId":"osm"},{"id":"osm:node:8482493722","latitude":52.6393513,"longitude":1.2262369,"name":"Humbleyard near Boatman Way","properties":{"access":"unknown","bicycle_pa":"stands","capacity":6,"covered":"no","fee":"","operator":"","nameSource":"junction"},"sourceId":"osm"},{"id":"osm:node:878762672","latitude":52.639922,"longitude":1.2260968,"name":"Humbleyard near Rawley Road","properties":{"access":"unknown","bicycle_pa":"stands","capacity":12,"covered":"no","fee":"","operator":"","nameSource":"junction"},"sourceId":"osm"},{"id":"osm:node:9116720632","latitude":52.6376088,"longitude":1.2205778,"name":"Boatman Way cycle parking","properties":{"access":"unknown","bicycle_pa":"stands","capacity":6,"covered":"no","fee":"","operator":"","nameSource":"street"},"sourceId":"osm"},{"id":"osm:node:9183621867","latitude":52.6164947,"longitude":1.2206034,"name":"Feast@ The Deli cycle parking","properties":{"access":"unknown","bicycle_pa":"","capacity":0,"covered":"no","fee":"","operator":"","nameSource":"landmark"},"sourceId":"osm"},{"id":"osm:node:9183621869","latitude":52.6163182,"longitude":1.2204052,"name":"Feast@ The Deli cycle parking","properties":{"access":"unknown","bicycle_pa":"","capacity":0,"covered":"no","fee":"","operator":"","nameSource":"landmark"},"sourceId":"osm"},{"id":"osm:node:9186862131","latitude":52.6165505,"longitude":1.2208246,"name":"Feast Hydration Station cycle parking","properties":{"access":"unknown","bicycle_pa":"","capacity":0,"covered":"","fee":"","operator":"","nameSource":"landmark"},"sourceId":"osm"},{"id":"osm:node:9191669566","latitude":52.6175199,"longitude":1.2213698,"name":"Norfolk and Norwich University Hospital:Emergency Department cycle parking","properties":{"access":"unknown","bicycle_pa":"","capacity":0,"covered":"","fee":"","operator":"","nameSource":"landmark"},"sourceId":"osm"},{"id":"osm:node:9191669567","latitude":52.6173303,"longitude":1.2213024,"name":"Norfolk and Norwich University Hospital:Emergency Department cycle parking","properties":{"access":"unknown","bicycle_pa":"","capacity":0,"covered":"","fee":"","operator":"","nameSource":"landmark"},"sourceId":"osm"},{"id":"osm:way:1215339308","latitude":52.640814379999995,"longitude":1.2119434999999998,"name":"Hawkmoth Way near Thurlby Road","properties":{"access":"unknown","bicycle_pa":"shed","capacity":0,"covered":"","fee":"","operator":"","nameSource":"junction"},"sourceId":"osm"},{"id":"osm:way:383538483","latitude":52.60012692,"longitude":1.18254716,"name":"Hethersett Scouts and Guides cycle parking","properties":{"access":"unknown","bicycle_pa":"shed","capacity":0,"covered":"yes","fee":"","operator":"","nameSource":"landmark"},"sourceId":"osm"},{"id":"osm:way:742520893","latitude":52.61772792000001,"longitude":1.21930968,"name":"The Pod cycle parking","properties":{"access":"unknown","bicycle_pa":"stands","capacity":60,"covered":"yes","fee":"","operator":"","nameSource":"landmark"},"sourceId":"osm"},{"id":"osm:way:742520894","latitude":52.61726952,"longitude":1.21895628,"name":"David Prior Garden cycle parking","properties":{"access":"unknown","bicycle_pa":"stands","capacity":50,"covered":"yes","fee":"","operator":"","nameSource":"landmark"},"sourceId":"osm"},{"id":"osm:way:993756432","latitude":52.61887705,"longitude":1.2195045833333336,"name":"Colney Lane near Rosalind Franklin Road","properties":{"access":"permit","bicycle_pa":"shed","capacity":0,"covered":"","fee":"","operator":"","nameSource":"junction"},"sourceId":"osm"},{"id":"osm:way:994976075","latitude":52.616062039999996,"longitude":1.21886228,"name":"Costa cycle parking","properties":{"access":"permit","bicycle_pa":"shed","capacity":0,"covered":"yes","fee":"","operator":"","nameSource":"landmark"},"sourceId":"osm"}],"schemaVersion":2}
