{"key":"12/2064/1365","points":[{"id":"osm:node:300919964","latitude":51.3366299,"longitude":1.4133939,"name":"High Street near Belmont Road","properties":{"access":"unknown","bicycle_pa":"stands","capacity":44,"covered":"no","fee":"","operator":"","nameSource":"junction"},"sourceId":"osm"},{"id":"osm:node:300926684","latitude":51.3334636,"longitude":1.4188797,"name":"Queen's Court near Cavendish Street","properties":{"access":"unknown","bicycle_pa":"stands","capacity":4,"covered":"no","fee":"","operator":"","nameSource":"junction"},"sourceId":"osm"},{"id":"osm:node:300933587","latitude":51.3327823,"longitude":1.4190879,"name":"Raffaelli Tunnel near York Street","properties":{"access":"unknown","bicycle_pa":"stands","capacity":4,"covered":"no","fee":"","operator":"","nameSource":"junction"},"sourceId":"osm"},{"id":"osm:node:300933627","latitude":51.330914,"longitude":1.4155668,"name":"Hertford Place near Hertford Street","properties":{"access":"unknown","bicycle_pa":"","capacity":4,"covered":"","fee":"","operator":"","nameSource":"junction"},"sourceId":"osm"},{"id":"osm:node:300933628","latitude":51.3308817,"longitude":1.4154999,"name":"Hertford Place near Hertford Street","properties":{"access":"unknown","bicycle_pa":"","capacity":4,"covered":"","fee":"","operator":"","nameSource":"junction"},"sourceId":"osm"},{"id":"osm:node:559461423","latitude":51.3305593,"longitude":1.4075821,"name":"Cannonbury Road near Grange Road","properties":{"access":"unknown","bicycle_pa":"stands","capacity":4,"covered":"no","fee":"","operator":"","nameSource":"junction"},"sourceId":"osm"},{"id":"osm:node:559461443","latitude":51.3322504,"longitude":1.4157392,"name":"Air Raid Shelter Tunnel by Grumpy Goblin","properties":{"access":"unknown","bicycle_pa":"stands","capacity":4,"covered":"no","fee":"","operator":"","nameSource":"landmark"},"sourceId":"osm"},{"id":"osm:node:559461490","latitude":51.3332832,"longitude":1.419117,"name":"Cavendish Street near Queen Street","properties":{"access":"unknown","bicycle_pa":"stands","capacity":2,"covered":"no","fee":"no","operator":"","nameSource":"junction"},"sourceId":"osm"},{"id":"osm:node:559461491","latitude":51.3334144,"longitude":1.4193908,"name":"Harbour Street near High Street","properties":{"access":"unknown","bicycle_pa":"stands","capacity":2,"covered":"no","fee":"no","operator":"","nameSource":"junction"},"sourceId":"osm"},{"id":"osm:node:559461494","latitude":51.3322164,"longitude":1.420798,"name":"Military Road near Harbour Parade","properties":{"access":"unknown","bicycle_pa":"stands","capacity":8,"covered":"no","fee":"","operator":"","nameSource":"junction"},"sourceId":"osm"},{"id":"osm:node:559461498","latitude":51.3324181,"longitude":1.4207435,"name":"Albion Hill near Harbour Street","properties":{"access":"unknown","bicycle_pa":"stands","capacity":8,"covered":"no","fee":"","operator":"","nameSource":"junction"},"sourceId":"osm"},{"id":"osm:node:559461515","latitude":51.3322146,"longitude":1.4243182,"name":"Marina Esplanade near Harbour Parade","properties":{"access":"unknown","bicycle_pa":"stands","capacity":10,"covered":"no","fee":"","operator":"","nameSource":"junction"},"sourceId":"osm"},{"id":"osm:node:559461522","latitude":51.3340174,"longitude":1.4190285,"name":"High Street near Turner Street","properties":{"access":"unknown","bicycle_pa":"stands","capacity":2,"covered":"no","fee":"","operator":"","nameSource":"junction"},"sourceId":"osm"},{"id":"osm:node:559461526","latitude":51.334504,"longitude":1.4184009,"name":"High Street near Hardres Street","properties":{"access":"unknown","bicycle_pa":"stands","capacity":2,"covered":"no","fee":"","operator":"","nameSource":"junction"},"sourceId":"osm"},{"id":"osm:node:8210167080","latitude":51.3334257,"longitude":1.4194277,"name":"Harbour Street near High Street","properties":{"access":"unknown","bicycle_pa":"stands","capacity":2,"covered":"no","fee":"no","operator":"","nameSource":"junction"},"sourceId":"osm"},{"id":"osm:node:9385929448","latitude":51.3389591,"longitude":1.4219159,"name":"St Lukes Avenue near Hardres Road","properties":{"access":"permissive","bicycle_pa":"stands","capacity":4,"covered":"no","fee":"","operator":"","nameSource":"junction"},"sourceId":"osm"},{"id":"osm:node:9904285406","latitude":51.3317439,"longitude":1.4234216,"name":"East Pier by Royal Victoria Pavilion","properties":{"access":"unknown","bicycle_pa":"stands","capacity":12,"covered":"no","fee":"","operator":"","nameSource":"landmark"},"sourceId":"osm"}],"schemaVersion":2}
