{"key":"12/2038/1347","points":[{"id":"osm:node:11654726630","latitude":52.2761373,"longitude":-0.869595,"name":"Deer Park Road near Mansion Close","properties":{"access":"private","bicycle_pa":"stands","capacity":0,"covered":"no","fee":"","operator":"Greencore","nameSource":"junction"},"sourceId":"osm"},{"id":"osm:node:11654726641","latitude":52.2713389,"longitude":-0.8255576,"name":"Prentice Court near Goldings Road","properties":{"access":"yes","bicycle_pa":"stands","capacity":6,"covered":"no","fee":"no","operator":"","nameSource":"junction"},"sourceId":"osm"},{"id":"osm:node:11654726642","latitude":52.276028,"longitude":-0.8280925,"name":"Great Gull Crescent by Southfield Grill & Pizza","properties":{"access":"yes","bicycle_pa":"stands","capacity":2,"covered":"no","fee":"no","operator":"","nameSource":"landmark"},"sourceId":"osm"},{"id":"osm:node:11967776949","latitude":52.2730301,"longitude":-0.8591764,"name":"Brad Street cycle parking","properties":{"access":"private","bicycle_pa":"wall_loops","capacity":16,"covered":"yes","fee":"","operator":"","nameSource":"street"},"sourceId":"osm"},{"id":"osm:node:11967776950","latitude":52.2731367,"longitude":-0.8634032,"name":"Talavera Way cycle parking","properties":{"access":"yes","bicycle_pa":"stands","capacity":10,"covered":"yes","fee":"no","operator":"","nameSource":"street"},"sourceId":"osm"},{"id":"osm:node:11967776951","latitude":52.2729182,"longitude":-0.8653036,"name":"Darnell Way by Domino's","properties":{"access":"yes","bicycle_pa":"stands","capacity":4,"covered":"no","fee":"no","operator":"","nameSource":"landmark"},"sourceId":"osm"},{"id":"osm:node:11967776952","latitude":52.2732182,"longitude":-0.8655017,"name":"Darnell Way by Greggs","properties":{"access":"yes","bicycle_pa":"stands","capacity":4,"covered":"no","fee":"no","operator":"","nameSource":"landmark"},"sourceId":"osm"},{"id":"osm:node:11967776953","latitude":52.2731755,"longitude":-0.8655198,"name":"Darnell Way by Greggs","properties":{"access":"unknown","bicycle_pa":"stands","capacity":0,"covered":"yes","fee":"","operator":"","nameSource":"landmark"},"sourceId":"osm"},{"id":"osm:node:11967776954","latitude":52.2733045,"longitude":-0.8760044,"name":"Kings Park Road by Nationwide","properties":{"access":"yes","bicycle_pa":"bollard","capacity":2,"covered":"no","fee":"no","operator":"","nameSource":"landmark"},"sourceId":"osm"},{"id":"osm:node:11967776955","latitude":52.2768889,"longitude":-0.8777069,"name":"Kings Park Road cycle parking","properties":{"access":"permissive","bicycle_pa":"stands","capacity":10,"covered":"yes","fee":"no","operator":"","nameSource":"street"},"sourceId":"osm"},{"id":"osm:node:11967776956","latitude":52.2768804,"longitude":-0.8782309,"name":"Kings Park Road cycle parking","properties":{"access":"permissive","bicycle_pa":"stands","capacity":10,"covered":"yes","fee":"no","operator":"","nameSource":"street"},"sourceId":"osm"},{"id":"osm:node:11967776957","latitude":52.2765831,"longitude":-0.8781573,"name":"Regal Close cycle parking","properties":{"access":"permissive","bicycle_pa":"stands","capacity":10,"covered":"yes","fee":"no","operator":"","nameSource":"street"},"sourceId":"osm"},{"id":"osm:node:11967776958","latitude":52.2773681,"longitude":-0.8780938,"name":"Red House Road by Northamptonshire Healthcare Alliance Pharmacy","properties":{"access":"permissive","bicycle_pa":"stands","capacity":10,"covered":"yes","fee":"no","operator":"","nameSource":"landmark"},"sourceId":"osm"},{"id":"osm:node:12230265391","latitude":52.2889539,"longitude":-0.8356206,"name":"Moulton Bypass near Moulton Roundabout","properties":{"access":"yes","bicycle_pa":"stands","capacity":8,"covered":"no","fee":"no","operator":"","nameSource":"junction"},"sourceId":"osm"},{"id":"osm:node:13471031156","latitude":52.2714646,"longitude":-0.8532409,"name":"Booth Lane North near Kettering Road","properties":{"access":"yes","bicycle_pa":"stands","capacity":6,"covered":"no","fee":"no","operator":"","nameSource":"junction"},"sourceId":"osm"}],"schemaVersion":2}
