{"key":"12/2038/1348","points":[{"id":"osm:node:10031393766","latitude":52.2380435,"longitude":-0.8683816,"name":"St Andrew's College cycle parking","properties":{"access":"unknown","bicycle_pa":"","capacity":10,"covered":"","fee":"","operator":"","nameSource":"landmark"},"sourceId":"osm"},{"id":"osm:node:10031506740","latitude":52.2426444,"longitude":-0.8739282,"name":"Barry Road near Wellingborough Road","properties":{"access":"unknown","bicycle_pa":"stands","capacity":8,"covered":"no","fee":"","operator":"","nameSource":"junction"},"sourceId":"osm"},{"id":"osm:node:11654726624","latitude":52.2416598,"longitude":-0.8788264,"name":"Bouverie Street near Wellingborough Road","properties":{"access":"yes","bicycle_pa":"streetpod","capacity":2,"covered":"no","fee":"no","operator":"","nameSource":"junction"},"sourceId":"osm"},{"id":"osm:node:11654726626","latitude":52.242032,"longitude":-0.8768753,"name":"Wellingborough Road near East Street","properties":{"access":"yes","bicycle_pa":"bollard","capacity":2,"covered":"no","fee":"no","operator":"","nameSource":"junction"},"sourceId":"osm"},{"id":"osm:node:11654726627","latitude":52.2419074,"longitude":-0.8767595,"name":"East Street near Wellingborough Road","properties":{"access":"yes","bicycle_pa":"bollard","capacity":4,"covered":"no","fee":"no","operator":"","nameSource":"junction"},"sourceId":"osm"},{"id":"osm:node:11654726628","latitude":52.2421942,"longitude":-0.8757893,"name":"Stimpson Avenue near Wellingborough Road","properties":{"access":"yes","bicycle_pa":"bollard","capacity":2,"covered":"no","fee":"no","operator":"","nameSource":"junction"},"sourceId":"osm"},{"id":"osm:node:11654726629","latitude":52.2437484,"longitude":-0.8718472,"name":"Christchurch Road near Wycliffe Road","properties":{"access":"yes","bicycle_pa":"bollard","capacity":4,"covered":"no","fee":"no","operator":"","nameSource":"junction"},"sourceId":"osm"},{"id":"osm:node:11654726631","latitude":52.2566528,"longitude":-0.8369842,"name":"Octagon Way by Indigo Sun","properties":{"access":"yes","bicycle_pa":"stands","capacity":8,"covered":"yes","fee":"no","operator":"","nameSource":"landmark"},"sourceId":"osm"},{"id":"osm:node:11654726632","latitude":52.2570403,"longitude":-0.8374647,"name":"Octagon Way by Pets and Friends","properties":{"access":"yes","bicycle_pa":"stands","capacity":8,"covered":"yes","fee":"no","operator":"","nameSource":"landmark"},"sourceId":"osm"},{"id":"osm:node:11654726633","latitude":52.2577087,"longitude":-0.8361588,"name":"Peniston Walk by William Hill","properties":{"access":"yes","bicycle_pa":"stands","capacity":6,"covered":"yes","fee":"no","operator":"","nameSource":"landmark"},"sourceId":"osm"},{"id":"osm:node:11654726634","latitude":52.2519297,"longitude":-0.8303114,"name":"Runnymede Gardens near Walledwell Court","properties":{"access":"yes","bicycle_pa":"stands","capacity":6,"covered":"no","fee":"no","operator":"","nameSource":"junction"},"sourceId":"osm"},{"id":"osm:node:11654726635","latitude":52.2439414,"longitude":-0.8360653,"name":"Lumbertubs Way Interchange near Ferris Row","properties":{"access":"yes","bicycle_pa":"stands","capacity":0,"covered":"no","fee":"no","operator":"","nameSource":"junction"},"sourceId":"osm"},{"id":"osm:node:11654726636","latitude":52.2437479,"longitude":-0.8369127,"name":"Marquee Drive by KFC","properties":{"access":"yes","bicycle_pa":"stands","capacity":10,"covered":"no","fee":"no","operator":"","nameSource":"landmark"},"sourceId":"osm"},{"id":"osm:node:11654726637","latitude":52.2434386,"longitude":-0.8378149,"name":"Marquee Drive by Frankie & Benny's","properties":{"access":"yes","bicycle_pa":"stands","capacity":8,"covered":"no","fee":"no","operator":"","nameSource":"landmark"},"sourceId":"osm"},{"id":"osm:node:11654726638","latitude":52.2414661,"longitude":-0.8405598,"name":"Fairground Way by ScS","properties":{"access":"yes","bicycle_pa":"stands","capacity":8,"covered":"no","fee":"no","operator":"","nameSource":"landmark"},"sourceId":"osm"},{"id":"osm:node:11654726639","latitude":52.2413858,"longitude":-0.8407616,"name":"Fairground Way by Halfords","properties":{"access":"yes","bicycle_pa":"stands","capacity":12,"covered":"no","fee":"no","operator":"","nameSource":"landmark"},"sourceId":"osm"},{"id":"osm:node:11654726640","latitude":52.242784,"longitude":-0.8381547,"name":"Marquee Drive cycle parking","properties":{"access":"yes","bicycle_pa":"stands","capacity":10,"covered":"no","fee":"no","operator":"","nameSource":"street"},"sourceId":"osm"},{"id":"osm:node:11967776942","latitude":52.2536324,"longitude":-0.8763592,"name":"Kettering Road near Moore Street","properties":{"access":"yes","bicycle_pa":"stands","capacity":2,"covered":"no","fee":"no","operator":"","nameSource":"junction"},"sourceId":"osm"},{"id":"osm:node:11967776943","latitude":52.2571784,"longitude":-0.8701969,"name":"Broadmead Avenue near Park Avenue North","properties":{"access":"customers","bicycle_pa":"stands","capacity":6,"covered":"yes","fee":"no","operator":"","nameSource":"junction"},"sourceId":"osm"},{"id":"osm:node:11967776944","latitude":52.2591603,"longitude":-0.8726648,"name":"Kettering Road by Timpson","properties":{"access":"yes","bicycle_pa":"stands","capacity":10,"covered":"yes","fee":"no","operator":"","nameSource":"landmark"},"sourceId":"osm"},{"id":"osm:node:11967776945","latitude":52.2600119,"longitude":-0.8718046,"name":"Kettering Road by Starbucks","properties":{"access":"yes","bicycle_pa":"stands","capacity":8,"covered":"no","fee":"no","operator":"","nameSource":"landmark"},"sourceId":"osm"},{"id":"osm:node:11967776946","latitude":52.2597368,"longitude":-0.8717363,"name":"Kettering Road by Starbucks","properties":{"access":"yes","bicycle_pa":"stands","capacity":12,"covered":"no","fee":"no","operator":"","nameSource":"landmark"},"sourceId":"osm"},{"id":"osm:node:11967776947","latitude":52.2597759,"longitude":-0.8716879,"name":"Kettering Road by Starbucks","properties":{"access":"yes","bicycle_pa":"lockers","capacity":0,"covered":"yes","fee":"no","operator":"","nameSource":"landmark"},"sourceId":"osm"},{"id":"osm:node:11967776948","latitude":52.2652886,"longitude":-0.8627623,"name":"Woolstone Close cycle parking","properties":{"access":"yes","bicycle_pa":"stands","capacity":6,"covered":"no","fee":"no","operator":"","nameSource":"street"},"sourceId":"osm"},{"id":"osm:node:12379781986","latitude":52.2567581,"longitude":-0.833891,"name":"Billing Brook Road cycle parking","properties":{"access":"yes","bicycle_pa":"stands","capacity":4,"covered":"no","fee":"","operator":"","nameSource":"street"},"sourceId":"osm"},{"id":"osm:node:12379781987","latitude":52.2570918,"longitude":-0.8338696,"name":"Billing Brook Road by Lings Forum Leisure Centre","properties":{"access":"yes","bicycle_pa":"stands","capacity":12,"covered":"no","fee":"","operator":"","nameSource":"landmark"},"sourceId":"osm"},{"id":"osm:node:12448073053","latitude":52.2469436,"longitude":-0.8652046,"name":"Park Avenue South cycle parking","properties":{"access":"unknown","bicycle_pa":"stands","capacity":8,"covered":"no","fee":"","operator":"","nameSource":"street"},"sourceId":"osm"},{"id":"osm:node:13777157387","latitude":52.2452644,"longitude":-0.8113928,"name":"Crow Lane by The Quays","properties":{"access":"customers","bicycle_pa":"stands","capacity":0,"covered":"no","fee":"no","operator":"","nameSource":"landmark"},"sourceId":"osm"},{"id":"osm:node:5738509006","latitude":52.2418646,"longitude":-0.8786098,"name":"Whitworth Road near Wellingborough Road","properties":{"access":"unknown","bicycle_pa":"stands","capacity":4,"covered":"no","fee":"","operator":"","nameSource":"junction"},"sourceId":"osm"},{"id":"osm:node:6801374498","latitude":52.2514746,"longitude":-0.847414,"name":"Wellingborough Road by Aldi","properties":{"access":"unknown","bicycle_pa":"stands","capacity":12,"covered":"yes","fee":"","operator":"Aldi","nameSource":"landmark"},"sourceId":"osm"}],"schemaVersion":2}
