{"key":"12/2038/1352","points":[{"id":"osm:node:12411907603","latitude":52.0483796,"longitude":-0.8414906,"name":"Gib Lane by Fairfields Park","properties":{"access":"unknown","bicycle_pa":"stands","capacity":10,"covered":"no","fee":"","operator":"","nameSource":"landmark"},"sourceId":"osm"},{"id":"osm:node:13069803457","latitude":52.0037624,"longitude":-0.793694,"name":"Barnsdale Drive by Rok Barbers","properties":{"access":"unknown","bicycle_pa":"stands","capacity":8,"covered":"no","fee":"","operator":"","nameSource":"landmark"},"sourceId":"osm"},{"id":"osm:node:13069816569","latitude":52.003689,"longitude":-0.7935558,"name":"Barnsdale Drive by Rok Barbers","properties":{"access":"unknown","bicycle_pa":"stands","capacity":16,"covered":"no","fee":"","operator":"","nameSource":"landmark"},"sourceId":"osm"},{"id":"osm:node:13071379563","latitude":52.0039558,"longitude":-0.79595,"name":"Wimborne Crescent by Norse Vape","properties":{"access":"unknown","bicycle_pa":"stands","capacity":20,"covered":"no","fee":"","operator":"","nameSource":"landmark"},"sourceId":"osm"},{"id":"osm:node:3701938327","latitude":52.0028325,"longitude":-0.7913781,"name":"Barnsdale Drive by The Grumpy Cook","properties":{"access":"unknown","bicycle_pa":"","capacity":0,"covered":"","fee":"","operator":"","nameSource":"landmark"},"sourceId":"osm"},{"id":"osm:node:6901213145","latitude":52.0436967,"longitude":-0.8183325,"name":"Brick Close cycle parking","properties":{"access":"unknown","bicycle_pa":"stands","capacity":10,"covered":"yes","fee":"","operator":"","nameSource":"street"},"sourceId":"osm"},{"id":"osm:way:1497782482","latitude":52.04226112,"longitude":-0.83367854,"name":"Julius Place cycle parking","properties":{"access":"unknown","bicycle_pa":"stands","capacity":0,"covered":"","fee":"","operator":"","nameSource":"street"},"sourceId":"osm"},{"id":"osm:way:1497782483","latitude":52.04220472000001,"longitude":-0.8335369399999999,"name":"Fairfields Junior School cycle parking","properties":{"access":"unknown","bicycle_pa":"stands","capacity":0,"covered":"","fee":"","operator":"","nameSource":"landmark"},"sourceId":"osm"},{"id":"osm:way:1497782484","latitude":52.042156139999996,"longitude":-0.83342886,"name":"Fairfields Junior School cycle parking","properties":{"access":"unknown","bicycle_pa":"stands","capacity":0,"covered":"","fee":"","operator":"","nameSource":"landmark"},"sourceId":"osm"}],"schemaVersion":2}
