{"key":"12/2038/1365","points":[{"id":"osm:node:12323575723","latitude":51.2905887,"longitude":-0.8307967,"name":"Platform 2","properties":{"access":"unknown","bicycle_pa":"stands","capacity":72,"covered":"yes","fee":"no","operator":"","nameSource":"source"},"sourceId":"osm"},{"id":"osm:node:12787732145","latitude":51.3343768,"longitude":-0.8089034,"name":"Frogmore Leisure Centre cycle parking","properties":{"access":"unknown","bicycle_pa":"stands","capacity":8,"covered":"no","fee":"","operator":"","nameSource":"landmark"},"sourceId":"osm"},{"id":"osm:node:3545088194","latitude":51.2951992,"longitude":-0.8222728,"name":"Falkners Close cycle parking","properties":{"access":"unknown","bicycle_pa":"","capacity":0,"covered":"","fee":"","operator":"","nameSource":"street"},"sourceId":"osm"},{"id":"osm:node:4253527437","latitude":51.2905462,"longitude":-0.8584228,"name":"The Key near Elvetham Heath Way","properties":{"access":"unknown","bicycle_pa":"stands","capacity":10,"covered":"no","fee":"","operator":"","nameSource":"junction"},"sourceId":"osm"},{"id":"osm:node:4253527439","latitude":51.2906187,"longitude":-0.8568432,"name":"The Key by Church on the Heath","properties":{"access":"unknown","bicycle_pa":"stands","capacity":8,"covered":"no","fee":"","operator":"","nameSource":"landmark"},"sourceId":"osm"},{"id":"osm:node:6420947265","latitude":51.2907972,"longitude":-0.8312201,"name":"Fleet Station Cycle Hub (Platform 1)","properties":{"access":"customers","bicycle_pa":"building","capacity":202,"covered":"yes","fee":"no","operator":"South Western Railway","nameSource":"source"},"sourceId":"osm"},{"id":"osm:node:6658442793","latitude":51.2921336,"longitude":-0.8684147,"name":"Fleet Road near Pale Lane","properties":{"access":"unknown","bicycle_pa":"stands","capacity":4,"covered":"no","fee":"","operator":"","nameSource":"junction"},"sourceId":"osm"},{"id":"osm:node:8463671189","latitude":51.3393147,"longitude":-0.8470873,"name":"Ryves Avenue near Tesimond Drive","properties":{"access":"unknown","bicycle_pa":"wall_loops","capacity":0,"covered":"no","fee":"","operator":"","nameSource":"junction"},"sourceId":"osm"},{"id":"osm:node:8995423209","latitude":51.2945905,"longitude":-0.8229183,"name":"Farm Drive near Falkners Close","properties":{"access":"yes","bicycle_pa":"stands","capacity":4,"covered":"no","fee":"no","operator":"","nameSource":"junction"},"sourceId":"osm"},{"id":"osm:way:638332741","latitude":51.2926244,"longitude":-0.79913664,"name":"Summit Avenue cycle parking","properties":{"access":"unknown","bicycle_pa":"stands","capacity":0,"covered":"yes","fee":"","operator":"","nameSource":"street"},"sourceId":"osm"}],"schemaVersion":2}
