{"key":"12/1979/1331","points":[{"id":"osm:node:10004433388","latitude":53.1462211,"longitude":-6.0600348,"name":"Marine Road cycle parking","properties":{"access":"unknown","bicycle_pa":"stands","capacity":8,"covered":"no","fee":"","operator":"","nameSource":"street"},"sourceId":"osm"},{"id":"osm:node:10004452297","latitude":53.1435582,"longitude":-6.0607419,"name":"Church Road near Killincarrig Road","properties":{"access":"unknown","bicycle_pa":"","capacity":0,"covered":"","fee":"","operator":"","nameSource":"junction"},"sourceId":"osm"},{"id":"osm:node:10004454745","latitude":53.1474083,"longitude":-6.0603405,"name":"Marine Road cycle parking","properties":{"access":"unknown","bicycle_pa":"stands","capacity":8,"covered":"no","fee":"","operator":"","nameSource":"street"},"sourceId":"osm"},{"id":"osm:node:10712737015","latitude":53.1419492,"longitude":-6.0589972,"name":"Church Road near Mill Road","properties":{"access":"yes","bicycle_pa":"stands","capacity":8,"covered":"no","fee":"no","operator":"","nameSource":"junction"},"sourceId":"osm"},{"id":"osm:node:11085384265","latitude":53.144865,"longitude":-6.0630628,"name":"Church Road near Bow Lane","properties":{"access":"unknown","bicycle_pa":"","capacity":8,"covered":"","fee":"","operator":"","nameSource":"junction"},"sourceId":"osm"},{"id":"osm:node:13309220738","latitude":53.1249206,"longitude":-6.0609795,"name":"Hawkins Wood Avenue cycle parking","properties":{"access":"yes","bicycle_pa":"stands","capacity":12,"covered":"no","fee":"no","operator":"","nameSource":"street"},"sourceId":"osm"},{"id":"osm:node:1838820541","latitude":53.1438811,"longitude":-6.0609409,"name":"Church Road near Killincarrig Road","properties":{"access":"unknown","bicycle_pa":"stands","capacity":46,"covered":"yes","fee":"","operator":"","nameSource":"junction"},"sourceId":"osm"},{"id":"osm:way:1194238735","latitude":53.14427954,"longitude":-6.061891060000001,"name":"Church Road near Bow Lane","properties":{"access":"unknown","bicycle_pa":"","capacity":0,"covered":"","fee":"","operator":"","nameSource":"junction"},"sourceId":"osm"},{"id":"osm:way:1434962151","latitude":53.12403708333333,"longitude":-6.060595683333333,"name":"Hawkins Wood Close cycle parking","properties":{"access":"private","bicycle_pa":"shed","capacity":0,"covered":"yes","fee":"no","operator":"","nameSource":"street"},"sourceId":"osm"},{"id":"osm:way:1435781638","latitude":53.1254988,"longitude":-6.061905,"name":"Hawkins Wood Grove cycle parking","properties":{"access":"private","bicycle_pa":"shed","capacity":0,"covered":"yes","fee":"no","operator":"","nameSource":"street"},"sourceId":"osm"},{"id":"osm:way:686189016","latitude":53.143586219999996,"longitude":-6.06132426,"name":"Killincarrig Road near Church Road","properties":{"access":"unknown","bicycle_pa":"stands","capacity":50,"covered":"no","fee":"no","operator":"","nameSource":"junction"},"sourceId":"osm"}],"schemaVersion":2}
