{"key":"12/1979/1589","points":[{"id":"osm:node:11656023425","latitude":37.3502584,"longitude":-6.0407806,"name":"Rampa parking cycle parking","properties":{"access":"unknown","bicycle_pa":"","capacity":0,"covered":"","fee":"","operator":"","nameSource":"street"},"sourceId":"osm"},{"id":"osm:node:11656023426","latitude":37.3499945,"longitude":-6.0401047,"name":"Camino de Entrada Sur cycle parking","properties":{"access":"unknown","bicycle_pa":"","capacity":0,"covered":"","fee":"","operator":"","nameSource":"street"},"sourceId":"osm"},{"id":"osm:node:12529420601","latitude":37.3670116,"longitude":-6.034531,"name":"Burger King cycle parking","properties":{"access":"unknown","bicycle_pa":"stands","capacity":6,"covered":"no","fee":"","operator":"","nameSource":"landmark"},"sourceId":"osm"},{"id":"osm:node:1254502947","latitude":37.3495014,"longitude":-6.0528193,"name":"Vial Metropolitano del Aljarafe by Bilbioteca Pública José Saramago","properties":{"access":"unknown","bicycle_pa":"","capacity":0,"covered":"","fee":"","operator":"","nameSource":"landmark"},"sourceId":"osm"},{"id":"osm:node:2266831386","latitude":37.3629217,"longitude":-5.9866292,"name":"Avenida de la Reina Mercedes by 153 Avenida Reina Mercedes","properties":{"access":"unknown","bicycle_pa":"","capacity":0,"covered":"no","fee":"University","operator":"","nameSource":"landmark"},"sourceId":"osm"},{"id":"osm:node:3029567786","latitude":37.3636899,"longitude":-5.9869659,"name":"Calle Sor Gregoria de Santa Teresa near Calle Páez de Rivera","properties":{"access":"unknown","bicycle_pa":"","capacity":6,"covered":"","fee":"","operator":"","nameSource":"junction"},"sourceId":"osm"},{"id":"osm:node:3029567788","latitude":37.3639991,"longitude":-5.9897126,"name":"Avenida de Las Razas near Calle Páez de Rivera","properties":{"access":"unknown","bicycle_pa":"","capacity":3,"covered":"","fee":"","operator":"","nameSource":"junction"},"sourceId":"osm"},{"id":"osm:node:3029567789","latitude":37.365277,"longitude":-5.9856411,"name":"Calle Isaac Peral near Avenida de la Palmera","properties":{"access":"unknown","bicycle_pa":"stands","capacity":5,"covered":"no","fee":"","operator":"","nameSource":"junction"},"sourceId":"osm"},{"id":"osm:node:3029567790","latitude":37.3658656,"longitude":-5.9876742,"name":"Calle Chaves Rey near Calle Lorenzo de Sepúlveda","properties":{"access":"unknown","bicycle_pa":"","capacity":5,"covered":"","fee":"","operator":"","nameSource":"junction"},"sourceId":"osm"},{"id":"osm:node:3619687103","latitude":37.3477655,"longitude":-5.976779,"name":"Avenida del Reino Unido near Calle Dresde","properties":{"access":"unknown","bicycle_pa":"","capacity":0,"covered":"","fee":"","operator":"","nameSource":"junction"},"sourceId":"osm"},{"id":"osm:node:3619687104","latitude":37.3497552,"longitude":-5.9772491,"name":"Avenida del Reino Unido by Burger King","properties":{"access":"unknown","bicycle_pa":"","capacity":0,"covered":"","fee":"","operator":"","nameSource":"landmark"},"sourceId":"osm"},{"id":"osm:node:3619687105","latitude":37.361095,"longitude":-5.9855762,"name":"Calle Monzón near Calle Tramontana","properties":{"access":"unknown","bicycle_pa":"","capacity":0,"covered":"","fee":"","operator":"","nameSource":"junction"},"sourceId":"osm"},{"id":"osm:node:3619687106","latitude":37.3625986,"longitude":-5.9840313,"name":"Avenida de la Palmera cycle parking","properties":{"access":"unknown","bicycle_pa":"stands","capacity":0,"covered":"no","fee":"","operator":"","nameSource":"street"},"sourceId":"osm"},{"id":"osm:node:3619687108","latitude":37.36395,"longitude":-5.9897151,"name":"Avenida de Las Razas near Calle Páez de Rivera","properties":{"access":"unknown","bicycle_pa":"","capacity":3,"covered":"","fee":"","operator":"","nameSource":"junction"},"sourceId":"osm"},{"id":"osm:node:3619694262","latitude":37.3480027,"longitude":-5.9782217,"name":"Calle Bruselas near Calle Lyon","properties":{"access":"unknown","bicycle_pa":"","capacity":0,"covered":"","fee":"","operator":"","nameSource":"junction"},"sourceId":"osm"},{"id":"osm:node:3627412585","latitude":37.3681922,"longitude":-6.0074184,"name":"Calle Aeródromo de Tablada near Travesía Calle Guillermo Jiménez Sanchez","properties":{"access":"unknown","bicycle_pa":"","capacity":0,"covered":"","fee":"","operator":"","nameSource":"junction"},"sourceId":"osm"},{"id":"osm:node:3627422493","latitude":37.3581558,"longitude":-5.9775794,"name":"Calle Bami near Calle Castillo de Cortegana","properties":{"access":"unknown","bicycle_pa":"","capacity":12,"covered":"no","fee":"","operator":"","nameSource":"junction"},"sourceId":"osm"},{"id":"osm:node:3627422494","latitude":37.3592154,"longitude":-5.9798029,"name":"Avenida Manuel Siurot near Calle Francisco Murillo","properties":{"access":"unknown","bicycle_pa":"","capacity":0,"covered":"","fee":"","operator":"","nameSource":"junction"},"sourceId":"osm"},{"id":"osm:node:3685362024","latitude":37.3592313,"longitude":-5.979763,"name":"Avenida Manuel Siurot near Calle Francisco Murillo","properties":{"access":"unknown","bicycle_pa":"","capacity":0,"covered":"","fee":"","operator":"","nameSource":"junction"},"sourceId":"osm"},{"id":"osm:node:3685362625","latitude":37.360673,"longitude":-5.9805345,"name":"Calle Torcuato Luca de Tena near Calle Castillo de Aroche","properties":{"access":"unknown","bicycle_pa":"","capacity":0,"covered":"","fee":"","operator":"","nameSource":"junction"},"sourceId":"osm"},{"id":"osm:node:3685588515","latitude":37.3697888,"longitude":-5.9835274,"name":"Calle Valparaiso near Calle Colombia","properties":{"access":"unknown","bicycle_pa":"","capacity":0,"covered":"","fee":"","operator":"","nameSource":"junction"},"sourceId":"osm"},{"id":"osm:node:4553050548","latitude":37.3494827,"longitude":-5.9858948,"name":"Plaza Huerta de San Gonzalo by B.P. Sevilla S.A.","properties":{"access":"unknown","bicycle_pa":"","capacity":0,"covered":"","fee":"","operator":"","nameSource":"landmark"},"sourceId":"osm"},{"id":"osm:node:4553070896","latitude":37.3575174,"longitude":-5.9809534,"name":"Glorieta Plus Ultra near Avenida de la Palmera","properties":{"access":"unknown","bicycle_pa":"stands","capacity":0,"covered":"no","fee":"","operator":"","nameSource":"junction"},"sourceId":"osm"},{"id":"osm:node:4553092036","latitude":37.3613786,"longitude":-5.9817348,"name":"Avenida Manuel Siurot by 116 Calle Manuel Siurot","properties":{"access":"unknown","bicycle_pa":"","capacity":0,"covered":"","fee":"","operator":"","nameSource":"landmark"},"sourceId":"osm"},{"id":"osm:node:4553099496","latitude":37.363825,"longitude":-5.9836225,"name":"Calle Cardenal Ilundáin near Avenida Manuel Siurot","properties":{"access":"unknown","bicycle_pa":"stands","capacity":0,"covered":"","fee":"","operator":"","nameSource":"junction"},"sourceId":"osm"},{"id":"osm:node:4553100597","latitude":37.3638642,"longitude":-5.9835294,"name":"Calle Cardenal Ilundáin near Avenida Manuel Siurot","properties":{"access":"unknown","bicycle_pa":"","capacity":0,"covered":"","fee":"","operator":"","nameSource":"junction"},"sourceId":"osm"},{"id":"osm:node:4553100681","latitude":37.3637155,"longitude":-5.9847201,"name":"Calle Páez de Rivera near Avenida de la Palmera","properties":{"access":"unknown","bicycle_pa":"stands","capacity":0,"covered":"no","fee":"","operator":"","nameSource":"junction"},"sourceId":"osm"},{"id":"osm:node:4553113886","latitude":37.370077,"longitude":-5.9792684,"name":"Calle Amado Alonso near Calle Editor José Manuel Lara","properties":{"access":"unknown","bicycle_pa":"","capacity":0,"covered":"","fee":"","operator":"","nameSource":"junction"},"sourceId":"osm"},{"id":"osm:node:4553113926","latitude":37.368932,"longitude":-5.9811514,"name":"Calle Cardenal Bueno Monreal near Calle Bogotá","properties":{"access":"unknown","bicycle_pa":"","capacity":0,"covered":"","fee":"","operator":"","nameSource":"junction"},"sourceId":"osm"},{"id":"osm:node:4553114332","latitude":37.3696519,"longitude":-5.9859241,"name":"Avenida de la Guardia Civil near Avenida de la Borbolla","properties":{"access":"unknown","bicycle_pa":"","capacity":0,"covered":"","fee":"","operator":"","nameSource":"junction"},"sourceId":"osm"},{"id":"osm:node:4553116318","latitude":37.369657,"longitude":-5.9858965,"name":"Avenida de la Guardia Civil near Avenida de la Borbolla","properties":{"access":"unknown","bicycle_pa":"","capacity":0,"covered":"","fee":"","operator":"","nameSource":"junction"},"sourceId":"osm"},{"id":"osm:node:4553117555","latitude":37.3694425,"longitude":-5.9889962,"name":"Avenida Moliní near Glorieta de Méjico","properties":{"access":"unknown","bicycle_pa":"","capacity":0,"covered":"","fee":"","operator":"","nameSource":"junction"},"sourceId":"osm"},{"id":"osm:node:4553117782","latitude":37.3694439,"longitude":-5.9889538,"name":"Avenida Moliní near Calle Salmedina","properties":{"access":"unknown","bicycle_pa":"","capacity":0,"covered":"","fee":"","operator":"","nameSource":"junction"},"sourceId":"osm"},{"id":"osm:node:5536919882","latitude":37.3440103,"longitude":-5.977216,"name":"Avenida de Finlandia near Calle Austria","properties":{"access":"unknown","bicycle_pa":"","capacity":0,"covered":"no","fee":"no","operator":"","nameSource":"junction"},"sourceId":"osm"},{"id":"osm:node:5536919883","latitude":37.3440023,"longitude":-5.9772646,"name":"Avenida de Finlandia near Calle Austria","properties":{"access":"unknown","bicycle_pa":"","capacity":0,"covered":"no","fee":"no","operator":"","nameSource":"junction"},"sourceId":"osm"},{"id":"osm:node:5538925481","latitude":37.3456566,"longitude":-5.9792908,"name":"Avenida de Alemania near Avenida Paseo de Europa","properties":{"access":"unknown","bicycle_pa":"","capacity":4,"covered":"no","fee":"no","operator":"","nameSource":"junction"},"sourceId":"osm"},{"id":"osm:node:8476825535","latitude":37.3646255,"longitude":-5.9846247,"name":"Avenida de la Palmera cycle parking","properties":{"access":"private","bicycle_pa":"","capacity":0,"covered":"no","fee":"","operator":"","nameSource":"street"},"sourceId":"osm"},{"id":"osm:way:1337353230","latitude":37.352830266666665,"longitude":-6.046701800000001,"name":"Calle Atenea by Cavaleri","properties":{"access":"unknown","bicycle_pa":"","capacity":0,"covered":"","fee":"","operator":"","nameSource":"landmark"},"sourceId":"osm"},{"id":"osm:way:1352749278","latitude":37.35409052,"longitude":-6.04601318,"name":"Calle Ronda de Cavaleri by Instituto de Educación Secundaria Cavaleri","properties":{"access":"unknown","bicycle_pa":"","capacity":0,"covered":"","fee":"","operator":"","nameSource":"landmark"},"sourceId":"osm"},{"id":"osm:way:211155169","latitude":37.361028239999996,"longitude":-5.98683146,"name":"Calle Profesor García González near Calle Sor Gregoria de Santa Teresa","properties":{"access":"unknown","bicycle_pa":"anchors","capacity":0,"covered":"no","fee":"University","operator":"","nameSource":"junction"},"sourceId":"osm"},{"id":"osm:way:36740325","latitude":37.35957698,"longitude":-5.98824162,"name":"Calle Tarfia cycle parking","properties":{"access":"unknown","bicycle_pa":"","capacity":0,"covered":"","fee":"","operator":"","nameSource":"street"},"sourceId":"osm"}],"schemaVersion":2}
