{"key":"12/1994/1283","points":[{"id":"osm:node:10763692853","latitude":55.5885652,"longitude":-4.6624108,"name":"Gailes Road cycle parking","properties":{"access":"unknown","bicycle_pa":"","capacity":6,"covered":"no","fee":"no","operator":"","nameSource":"street"},"sourceId":"osm"},{"id":"osm:node:12118612846","latitude":55.6108073,"longitude":-4.6748026,"name":"Harbour Road by Irvine","properties":{"access":"unknown","bicycle_pa":"","capacity":10,"covered":"no","fee":"no","operator":"","nameSource":"landmark"},"sourceId":"osm"},{"id":"osm:node:12849610620","latitude":55.6192793,"longitude":-4.6645808,"name":"Quarry Road by Trindlemoss Loch","properties":{"access":"unknown","bicycle_pa":"stands","capacity":0,"covered":"no","fee":"","operator":"","nameSource":"landmark"},"sourceId":"osm"},{"id":"osm:node:13648282782","latitude":55.6065937,"longitude":-4.6712951,"name":"Tesco Extra cycle parking","properties":{"access":"unknown","bicycle_pa":"","capacity":0,"covered":"","fee":"","operator":"","nameSource":"landmark"},"sourceId":"osm"},{"id":"osm:node:9446044946","latitude":55.6148142,"longitude":-4.6674769,"name":"High Street near Bank Street","properties":{"access":"unknown","bicycle_pa":"","capacity":0,"covered":"","fee":"","operator":"","nameSource":"junction"},"sourceId":"osm"},{"id":"osm:node:9446044947","latitude":55.6058303,"longitude":-4.6672734,"name":"Ayr Road near Lamont Drive","properties":{"access":"unknown","bicycle_pa":"","capacity":0,"covered":"","fee":"","operator":"","nameSource":"junction"},"sourceId":"osm"},{"id":"osm:node:9446044948","latitude":55.6190295,"longitude":-4.6663245,"name":"Quarry Road near Wilson Avenue","properties":{"access":"private","bicycle_pa":"","capacity":0,"covered":"","fee":"","operator":"","nameSource":"junction"},"sourceId":"osm"}],"schemaVersion":2}
