{"key":"12/1994/1382","points":[{"id":"osm:node:1322496428","latitude":50.3561026,"longitude":-4.7044444,"name":"Eastcliffe Road by Par","properties":{"access":"unknown","bicycle_pa":"stands","capacity":4,"covered":"no","fee":"","operator":"","nameSource":"landmark"},"sourceId":"osm"},{"id":"osm:node:439801347","latitude":50.358674,"longitude":-4.7443799,"name":"Tregrehan Mills cycle parking","properties":{"access":"unknown","bicycle_pa":"stands","capacity":52,"covered":"no","fee":"","operator":"","nameSource":"place"},"sourceId":"osm"},{"id":"osm:node:439801506","latitude":50.3636533,"longitude":-4.7455499,"name":"Butts Lane cycle parking","properties":{"access":"unknown","bicycle_pa":"stands","capacity":12,"covered":"no","fee":"","operator":"","nameSource":"street"},"sourceId":"osm"},{"id":"osm:node:5880895676","latitude":50.3583445,"longitude":-4.7430661,"name":"Mer cycle parking","properties":{"access":"unknown","bicycle_pa":"","capacity":0,"covered":"","fee":"","operator":"","nameSource":"landmark"},"sourceId":"osm"},{"id":"osm:node:8342264585","latitude":50.3585514,"longitude":-4.7431238,"name":"Mer cycle parking","properties":{"access":"unknown","bicycle_pa":"stands","capacity":52,"covered":"no","fee":"","operator":"","nameSource":"landmark"},"sourceId":"osm"},{"id":"osm:way:58897235","latitude":50.35931535714286,"longitude":-4.744413385714286,"name":"Climate Zigzag cycle parking","properties":{"access":"unknown","bicycle_pa":"shed","capacity":0,"covered":"","fee":"","operator":"Eden Project","nameSource":"street"},"sourceId":"osm"}],"schemaVersion":2}
