{"key":"12/2039/1340","points":[{"id":"osm:node:1278569501","latitude":52.6733461,"longitude":-0.7362037,"name":"Ellingworth Close near Prince George Avenue","properties":{"access":"unknown","bicycle_pa":"","capacity":0,"covered":"yes","fee":"","operator":"","nameSource":"junction"},"sourceId":"osm"},{"id":"osm:node:1278569524","latitude":52.6734855,"longitude":-0.7411418,"name":"Hill Road cycle parking","properties":{"access":"unknown","bicycle_pa":"","capacity":48,"covered":"yes","fee":"","operator":"","nameSource":"street"},"sourceId":"osm"},{"id":"osm:node:3539008428","latitude":52.6791651,"longitude":-0.7151067,"name":"Your Coop Travel cycle parking","properties":{"access":"unknown","bicycle_pa":"","capacity":0,"covered":"","fee":"","operator":"","nameSource":"landmark"},"sourceId":"osm"},{"id":"osm:node:4013525546","latitude":52.6699125,"longitude":-0.7301734,"name":"Gaol Street near High Street","properties":{"access":"unknown","bicycle_pa":"","capacity":4,"covered":"","fee":"","operator":"","nameSource":"junction"},"sourceId":"osm"},{"id":"osm:node:8285431518","latitude":52.6720525,"longitude":-0.7342331,"name":"Station Road near Station Approach","properties":{"access":"unknown","bicycle_pa":"","capacity":0,"covered":"","fee":"","operator":"","nameSource":"junction"},"sourceId":"osm"}],"schemaVersion":2}
