{"key":"12/2039/1356","points":[{"id":"osm:node:5774610491","latitude":51.7895233,"longitude":-0.789809,"name":"Eskdale Road cycle parking","properties":{"access":"unknown","bicycle_pa":"wall_loops","capacity":10,"covered":"","fee":"","operator":"","nameSource":"street"},"sourceId":"osm"},{"id":"osm:way:1346389627","latitude":51.78192456000001,"longitude":-0.72546152,"name":"Halton cycle parking","properties":{"access":"private","bicycle_pa":"shed","capacity":0,"covered":"yes","fee":"no","operator":"","nameSource":"place"},"sourceId":"osm"},{"id":"osm:way:1415388764","latitude":51.82653998000001,"longitude":-0.77515652,"name":"Kingsbrook cycle parking","properties":{"access":"unknown","bicycle_pa":"shed","capacity":0,"covered":"","fee":"","operator":"","nameSource":"place"},"sourceId":"osm"},{"id":"osm:way:1415388765","latitude":51.82648028,"longitude":-0.77511582,"name":"Kingsbrook cycle parking","properties":{"access":"unknown","bicycle_pa":"shed","capacity":0,"covered":"","fee":"","operator":"","nameSource":"place"},"sourceId":"osm"},{"id":"osm:way:1415388766","latitude":51.82646588,"longitude":-0.7754289200000001,"name":"Kingsbrook cycle parking","properties":{"access":"unknown","bicycle_pa":"shed","capacity":0,"covered":"","fee":"","operator":"","nameSource":"place"},"sourceId":"osm"},{"id":"osm:way:1415388767","latitude":51.82640808,"longitude":-0.77539132,"name":"Kingsbrook cycle parking","properties":{"access":"unknown","bicycle_pa":"shed","capacity":0,"covered":"","fee":"","operator":"","nameSource":"place"},"sourceId":"osm"},{"id":"osm:way:624278215","latitude":51.78757516,"longitude":-0.7837855,"name":"Meadow Park by Parking Tickets","properties":{"access":"unknown","bicycle_pa":"","capacity":0,"covered":"yes","fee":"","operator":"","nameSource":"landmark"},"sourceId":"osm"},{"id":"osm:way:624278217","latitude":51.78773434,"longitude":-0.7838489,"name":"Meadow Park by Parking Tickets","properties":{"access":"unknown","bicycle_pa":"stands","capacity":4,"covered":"","fee":"","operator":"","nameSource":"landmark"},"sourceId":"osm"}],"schemaVersion":2}
