{"key":"12/2039/1359","points":[{"id":"osm:node:13914798511","latitude":51.6510521,"longitude":-0.7566413,"name":"The Ice House cycle parking","properties":{"access":"unknown","bicycle_pa":"stands","capacity":0,"covered":"no","fee":"","operator":"","nameSource":"landmark"},"sourceId":"osm"},{"id":"osm:node:289888107","latitude":51.6233477,"longitude":-0.7386432,"name":"Wycombe Rye Lido cycle parking","properties":{"access":"unknown","bicycle_pa":"","capacity":0,"covered":"","fee":"","operator":"","nameSource":"landmark"},"sourceId":"osm"},{"id":"osm:node:3398847539","latitude":51.6505985,"longitude":-0.7135434,"name":"Highfield Way by Hazlemere Library","properties":{"access":"unknown","bicycle_pa":"","capacity":0,"covered":"","fee":"","operator":"","nameSource":"landmark"},"sourceId":"osm"},{"id":"osm:node:4773732481","latitude":51.6295855,"longitude":-0.7454098,"name":"Totteridge Road near Cedar Court","properties":{"access":"unknown","bicycle_pa":"stands","capacity":10,"covered":"yes","fee":"","operator":"","nameSource":"junction"},"sourceId":"osm"},{"id":"osm:node:4773732482","latitude":51.6295996,"longitude":-0.7456668,"name":"Totteridge Road near Cedar Court","properties":{"access":"unknown","bicycle_pa":"stands","capacity":60,"covered":"yes","fee":"","operator":"","nameSource":"junction"},"sourceId":"osm"},{"id":"osm:node:4773732484","latitude":51.62956,"longitude":-0.7455721,"name":"Totteridge Road near Cedar Court","properties":{"access":"customers","bicycle_pa":"rack","capacity":70,"covered":"yes","fee":"","operator":"","nameSource":"junction"},"sourceId":"osm"},{"id":"osm:node:5301509158","latitude":51.6414786,"longitude":-0.7527568,"name":"Coates Lane near Jumelle Mews","properties":{"access":"yes","bicycle_pa":"staple","capacity":6,"covered":"no","fee":"","operator":"","nameSource":"junction"},"sourceId":"osm"},{"id":"osm:node:5735210934","latitude":51.6343752,"longitude":-0.7538409,"name":"Parker Knoll Way cycle parking","properties":{"access":"unknown","bicycle_pa":"stands","capacity":4,"covered":"","fee":"","operator":"","nameSource":"street"},"sourceId":"osm"},{"id":"osm:node:5735211929","latitude":51.6319067,"longitude":-0.7555354,"name":"Oxford Road near Bridge Street","properties":{"access":"unknown","bicycle_pa":"stands","capacity":7,"covered":"","fee":"","operator":"","nameSource":"junction"},"sourceId":"osm"},{"id":"osm:node:5735211933","latitude":51.6291962,"longitude":-0.7554562,"name":"Newlands Walk near Newland Street","properties":{"access":"unknown","bicycle_pa":"stands","capacity":0,"covered":"","fee":"","operator":"","nameSource":"junction"},"sourceId":"osm"},{"id":"osm:node:5735211949","latitude":51.6312153,"longitude":-0.757083,"name":"Mendy Street near Bridge Street","properties":{"access":"unknown","bicycle_pa":"","capacity":22,"covered":"yes","fee":"","operator":"","nameSource":"junction"},"sourceId":"osm"},{"id":"osm:node:5735211951","latitude":51.631043,"longitude":-0.7565801,"name":"Mendy Street near Bridge Street","properties":{"access":"unknown","bicycle_pa":"stands","capacity":6,"covered":"no","fee":"","operator":"","nameSource":"junction"},"sourceId":"osm"},{"id":"osm:node:5735211953","latitude":51.6296644,"longitude":-0.7568329,"name":"Newlands Meadow near Newland Street","properties":{"access":"unknown","bicycle_pa":"","capacity":0,"covered":"","fee":"","operator":"","nameSource":"junction"},"sourceId":"osm"},{"id":"osm:node:5735212135","latitude":51.630485,"longitude":-0.7552078,"name":"Denmark Street near E5","properties":{"access":"unknown","bicycle_pa":"stands","capacity":10,"covered":"","fee":"","operator":"","nameSource":"junction"},"sourceId":"osm"},{"id":"osm:node:5735212166","latitude":51.628757,"longitude":-0.7495889,"name":"High Street near Corporation Street","properties":{"access":"unknown","bicycle_pa":"stands","capacity":6,"covered":"","fee":"","operator":"","nameSource":"junction"},"sourceId":"osm"},{"id":"osm:node:5735212202","latitude":51.6314691,"longitude":-0.7526648,"name":"Frogmoor near Chilterns Shopping Centre","properties":{"access":"unknown","bicycle_pa":"stands","capacity":0,"covered":"no","fee":"","operator":"","nameSource":"junction"},"sourceId":"osm"},{"id":"osm:node:5735212220","latitude":51.6291774,"longitude":-0.7508978,"name":"Church Square near High Street","properties":{"access":"unknown","bicycle_pa":"stands","capacity":2,"covered":"no","fee":"","operator":"","nameSource":"junction"},"sourceId":"osm"},{"id":"osm:node:5735212228","latitude":51.6288665,"longitude":-0.7495681,"name":"High Street near Corporation Street","properties":{"access":"unknown","bicycle_pa":"stands","capacity":6,"covered":"no","fee":"","operator":"","nameSource":"junction"},"sourceId":"osm"},{"id":"osm:node:5735212394","latitude":51.6289932,"longitude":-0.7430846,"name":"Birdcage Walk cycle parking","properties":{"access":"unknown","bicycle_pa":"stands","capacity":2,"covered":"","fee":"","operator":"","nameSource":"street"},"sourceId":"osm"},{"id":"osm:node:5797017975","latitude":51.6616289,"longitude":-0.7523647,"name":"Valley Road near Coombe Lane","properties":{"access":"unknown","bicycle_pa":"wall_loops","capacity":2,"covered":"no","fee":"","operator":"","nameSource":"junction"},"sourceId":"osm"},{"id":"osm:node:5842562515","latitude":51.6190183,"longitude":-0.7192706,"name":"Ryemead Way by Furniture Village","properties":{"access":"unknown","bicycle_pa":"stands","capacity":6,"covered":"","fee":"","operator":"","nameSource":"landmark"},"sourceId":"osm"},{"id":"osm:node:5935211826","latitude":51.6324582,"longitude":-0.7601555,"name":"Baker Street near Mill Street","properties":{"access":"unknown","bicycle_pa":"stands","capacity":7,"covered":"","fee":"","operator":"","nameSource":"junction"},"sourceId":"osm"},{"id":"osm:node:5949406336","latitude":51.630417,"longitude":-0.7536414,"name":"Octagon Court near White Hart Street","properties":{"access":"unknown","bicycle_pa":"stands","capacity":6,"covered":"","fee":"","operator":"","nameSource":"junction"},"sourceId":"osm"},{"id":"osm:node:5949406469","latitude":51.6281495,"longitude":-0.748916,"name":"Queen Victoria Road near Crendon Street","properties":{"access":"unknown","bicycle_pa":"stands","capacity":3,"covered":"","fee":"","operator":"","nameSource":"junction"},"sourceId":"osm"},{"id":"osm:node:5949406819","latitude":51.6318821,"longitude":-0.7559384,"name":"Bridge Street near Oxford Road","properties":{"access":"unknown","bicycle_pa":"stands","capacity":10,"covered":"","fee":"","operator":"","nameSource":"junction"},"sourceId":"osm"},{"id":"osm:node:5949406837","latitude":51.6444302,"longitude":-0.7309898,"name":"Amersham Road near Kingshill Road","properties":{"access":"unknown","bicycle_pa":"stands","capacity":3,"covered":"","fee":"","operator":"","nameSource":"junction"},"sourceId":"osm"},{"id":"osm:node:5976125418","latitude":51.6317872,"longitude":-0.7544088,"name":"Arch Way cycle parking","properties":{"access":"unknown","bicycle_pa":"stands","capacity":10,"covered":"yes","fee":"","operator":"","nameSource":"street"},"sourceId":"osm"},{"id":"osm:node:6903858765","latitude":51.632101,"longitude":-0.7539111,"name":"Arch Way cycle parking","properties":{"access":"unknown","bicycle_pa":"stands","capacity":12,"covered":"","fee":"","operator":"","nameSource":"street"},"sourceId":"osm"},{"id":"osm:node:8668249649","latitude":51.6675077,"longitude":-0.7572184,"name":"Spring Valley Drive near Fleet Close","properties":{"access":"unknown","bicycle_pa":"stands","capacity":8,"covered":"yes","fee":"","operator":"","nameSource":"junction"},"sourceId":"osm"},{"id":"osm:node:9705167053","latitude":51.6675004,"longitude":-0.7572406,"name":"Spring Valley Drive near Fleet Close","properties":{"access":"unknown","bicycle_pa":"stands","capacity":10,"covered":"no","fee":"","operator":"","nameSource":"junction"},"sourceId":"osm"},{"id":"osm:way:589464281","latitude":51.6299487,"longitude":-0.7463829599999999,"name":"Crendon Street near Amersham Hill","properties":{"access":"unknown","bicycle_pa":"stands","capacity":0,"covered":"yes","fee":"","operator":"","nameSource":"junction"},"sourceId":"osm"},{"id":"osm:way:589464282","latitude":51.62992088,"longitude":-0.7463100199999999,"name":"Totteridge Road near Cedar Court","properties":{"access":"unknown","bicycle_pa":"stands","capacity":0,"covered":"yes","fee":"","operator":"","nameSource":"junction"},"sourceId":"osm"},{"id":"osm:way:788530032","latitude":51.638061719999996,"longitude":-0.75334126,"name":"Hughenden Boulevard cycle parking","properties":{"access":"private","bicycle_pa":"stands","capacity":100,"covered":"yes","fee":"","operator":"","nameSource":"street"},"sourceId":"osm"}],"schemaVersion":2}
