{"key":"12/2039/1361","points":[{"id":"osm:node:13255082254","latitude":51.5097244,"longitude":-0.7524288,"name":"Wessex Way by Your Coop Food","properties":{"access":"yes","bicycle_pa":"stands","capacity":10,"covered":"no","fee":"no","operator":"","nameSource":"landmark"},"sourceId":"osm"},{"id":"osm:node:13255082255","latitude":51.5198691,"longitude":-0.7547905,"name":"Highway Avenue near Highway Road","properties":{"access":"yes","bicycle_pa":"stands","capacity":4,"covered":"no","fee":"no","operator":"Royal Borough of Windsor and Maidenhead","nameSource":"junction"},"sourceId":"osm"},{"id":"osm:node:13255082256","latitude":51.53245,"longitude":-0.724932,"name":"Cookham Road near Moor Lane","properties":{"access":"yes","bicycle_pa":"stands","capacity":2,"covered":"no","fee":"no","operator":"Royal Borough of Windsor and Maidenhead","nameSource":"junction"},"sourceId":"osm"},{"id":"osm:node:13255082257","latitude":51.5202475,"longitude":-0.7220823,"name":"King Street near Keys Place","properties":{"access":"yes","bicycle_pa":"stands","capacity":20,"covered":"no","fee":"no","operator":"Royal Borough of Windsor and Maidenhead","nameSource":"junction"},"sourceId":"osm"},{"id":"osm:node:13255082258","latitude":51.5205224,"longitude":-0.7222101,"name":"King Street near Broadway","properties":{"access":"yes","bicycle_pa":"stands","capacity":6,"covered":"no","fee":"no","operator":"Royal Borough of Windsor and Maidenhead","nameSource":"junction"},"sourceId":"osm"},{"id":"osm:node:2364939089","latitude":51.52309,"longitude":-0.7200601,"name":"Market Street near High Street","properties":{"access":"yes","bicycle_pa":"stands","capacity":24,"covered":"no","fee":"no","operator":"Royal Borough of Windsor and Maidenhead","nameSource":"junction"},"sourceId":"osm"},{"id":"osm:node:2626876452","latitude":51.5225631,"longitude":-0.7343563,"name":"St Mark's Road near Raymond Road","properties":{"access":"unknown","bicycle_pa":"stands","capacity":5,"covered":"yes","fee":"","operator":"","nameSource":"junction"},"sourceId":"osm"},{"id":"osm:node:3163358172","latitude":51.5342585,"longitude":-0.7371357,"name":"Furze Platt Road near Malvern Road","properties":{"access":"unknown","bicycle_pa":"stands","capacity":4,"covered":"no","fee":"","operator":"","nameSource":"junction"},"sourceId":"osm"},{"id":"osm:node:4297152405","latitude":51.5573507,"longitude":-0.7219262,"name":"Lower Road near Station Hill","properties":{"access":"unknown","bicycle_pa":"stands","capacity":16,"covered":"no","fee":"yes","operator":"","nameSource":"junction"},"sourceId":"osm"},{"id":"osm:node:596584326","latitude":51.5216078,"longitude":-0.7243084,"name":"High Town Road by The Tea Pot Cafe","properties":{"access":"unknown","bicycle_pa":"","capacity":8,"covered":"","fee":"","operator":"","nameSource":"landmark"},"sourceId":"osm"},{"id":"osm:node:596584360","latitude":51.5233543,"longitude":-0.7233618,"name":"West Street cycle parking","properties":{"access":"unknown","bicycle_pa":"","capacity":18,"covered":"","fee":"","operator":"","nameSource":"street"},"sourceId":"osm"},{"id":"osm:node:597329178","latitude":51.5192506,"longitude":-0.7220008,"name":"King Street near Station Approach","properties":{"access":"unknown","bicycle_pa":"","capacity":0,"covered":"yes","fee":"","operator":"","nameSource":"junction"},"sourceId":"osm"},{"id":"osm:node:656482745","latitude":51.5181492,"longitude":-0.7231316,"name":"Shoppenhangers Road near Courtlands","properties":{"access":"unknown","bicycle_pa":"","capacity":0,"covered":"yes","fee":"","operator":"","nameSource":"junction"},"sourceId":"osm"},{"id":"osm:node:6817443425","latitude":51.5226149,"longitude":-0.7233356,"name":"High Street by Flavio's","properties":{"access":"unknown","bicycle_pa":"stands","capacity":4,"covered":"no","fee":"","operator":"","nameSource":"landmark"},"sourceId":"osm"},{"id":"osm:node:6817443426","latitude":51.5226437,"longitude":-0.7231657,"name":"High Street by Five Star Nails","properties":{"access":"unknown","bicycle_pa":"stands","capacity":6,"covered":"no","fee":"","operator":"","nameSource":"landmark"},"sourceId":"osm"},{"id":"osm:node:6817443427","latitude":51.5226877,"longitude":-0.7197232,"name":"Park Street near High Street","properties":{"access":"unknown","bicycle_pa":"stands","capacity":8,"covered":"no","fee":"","operator":"","nameSource":"junction"},"sourceId":"osm"},{"id":"osm:node:6817443428","latitude":51.5232258,"longitude":-0.7165162,"name":"Bridge Avenue near Bridge Street","properties":{"access":"unknown","bicycle_pa":"stands","capacity":6,"covered":"no","fee":"","operator":"","nameSource":"junction"},"sourceId":"osm"},{"id":"osm:node:7192946124","latitude":51.5209902,"longitude":-0.7107548,"name":"Reform Road by Gibbs Dandy","properties":{"access":"unknown","bicycle_pa":"wall_loops","capacity":4,"covered":"no","fee":"","operator":"","nameSource":"landmark"},"sourceId":"osm"},{"id":"osm:node:8907226485","latitude":51.5229986,"longitude":-0.7182349,"name":"St Mary's Close near High Street","properties":{"access":"unknown","bicycle_pa":"stands","capacity":8,"covered":"no","fee":"","operator":"","nameSource":"junction"},"sourceId":"osm"},{"id":"osm:node:9010109982","latitude":51.5238792,"longitude":-0.7094253,"name":"Bridge Road near Ray Street","properties":{"access":"unknown","bicycle_pa":"stands","capacity":4,"covered":"no","fee":"","operator":"","nameSource":"junction"},"sourceId":"osm"},{"id":"osm:node:9010109984","latitude":51.5238895,"longitude":-0.7090108,"name":"Bridge Road near Lassell Gardens","properties":{"access":"unknown","bicycle_pa":"stands","capacity":6,"covered":"no","fee":"","operator":"","nameSource":"junction"},"sourceId":"osm"},{"id":"osm:node:9010171579","latitude":51.5229159,"longitude":-0.7145733,"name":"Forlease Road near Bridge Street","properties":{"access":"unknown","bicycle_pa":"stands","capacity":8,"covered":"yes","fee":"","operator":"","nameSource":"junction"},"sourceId":"osm"},{"id":"osm:node:9010171647","latitude":51.5233498,"longitude":-0.7145719,"name":"Moorbridge Road near Bridge Street","properties":{"access":"yes","bicycle_pa":"stands","capacity":12,"covered":"yes","fee":"","operator":"","nameSource":"junction"},"sourceId":"osm"},{"id":"osm:node:9549399797","latitude":51.5312409,"longitude":-0.7386355,"name":"Linden Avenue near Courthouse Road","properties":{"access":"customers","bicycle_pa":"stands","capacity":1,"covered":"no","fee":"no","operator":"","nameSource":"junction"},"sourceId":"osm"},{"id":"osm:node:9554301398","latitude":51.5284281,"longitude":-0.7313374,"name":"Gringer Hill by Craufurd Arms","properties":{"access":"unknown","bicycle_pa":"floor","capacity":7,"covered":"no","fee":"","operator":"","nameSource":"landmark"},"sourceId":"osm"},{"id":"osm:node:9571731253","latitude":51.5250604,"longitude":-0.7208098,"name":"Cookham Road near A4","properties":{"access":"unknown","bicycle_pa":"stands","capacity":6,"covered":"","fee":"","operator":"","nameSource":"junction"},"sourceId":"osm"},{"id":"osm:node:9587960949","latitude":51.5207286,"longitude":-0.733332,"name":"Boyn Hill Avenue near Boyndon Road","properties":{"access":"customers","bicycle_pa":"stands","capacity":4,"covered":"yes","fee":"","operator":"","nameSource":"junction"},"sourceId":"osm"},{"id":"osm:node:9594198956","latitude":51.5227718,"longitude":-0.7112042,"name":"Reform Road near Waldeck Road","properties":{"access":"unknown","bicycle_pa":"wall_loops","capacity":6,"covered":"no","fee":"","operator":"","nameSource":"junction"},"sourceId":"osm"},{"id":"osm:node:9635935632","latitude":51.5227448,"longitude":-0.7202715,"name":"Queen Street near High Street","properties":{"access":"unknown","bicycle_pa":"stands","capacity":110,"covered":"no","fee":"","operator":"","nameSource":"junction"},"sourceId":"osm"},{"id":"osm:node:9652056869","latitude":51.5242268,"longitude":-0.7190406,"name":"St Cloud Way near A4","properties":{"access":"unknown","bicycle_pa":"stands","capacity":20,"covered":"yes","fee":"","operator":"","nameSource":"junction"},"sourceId":"osm"},{"id":"osm:node:9724561485","latitude":51.5215418,"longitude":-0.7184127,"name":"Park Street near Broadway","properties":{"access":"unknown","bicycle_pa":"stands","capacity":10,"covered":"no","fee":"","operator":"","nameSource":"junction"},"sourceId":"osm"}],"schemaVersion":2}
