{"key":"12/2039/1366","points":[{"id":"osm:node:10748728002","latitude":51.2503252,"longitude":-0.7391702,"name":"Barn Avenue near Cartwheel Walk","properties":{"access":"unknown","bicycle_pa":"stands","capacity":8,"covered":"no","fee":"","operator":"","nameSource":"junction"},"sourceId":"osm"},{"id":"osm:node:10773544987","latitude":51.2426808,"longitude":-0.7409657,"name":"North Lane near Lower Newport Road","properties":{"access":"unknown","bicycle_pa":"stands","capacity":6,"covered":"no","fee":"","operator":"","nameSource":"junction"},"sourceId":"osm"},{"id":"osm:node:10894934368","latitude":51.2879901,"longitude":-0.7538055,"name":"Farnborough Road by Rushmoor Borough Council","properties":{"access":"yes","bicycle_pa":"staple","capacity":3,"covered":"no","fee":"no","operator":"Rushmoor Borough Coucil","nameSource":"landmark"},"sourceId":"osm"},{"id":"osm:node:11034219575","latitude":51.2349364,"longitude":-0.746924,"name":"Aldershot Lido Entrance Booth cycle parking","properties":{"access":"unknown","bicycle_pa":"wall_loops","capacity":10,"covered":"no","fee":"","operator":"","nameSource":"landmark"},"sourceId":"osm"},{"id":"osm:node:11074864348","latitude":51.2859432,"longitude":-0.778239,"name":"Ively Road by Chalk in the park","properties":{"access":"unknown","bicycle_pa":"","capacity":0,"covered":"no","fee":"","operator":"","nameSource":"landmark"},"sourceId":"osm"},{"id":"osm:node:11193737313","latitude":51.2490473,"longitude":-0.7567828,"name":"Parson's Barracks by Harlow Hall","properties":{"access":"yes","bicycle_pa":"shed","capacity":7,"covered":"yes","fee":"no","operator":"","nameSource":"landmark"},"sourceId":"osm"},{"id":"osm:node:11804917955","latitude":51.2465703,"longitude":-0.759914,"name":"Kingsley Court by Coffee Bean Club","properties":{"access":"unknown","bicycle_pa":"stands","capacity":14,"covered":"no","fee":"","operator":"","nameSource":"landmark"},"sourceId":"osm"},{"id":"osm:node:11925687120","latitude":51.2510358,"longitude":-0.741239,"name":"Blacksmith Close near Deadbrook Lane","properties":{"access":"unknown","bicycle_pa":"stands","capacity":4,"covered":"no","fee":"","operator":"","nameSource":"junction"},"sourceId":"osm"},{"id":"osm:node:11960809098","latitude":51.2510115,"longitude":-0.7418121,"name":"Blacksmith Close near Deadbrook Lane","properties":{"access":"unknown","bicycle_pa":"stands","capacity":4,"covered":"no","fee":"","operator":"","nameSource":"junction"},"sourceId":"osm"},{"id":"osm:node:12009554475","latitude":51.2418715,"longitude":-0.7430582,"name":"Ash Road near Lower Farnham Road","properties":{"access":"unknown","bicycle_pa":"stands","capacity":4,"covered":"no","fee":"","operator":"","nameSource":"junction"},"sourceId":"osm"},{"id":"osm:node:12014956820","latitude":51.2887053,"longitude":-0.7601793,"name":"Elles Road near Solartron Road","properties":{"access":"unknown","bicycle_pa":"stands","capacity":14,"covered":"no","fee":"","operator":"","nameSource":"junction"},"sourceId":"osm"},{"id":"osm:node:12014960128","latitude":51.2860918,"longitude":-0.7572159,"name":"Pond Road cycle parking","properties":{"access":"unknown","bicycle_pa":"stands","capacity":10,"covered":"yes","fee":"","operator":"","nameSource":"street"},"sourceId":"osm"},{"id":"osm:node:12014974768","latitude":51.2861229,"longitude":-0.7572179,"name":"Pond Road cycle parking","properties":{"access":"unknown","bicycle_pa":"stands","capacity":10,"covered":"yes","fee":"","operator":"","nameSource":"street"},"sourceId":"osm"},{"id":"osm:node:12014976332","latitude":51.2854412,"longitude":-0.7597528,"name":"O'Gorman Avenue cycle parking","properties":{"access":"unknown","bicycle_pa":"stands","capacity":10,"covered":"no","fee":"","operator":"","nameSource":"street"},"sourceId":"osm"},{"id":"osm:node:12014989764","latitude":51.2855453,"longitude":-0.7573691,"name":"Pond Road near O'Gorman Avenue","properties":{"access":"unknown","bicycle_pa":"stands","capacity":10,"covered":"yes","fee":"","operator":"","nameSource":"junction"},"sourceId":"osm"},{"id":"osm:node:12014989765","latitude":51.2855443,"longitude":-0.7572991,"name":"Pond Road near O'Gorman Avenue","properties":{"access":"unknown","bicycle_pa":"stands","capacity":10,"covered":"yes","fee":"","operator":"","nameSource":"junction"},"sourceId":"osm"},{"id":"osm:node:12122256869","latitude":51.2497901,"longitude":-0.7616408,"name":"High Street near Station Road","properties":{"access":"unknown","bicycle_pa":"stands","capacity":6,"covered":"no","fee":"","operator":"","nameSource":"junction"},"sourceId":"osm"},{"id":"osm:node:12155462826","latitude":51.2752484,"longitude":-0.7422067,"name":"Lynchford Road near Morris Road","properties":{"access":"unknown","bicycle_pa":"stands","capacity":10,"covered":"no","fee":"","operator":"","nameSource":"junction"},"sourceId":"osm"},{"id":"osm:node:12155466877","latitude":51.2750325,"longitude":-0.7442501,"name":"Lynchford Road near Peabody Road","properties":{"access":"unknown","bicycle_pa":"stands","capacity":10,"covered":"no","fee":"","operator":"","nameSource":"junction"},"sourceId":"osm"},{"id":"osm:node:12206950377","latitude":51.2531938,"longitude":-0.7597718,"name":"Leishman Views near White Cross Place","properties":{"access":"unknown","bicycle_pa":"stands","capacity":6,"covered":"no","fee":"","operator":"","nameSource":"junction"},"sourceId":"osm"},{"id":"osm:node:12248038519","latitude":51.2519382,"longitude":-0.7376365,"name":"Harvest Lane near Deadbrook Lane","properties":{"access":"unknown","bicycle_pa":"stands","capacity":8,"covered":"no","fee":"","operator":"","nameSource":"junction"},"sourceId":"osm"},{"id":"osm:node:12271819904","latitude":51.2589781,"longitude":-0.7631036,"name":"Steele's Road cycle parking","properties":{"access":"customers","bicycle_pa":"stands","capacity":14,"covered":"yes","fee":"no","operator":"","nameSource":"street"},"sourceId":"osm"},{"id":"osm:node:12271819905","latitude":51.2589239,"longitude":-0.7629572,"name":"Steele's Road cycle parking","properties":{"access":"customers","bicycle_pa":"stands","capacity":14,"covered":"yes","fee":"no","operator":"","nameSource":"street"},"sourceId":"osm"},{"id":"osm:node:12285157399","latitude":51.2848568,"longitude":-0.7571832,"name":"O'Gorman Avenue near Pond Road","properties":{"access":"unknown","bicycle_pa":"handlebar_holder","capacity":12,"covered":"yes","fee":"","operator":"","nameSource":"junction"},"sourceId":"osm"},{"id":"osm:node:12287766243","latitude":51.2846435,"longitude":-0.7575994,"name":"Fowler Avenue cycle parking","properties":{"access":"unknown","bicycle_pa":"stands","capacity":4,"covered":"no","fee":"","operator":"","nameSource":"street"},"sourceId":"osm"},{"id":"osm:node:12299583348","latitude":51.2484768,"longitude":-0.7596045,"name":"Victoria Road near Arthur Street","properties":{"access":"unknown","bicycle_pa":"","capacity":0,"covered":"yes","fee":"","operator":"","nameSource":"junction"},"sourceId":"osm"},{"id":"osm:node:12348471050","latitude":51.2456609,"longitude":-0.7254111,"name":"Ash Street near Star Lane","properties":{"access":"unknown","bicycle_pa":"stands","capacity":8,"covered":"no","fee":"","operator":"","nameSource":"junction"},"sourceId":"osm"},{"id":"osm:node:12372434845","latitude":51.2860536,"longitude":-0.7572186,"name":"Pond Road cycle parking","properties":{"access":"unknown","bicycle_pa":"stands","capacity":10,"covered":"yes","fee":"","operator":"","nameSource":"street"},"sourceId":"osm"},{"id":"osm:node:12383324379","latitude":51.2854771,"longitude":-0.758679,"name":"O'Gorman Avenue by Busy Bees","properties":{"access":"unknown","bicycle_pa":"","capacity":0,"covered":"","fee":"","operator":"","nameSource":"landmark"},"sourceId":"osm"},{"id":"osm:node:12383390391","latitude":51.2845562,"longitude":-0.7631995,"name":"Templer Avenue cycle parking","properties":{"access":"unknown","bicycle_pa":"stands","capacity":40,"covered":"yes","fee":"","operator":"","nameSource":"street"},"sourceId":"osm"},{"id":"osm:node:12383397870","latitude":51.2852854,"longitude":-0.7634851,"name":"Pinehurst Road cycle parking","properties":{"access":"unknown","bicycle_pa":"stands","capacity":0,"covered":"yes","fee":"","operator":"","nameSource":"street"},"sourceId":"osm"},{"id":"osm:node:12455586708","latitude":51.2755909,"longitude":-0.7309609,"name":"Lysons Avenue near Lynchford Road","properties":{"access":"unknown","bicycle_pa":"stands","capacity":4,"covered":"no","fee":"no","operator":"","nameSource":"junction"},"sourceId":"osm"},{"id":"osm:node:12455586710","latitude":51.2756937,"longitude":-0.731134,"name":"Lynchford Road near Lysons Avenue","properties":{"access":"unknown","bicycle_pa":"stands","capacity":16,"covered":"no","fee":"no","operator":"","nameSource":"junction"},"sourceId":"osm"},{"id":"osm:node:12518388605","latitude":51.2486523,"longitude":-0.7642324,"name":"Victoria Road near Wellington Centre","properties":{"access":"unknown","bicycle_pa":"wall_loops","capacity":5,"covered":"yes","fee":"","operator":"","nameSource":"junction"},"sourceId":"osm"},{"id":"osm:node:12551078425","latitude":51.2494894,"longitude":-0.7700714,"name":"Alexandra Road near Lime Street Roundabout","properties":{"access":"unknown","bicycle_pa":"stands","capacity":10,"covered":"no","fee":"","operator":"","nameSource":"junction"},"sourceId":"osm"},{"id":"osm:node:12609424230","latitude":51.2879425,"longitude":-0.7653164,"name":"Invincible Road by Toolstation","properties":{"access":"unknown","bicycle_pa":"","capacity":0,"covered":"","fee":"","operator":"","nameSource":"landmark"},"sourceId":"osm"},{"id":"osm:node:12926026825","latitude":51.2498656,"longitude":-0.7688707,"name":"Barrack Road near Grosvenor Road","properties":{"access":"unknown","bicycle_pa":"stands","capacity":4,"covered":"no","fee":"","operator":"","nameSource":"junction"},"sourceId":"osm"},{"id":"osm:node:13355635301","latitude":51.2538721,"longitude":-0.764681,"name":"Middle Hill cycle parking","properties":{"access":"unknown","bicycle_pa":"stands","capacity":40,"covered":"yes","fee":"","operator":"","nameSource":"street"},"sourceId":"osm"},{"id":"osm:node:13366653962","latitude":51.2487739,"longitude":-0.7756158,"name":"Auchinleck Way near Alexandra Road","properties":{"access":"unknown","bicycle_pa":"stands","capacity":48,"covered":"yes","fee":"","operator":"","nameSource":"junction"},"sourceId":"osm"},{"id":"osm:node:13545531550","latitude":51.2485114,"longitude":-0.7785331,"name":"Beaumont Grove cycle parking","properties":{"access":"unknown","bicycle_pa":"stands","capacity":6,"covered":"no","fee":"","operator":"","nameSource":"street"},"sourceId":"osm"},{"id":"osm:node:13658339813","latitude":51.2461654,"longitude":-0.7627606,"name":"Lysons Road near The Grove","properties":{"access":"unknown","bicycle_pa":"stands","capacity":4,"covered":"","fee":"","operator":"","nameSource":"junction"},"sourceId":"osm"},{"id":"osm:node:13665033516","latitude":51.2421798,"longitude":-0.7221339,"name":"Hammersley Drive near Hop Garden Way","properties":{"access":"unknown","bicycle_pa":"wall_loops","capacity":8,"covered":"no","fee":"","operator":"","nameSource":"junction"},"sourceId":"osm"},{"id":"osm:node:13742088984","latitude":51.2531499,"longitude":-0.7732387,"name":"Badajos Road near Fermor Drive","properties":{"access":"unknown","bicycle_pa":"wall_loops","capacity":6,"covered":"no","fee":"","operator":"","nameSource":"junction"},"sourceId":"osm"},{"id":"osm:node:13775176130","latitude":51.2865593,"longitude":-0.7543714,"name":"Kestrel Road near Merlin Road","properties":{"access":"unknown","bicycle_pa":"","capacity":0,"covered":"yes","fee":"","operator":"","nameSource":"junction"},"sourceId":"osm"},{"id":"osm:node:13775298369","latitude":51.2865397,"longitude":-0.7540874,"name":"Kestrel Road cycle parking","properties":{"access":"unknown","bicycle_pa":"","capacity":0,"covered":"yes","fee":"","operator":"","nameSource":"street"},"sourceId":"osm"},{"id":"osm:node:13775300655","latitude":51.2799955,"longitude":-0.7515678,"name":"Guildford Road West near Reading Road","properties":{"access":"unknown","bicycle_pa":"shed","capacity":0,"covered":"yes","fee":"","operator":"","nameSource":"junction"},"sourceId":"osm"},{"id":"osm:node:13775313976","latitude":51.2865578,"longitude":-0.7544687,"name":"Kestrel Road near Merlin Road","properties":{"access":"unknown","bicycle_pa":"","capacity":0,"covered":"yes","fee":"","operator":"","nameSource":"junction"},"sourceId":"osm"},{"id":"osm:node:13992993240","latitude":51.2769313,"longitude":-0.75297,"name":"Osborne Road near Parish Road","properties":{"access":"yes","bicycle_pa":"stands","capacity":6,"covered":"no","fee":"no","operator":"","nameSource":"junction"},"sourceId":"osm"},{"id":"osm:node:305430818","latitude":51.2496163,"longitude":-0.7123731,"name":"Guildford Road near The Ashtrees","properties":{"access":"unknown","bicycle_pa":"stands","capacity":10,"covered":"yes","fee":"","operator":"","nameSource":"junction"},"sourceId":"osm"},{"id":"osm:node:305444762","latitude":51.2461004,"longitude":-0.7243456,"name":"Ash Street near Old Chapel Lane","properties":{"access":"unknown","bicycle_pa":"stands","capacity":2,"covered":"no","fee":"","operator":"","nameSource":"junction"},"sourceId":"osm"},{"id":"osm:node:316955609","latitude":51.2470733,"longitude":-0.7293046,"name":"Shawfield Road near Windsor Gardens","properties":{"access":"unknown","bicycle_pa":"stands","capacity":6,"covered":"no","fee":"","operator":"","nameSource":"junction"},"sourceId":"osm"},{"id":"osm:node:316958614","latitude":51.2568111,"longitude":-0.7195632,"name":"Balmoral Road by Citizens Advice Bureau","properties":{"access":"unknown","bicycle_pa":"stands","capacity":6,"covered":"no","fee":"","operator":"","nameSource":"landmark"},"sourceId":"osm"},{"id":"osm:node:316960488","latitude":51.2592545,"longitude":-0.7176766,"name":"Chandlers Road near Prospect Road","properties":{"access":"unknown","bicycle_pa":"stands","capacity":4,"covered":"no","fee":"","operator":"","nameSource":"junction"},"sourceId":"osm"},{"id":"osm:node:316960489","latitude":51.2593426,"longitude":-0.7176707,"name":"Chandlers Road near Prospect Road","properties":{"access":"unknown","bicycle_pa":"stands","capacity":2,"covered":"no","fee":"","operator":"","nameSource":"junction"},"sourceId":"osm"},{"id":"osm:node:316962301","latitude":51.2721933,"longitude":-0.7215593,"name":"Station Approach near Chart House Road","properties":{"access":"unknown","bicycle_pa":"stands","capacity":16,"covered":"no","fee":"","operator":"","nameSource":"junction"},"sourceId":"osm"},{"id":"osm:node:3326158741","latitude":51.2872359,"longitude":-0.7599248,"name":"Pinehurst Road by Starbucks","properties":{"access":"unknown","bicycle_pa":"stands","capacity":0,"covered":"no","fee":"","operator":"","nameSource":"landmark"},"sourceId":"osm"},{"id":"osm:node:3326158742","latitude":51.2871134,"longitude":-0.7600589,"name":"Pinehurst Road by The Victory","properties":{"access":"unknown","bicycle_pa":"stands","capacity":0,"covered":"no","fee":"","operator":"","nameSource":"landmark"},"sourceId":"osm"},{"id":"osm:node:366948370","latitude":51.2757848,"longitude":-0.73065,"name":"Lysons Avenue near Lynchford Road","properties":{"access":"unknown","bicycle_pa":"stands","capacity":20,"covered":"yes","fee":"","operator":"","nameSource":"junction"},"sourceId":"osm"},{"id":"osm:node:369969453","latitude":51.2465513,"longitude":-0.7599685,"name":"Station Road near Arthur Street","properties":{"access":"customers","bicycle_pa":"shed","capacity":20,"covered":"","fee":"yes","operator":"","nameSource":"junction"},"sourceId":"osm"},{"id":"osm:node:426957000","latitude":51.2452183,"longitude":-0.7403213,"name":"Pegasus Court near North Lane","properties":{"access":"unknown","bicycle_pa":"stands","capacity":10,"covered":"no","fee":"","operator":"","nameSource":"junction"},"sourceId":"osm"},{"id":"osm:node:426957001","latitude":51.2453167,"longitude":-0.7402435,"name":"Pegasus Court near North Lane","properties":{"access":"unknown","bicycle_pa":"stands","capacity":16,"covered":"no","fee":"","operator":"","nameSource":"junction"},"sourceId":"osm"},{"id":"osm:node:426957002","latitude":51.244869,"longitude":-0.7403352,"name":"Pegasus Court near North Lane","properties":{"access":"unknown","bicycle_pa":"stands","capacity":8,"covered":"no","fee":"","operator":"","nameSource":"junction"},"sourceId":"osm"},{"id":"osm:node:426957003","latitude":51.2446545,"longitude":-0.7402479,"name":"Pegasus Court near North Lane","properties":{"access":"unknown","bicycle_pa":"stands","capacity":20,"covered":"no","fee":"","operator":"","nameSource":"junction"},"sourceId":"osm"},{"id":"osm:node:426966583","latitude":51.2465475,"longitude":-0.7407471,"name":"Alpha Road near North Lane","properties":{"access":"unknown","bicycle_pa":"stands","capacity":2,"covered":"no","fee":"","operator":"","nameSource":"junction"},"sourceId":"osm"},{"id":"osm:node:426966585","latitude":51.2466006,"longitude":-0.7403794,"name":"Alpha Road near North Lane","properties":{"access":"unknown","bicycle_pa":"stands","capacity":2,"covered":"no","fee":"","operator":"","nameSource":"junction"},"sourceId":"osm"},{"id":"osm:node:426966587","latitude":51.2467548,"longitude":-0.7399108,"name":"Alpha Road by Eyre & Ellison Ltd","properties":{"access":"unknown","bicycle_pa":"stands","capacity":2,"covered":"no","fee":"","operator":"","nameSource":"landmark"},"sourceId":"osm"},{"id":"osm:node:443357356","latitude":51.2462505,"longitude":-0.7603167,"name":"Ascot Court by Aldershot","properties":{"access":"unknown","bicycle_pa":"stands","capacity":12,"covered":"yes","fee":"","operator":"","nameSource":"landmark"},"sourceId":"osm"},{"id":"osm:node:443372996","latitude":51.2501819,"longitude":-0.742732,"name":"North Lane near Denmark Street","properties":{"access":"yes","bicycle_pa":"stands","capacity":6,"covered":"no","fee":"no","operator":"","nameSource":"junction"},"sourceId":"osm"},{"id":"osm:node:443373069","latitude":51.243098,"longitude":-0.7581266,"name":"Campbell Fields cycle parking","properties":{"access":"unknown","bicycle_pa":"stands","capacity":4,"covered":"no","fee":"","operator":"","nameSource":"street"},"sourceId":"osm"},{"id":"osm:node:443373074","latitude":51.2427936,"longitude":-0.7584029,"name":"Campbell Fields near Brockenhurst Road","properties":{"access":"unknown","bicycle_pa":"stands","capacity":6,"covered":"no","fee":"","operator":"","nameSource":"junction"},"sourceId":"osm"},{"id":"osm:node:444510720","latitude":51.2351636,"longitude":-0.7570554,"name":"Lower Farnham Road near B3208","properties":{"access":"yes","bicycle_pa":"staple","capacity":6,"covered":"no","fee":"no","operator":"","nameSource":"junction"},"sourceId":"osm"},{"id":"osm:node:4565567394","latitude":51.2498296,"longitude":-0.7701673,"name":"Alexandra Road near Lime Street Roundabout","properties":{"access":"unknown","bicycle_pa":"stands","capacity":4,"covered":"yes","fee":"","operator":"","nameSource":"junction"},"sourceId":"osm"},{"id":"osm:node:4565567395","latitude":51.2498117,"longitude":-0.7698234,"name":"Alexandra Road near Lime Street Roundabout","properties":{"access":"unknown","bicycle_pa":"stands","capacity":4,"covered":"no","fee":"","operator":"","nameSource":"junction"},"sourceId":"osm"},{"id":"osm:node:459107366","latitude":51.2427388,"longitude":-0.7848432,"name":"Cranmore Lane near Rowhill Nature Reserve","properties":{"access":"unknown","bicycle_pa":"stands","capacity":4,"covered":"no","fee":"","operator":"","nameSource":"junction"},"sourceId":"osm"},{"id":"osm:node:479159858","latitude":51.2499064,"longitude":-0.7642728,"name":"Wellington Street near Court Road","properties":{"access":"unknown","bicycle_pa":"stands","capacity":4,"covered":"yes","fee":"","operator":"","nameSource":"junction"},"sourceId":"osm"},{"id":"osm:node:5347713418","latitude":51.2635821,"longitude":-0.7519669,"name":"Prince's Avenue cycle parking","properties":{"access":"unknown","bicycle_pa":"stands","capacity":16,"covered":"no","fee":"","operator":"","nameSource":"street"},"sourceId":"osm"},{"id":"osm:node:6401267985","latitude":51.2753996,"longitude":-0.7305748,"name":"Lysons Avenue by North Camp","properties":{"access":"unknown","bicycle_pa":"stands","capacity":10,"covered":"yes","fee":"no","operator":"","nameSource":"landmark"},"sourceId":"osm"},{"id":"osm:node:7598086985","latitude":51.2765474,"longitude":-0.7485077,"name":"Church Path near Queens Road","properties":{"access":"unknown","bicycle_pa":"","capacity":0,"covered":"no","fee":"","operator":"","nameSource":"junction"},"sourceId":"osm"},{"id":"osm:node:7688369302","latitude":51.2494897,"longitude":-0.7408244,"name":"White Road near Coppice Square","properties":{"access":"unknown","bicycle_pa":"stands","capacity":8,"covered":"no","fee":"no","operator":"","nameSource":"junction"},"sourceId":"osm"},{"id":"osm:node:7734738914","latitude":51.2490907,"longitude":-0.7711937,"name":"Queen Elizabeth Drive near Alexandra Road","properties":{"access":"private","bicycle_pa":"building","capacity":20,"covered":"yes","fee":"","operator":"","nameSource":"junction"},"sourceId":"osm"},{"id":"osm:node:8371927674","latitude":51.2499225,"longitude":-0.7429697,"name":"North Lane near Queen Street","properties":{"access":"unknown","bicycle_pa":"wall_loops","capacity":1,"covered":"no","fee":"","operator":"","nameSource":"junction"},"sourceId":"osm"},{"id":"osm:node:8446141480","latitude":51.2458571,"longitude":-0.7256539,"name":"Ash Street near Star Lane","properties":{"access":"unknown","bicycle_pa":"stands","capacity":8,"covered":"no","fee":"","operator":"","nameSource":"junction"},"sourceId":"osm"},{"id":"osm:node:8580475997","latitude":51.2502311,"longitude":-0.7641572,"name":"Court Road near High Street","properties":{"access":"yes","bicycle_pa":"stands","capacity":16,"covered":"yes","fee":"no","operator":"","nameSource":"junction"},"sourceId":"osm"},{"id":"osm:node:8589891223","latitude":51.2413532,"longitude":-0.7411646,"name":"Blackwater Way by The Border Practice","properties":{"access":"unknown","bicycle_pa":"stands","capacity":8,"covered":"no","fee":"","operator":"","nameSource":"landmark"},"sourceId":"osm"},{"id":"osm:node:8589891225","latitude":51.2415723,"longitude":-0.7411845,"name":"Ash Road near North Lane","properties":{"access":"unknown","bicycle_pa":"stands","capacity":6,"covered":"no","fee":"","operator":"","nameSource":"junction"},"sourceId":"osm"},{"id":"osm:node:8668233667","latitude":51.2721531,"longitude":-0.7216377,"name":"Station Approach near Vale Road","properties":{"access":"unknown","bicycle_pa":"stands","capacity":6,"covered":"yes","fee":"","operator":"","nameSource":"junction"},"sourceId":"osm"},{"id":"osm:node:8668233668","latitude":51.272205,"longitude":-0.721601,"name":"Station Approach near Chart House Road","properties":{"access":"unknown","bicycle_pa":"stands","capacity":20,"covered":"yes","fee":"","operator":"","nameSource":"junction"},"sourceId":"osm"},{"id":"osm:node:8729865060","latitude":51.2352227,"longitude":-0.7447592,"name":"Guildford Road by Parkside Aldershot & district learning disabilities","properties":{"access":"unknown","bicycle_pa":"stands","capacity":6,"covered":"no","fee":"","operator":"","nameSource":"landmark"},"sourceId":"osm"},{"id":"osm:node:8941299633","latitude":51.2657198,"longitude":-0.7500389,"name":"Rawlinson Road near Cavan's Road","properties":{"access":"yes","bicycle_pa":"wall_loops","capacity":10,"covered":"yes","fee":"no","operator":"","nameSource":"junction"},"sourceId":"osm"},{"id":"osm:node:9009882033","latitude":51.2539111,"longitude":-0.7584418,"name":"McCarthy Crescent near Kelsey Fry Road","properties":{"access":"yes","bicycle_pa":"stands","capacity":8,"covered":"no","fee":"no","operator":"","nameSource":"junction"},"sourceId":"osm"},{"id":"osm:node:9009898760","latitude":51.253966,"longitude":-0.7577164,"name":"McCarthy Crescent near Gillies Lane","properties":{"access":"yes","bicycle_pa":"stands","capacity":8,"covered":"no","fee":"no","operator":"","nameSource":"junction"},"sourceId":"osm"},{"id":"osm:node:9671676381","latitude":51.2780738,"longitude":-0.7414066,"name":"Queens Road cycle parking","properties":{"access":"unknown","bicycle_pa":"stands","capacity":4,"covered":"no","fee":"","operator":"","nameSource":"street"},"sourceId":"osm"},{"id":"osm:node:9671809841","latitude":51.2781286,"longitude":-0.7424522,"name":"Morris Road by South Farnborough Infant School","properties":{"access":"private","bicycle_pa":"wall_loops","capacity":0,"covered":"no","fee":"no","operator":"","nameSource":"landmark"},"sourceId":"osm"},{"id":"osm:way:1073424906","latitude":51.240563599999994,"longitude":-0.7541408799999999,"name":"Church Lane East near Lodge Close","properties":{"access":"private","bicycle_pa":"shed","capacity":0,"covered":"yes","fee":"","operator":"","nameSource":"junction"},"sourceId":"osm"},{"id":"osm:way:1299018388","latitude":51.25385265999999,"longitude":-0.76269416,"name":"Darbyshire Road near Hospital Road","properties":{"access":"private","bicycle_pa":"shed","capacity":0,"covered":"","fee":"","operator":"","nameSource":"junction"},"sourceId":"osm"},{"id":"osm:way:1299018389","latitude":51.253770239999994,"longitude":-0.7624780400000001,"name":"Darbyshire Road cycle parking","properties":{"access":"private","bicycle_pa":"shed","capacity":0,"covered":"","fee":"","operator":"","nameSource":"street"},"sourceId":"osm"},{"id":"osm:way:1358238814","latitude":51.24961606000001,"longitude":-0.7123801,"name":"Guildford Road near The Ashtrees","properties":{"access":"yes","bicycle_pa":"shed","capacity":10,"covered":"","fee":"no","operator":"","nameSource":"junction"},"sourceId":"osm"},{"id":"osm:way:919839723","latitude":51.25351619999999,"longitude":-0.76045232,"name":"White Cross Place near Leishman Views","properties":{"access":"unknown","bicycle_pa":"stands","capacity":8,"covered":"no","fee":"","operator":"","nameSource":"junction"},"sourceId":"osm"}],"schemaVersion":2}
