{"key":"12/2039/1375","points":[{"id":"osm:node:13662801665","latitude":50.7818896,"longitude":-0.7184117,"name":"Pryors Lane near Elbridge Crescent","properties":{"access":"unknown","bicycle_pa":"stands","capacity":6,"covered":"no","fee":"","operator":"","nameSource":"junction"},"sourceId":"osm"},{"id":"osm:node:13662862993","latitude":50.7821466,"longitude":-0.7176857,"name":"Wilman Gardens by Willowhale community centre","properties":{"access":"unknown","bicycle_pa":"stands","capacity":6,"covered":"no","fee":"","operator":"","nameSource":"landmark"},"sourceId":"osm"},{"id":"osm:node:13726971879","latitude":50.7849385,"longitude":-0.7164299,"name":"Grosvenor Gardens near Nyetimber Lane","properties":{"access":"unknown","bicycle_pa":"stands","capacity":6,"covered":"no","fee":"","operator":"","nameSource":"junction"},"sourceId":"osm"},{"id":"osm:node:13726999397","latitude":50.7857109,"longitude":-0.7184268,"name":"The Nurseries cycle parking","properties":{"access":"unknown","bicycle_pa":"stands","capacity":4,"covered":"no","fee":"","operator":"","nameSource":"street"},"sourceId":"osm"},{"id":"osm:node:2619584302","latitude":50.7775218,"longitude":-0.7171215,"name":"Barrack Lane near The Drive","properties":{"access":"unknown","bicycle_pa":"stands","capacity":6,"covered":"no","fee":"","operator":"","nameSource":"junction"},"sourceId":"osm"},{"id":"osm:node:7958891466","latitude":50.7428147,"longitude":-0.7803588,"name":"Park Lane by Asda","properties":{"access":"customers","bicycle_pa":"stands","capacity":15,"covered":"yes","fee":"no","operator":"","nameSource":"landmark"},"sourceId":"osm"}],"schemaVersion":2}
