{"key":"12/2039/1576","points":[{"id":"osm:node:11062467849","latitude":38.2634197,"longitude":-0.7140394,"name":"Avinguda de la Llibertat near carrer Mariano Benlliure","properties":{"access":"unknown","bicycle_pa":"","capacity":0,"covered":"","fee":"","operator":"","nameSource":"junction"},"sourceId":"osm"},{"id":"osm:node:12277415552","latitude":38.2627991,"longitude":-0.7034059,"name":"passeig de les Germanies near carrer Antonio Machado","properties":{"access":"yes","bicycle_pa":"stands","capacity":6,"covered":"no","fee":"no","operator":"","nameSource":"junction"},"sourceId":"osm"},{"id":"osm:node:5342922678","latitude":38.2456014,"longitude":-0.7668224,"name":"Servicio Renfe Atendo cycle parking","properties":{"access":"unknown","bicycle_pa":"","capacity":0,"covered":"","fee":"","operator":"","nameSource":"landmark"},"sourceId":"osm"},{"id":"osm:node:7928871393","latitude":38.2617388,"longitude":-0.7084103,"name":"Carrer Capità Antoni Mena near Plaça de Crevillent","properties":{"access":"unknown","bicycle_pa":"","capacity":0,"covered":"","fee":"","operator":"","nameSource":"junction"},"sourceId":"osm"},{"id":"osm:node:8982717303","latitude":38.2129152,"longitude":-0.7329385,"name":"Camí de la Pedra Escrita near CV-857","properties":{"access":"unknown","bicycle_pa":"","capacity":0,"covered":"","fee":"","operator":"","nameSource":"junction"},"sourceId":"osm"},{"id":"osm:node:9355831040","latitude":38.2616252,"longitude":-0.7160855,"name":"Rotonda de l'Aljub near Avinguda de la Llibertat","properties":{"access":"unknown","bicycle_pa":"","capacity":0,"covered":"","fee":"","operator":"BiciElx","nameSource":"junction"},"sourceId":"osm"}],"schemaVersion":2}
