{"key":"12/2039/1585","points":[{"id":"osm:node:12042572846","latitude":37.6482794,"longitude":-0.7163626,"name":"Gran Vía de La Manga by D'Costa","properties":{"access":"customers","bicycle_pa":"shed","capacity":0,"covered":"yes","fee":"yes","operator":"","nameSource":"landmark"},"sourceId":"osm"},{"id":"osm:node:12042572848","latitude":37.6482441,"longitude":-0.7163256,"name":"Gran Vía de La Manga by D'Costa","properties":{"access":"yes","bicycle_pa":"rack","capacity":10,"covered":"no","fee":"","operator":"","nameSource":"landmark"},"sourceId":"osm"},{"id":"osm:node:13062155862","latitude":37.6301617,"longitude":-0.703474,"name":"Ronda de Poniente near Calle Tortuga","properties":{"access":"unknown","bicycle_pa":"wall_loops","capacity":6,"covered":"no","fee":"","operator":"","nameSource":"junction"},"sourceId":"osm"},{"id":"osm:node:13074578685","latitude":37.6332928,"longitude":-0.7031259,"name":"Paseo de Dimas Ortega López by Policía Local Cartagena - Distrito 1","properties":{"access":"yes","bicycle_pa":"stands","capacity":9,"covered":"no","fee":"","operator":"","nameSource":"landmark"},"sourceId":"osm"},{"id":"osm:node:13075581771","latitude":37.6346702,"longitude":-0.7074298,"name":"Calle Albahaca near Carretera a La Manga","properties":{"access":"unknown","bicycle_pa":"stands","capacity":5,"covered":"no","fee":"","operator":"","nameSource":"junction"},"sourceId":"osm"},{"id":"osm:node:13086535624","latitude":37.6333242,"longitude":-0.7035391,"name":"Subida al Faro near Calle Los Triolas","properties":{"access":"yes","bicycle_pa":"wall_loops","capacity":7,"covered":"no","fee":"","operator":"","nameSource":"junction"},"sourceId":"osm"},{"id":"osm:node:13086536733","latitude":37.6316795,"longitude":-0.7049443,"name":"Ronda de Levante near Calle Cabo Negrete","properties":{"access":"yes","bicycle_pa":"wall_loops","capacity":12,"covered":"no","fee":"","operator":"","nameSource":"junction"},"sourceId":"osm"},{"id":"osm:node:13912899265","latitude":37.6425764,"longitude":-0.7138503,"name":"Gran Vía de La Manga near Segunda Avenida","properties":{"access":"yes","bicycle_pa":"","capacity":0,"covered":"no","fee":"no","operator":"","nameSource":"junction"},"sourceId":"osm"},{"id":"osm:node:3048960174","latitude":37.6475415,"longitude":-0.7154019,"name":"Gran Vía de La Manga by Farmacia Las Sirens, Lda.Laura Madrid","properties":{"access":"unknown","bicycle_pa":"stands","capacity":0,"covered":"","fee":"","operator":"","nameSource":"landmark"},"sourceId":"osm"}],"schemaVersion":2}
