{"key":"12/2030/1318","points":[{"categories":["hire"],"id":"osm:node:12966832142","latitude":53.8131111,"longitude":-1.5726838,"name":"Beryl","properties":{"brand":"Beryl","fee":"yes","network":"Leeds City Bikes","operator":"Beryl"},"sourceId":"osm"},{"categories":["hire"],"id":"osm:node:12966832143","latitude":53.8142682,"longitude":-1.5749438,"name":"Beryl","properties":{"fee":"yes","network":"Leeds City Bikes","operator":"Beryl"},"sourceId":"osm"},{"categories":["hire"],"id":"osm:node:13746019370","latitude":53.8142409,"longitude":-1.5612646,"name":"Cycle hire","properties":{},"sourceId":"osm"},{"categories":["repair"],"id":"osm:node:13902561694","latitude":53.807124,"longitude":-1.5570167,"name":"Bicycle repair station","properties":{},"sourceId":"osm"},{"categories":["shop","repair"],"id":"osm:node:352872458","latitude":53.8141247,"longitude":-1.5733851,"name":"Re-Cycle Engineering","properties":{"serviceRepair":"yes","website":"https://www.rceuk.co.uk/"},"sourceId":"osm"},{"categories":["shop"],"id":"osm:node:4847264406","latitude":53.8007927,"longitude":-1.5327045,"name":"Leeds Bike Mill","properties":{"website":"https://leedsbikemill.org/"},"sourceId":"osm"},{"categories":["repair"],"id":"osm:node:9420709681","latitude":53.8068643,"longitude":-1.5544108,"name":"Bicycle repair station","properties":{"fee":"no","openingHours":"24/7","servicePump":"broken","serviceTools":"yes"},"sourceId":"osm"},{"categories":["repair"],"id":"osm:node:9420709682","latitude":53.8050572,"longitude":-1.5548853,"name":"Bicycle repair station","properties":{"fee":"no","openingHours":"24/7","servicePump":"no","serviceTools":"no"},"sourceId":"osm"},{"categories":["shop"],"id":"osm:node:9967781380","latitude":53.8182204,"longitude":-1.529354,"name":"Bike Fix Sunday","properties":{"openingHours":"Su 14:00-16:00"},"sourceId":"osm"},{"categories":["shop","repair"],"id":"osm:way:133955475","latitude":53.80076601,"longitude":-1.5326793300000001,"name":"Pedallers Arms","properties":{"openingHours":"Mo,We,Th 16:00-20:00","servicePump":"yes","serviceRepair":"yes","website":"https://pedallers-arms.org/"},"sourceId":"osm"}],"schemaVersion":2}
