{"key":"12/2030/1345","points":[{"categories":["hire"],"id":"osm:node:10219680892","latitude":52.4095235,"longitude":-1.5066657,"name":"Pool Meadow Bus Station","properties":{"fee":"yes","network":"West Midlands Cycle Hire","operator":"Beryl","website":"https://beryl.cc/scheme/west-midlands"},"sourceId":"osm"},{"categories":["hire"],"id":"osm:node:10219700335","latitude":52.385072,"longitude":-1.564714,"name":"Warwick University Mobility Hub","properties":{"brand":"Beryl","fee":"yes","network":"Beryl","operator":"Beryl","website":"https://beryl.cc/scheme/west-midlands"},"sourceId":"osm"},{"categories":["hire"],"id":"osm:node:10219700336","latitude":52.383991,"longitude":-1.559355,"name":"Zeeman","properties":{"brand":"Beryl","fee":"yes","network":"Beryl","operator":"Beryl","website":"https://beryl.cc/scheme/west-midlands"},"sourceId":"osm"},{"categories":["hire"],"id":"osm:node:10219700339","latitude":52.376698,"longitude":-1.563528,"name":"Cryfield","properties":{"brand":"Beryl","fee":"yes","network":"Beryl","operator":"Beryl","website":"https://beryl.cc/scheme/west-midlands"},"sourceId":"osm"},{"categories":["hire"],"id":"osm:node:10219700341","latitude":52.38153,"longitude":-1.571708,"name":"Sherbourne","properties":{"brand":"Beryl","fee":"yes","network":"Beryl","operator":"Beryl","website":"https://beryl.cc/scheme/west-midlands"},"sourceId":"osm"},{"categories":["hire"],"id":"osm:node:10219700342","latitude":52.381138,"longitude":-1.565108,"name":"WBS","properties":{"brand":"Beryl","fee":"yes","network":"Beryl","operator":"Beryl","website":"https://beryl.cc/scheme/west-midlands"},"sourceId":"osm"},{"categories":["hire"],"id":"osm:node:10219700343","latitude":52.3779596,"longitude":-1.5586084,"name":"Bluebell","properties":{"brand":"Beryl","fee":"yes","network":"Beryl","operator":"Beryl","website":"https://beryl.cc/scheme/west-midlands"},"sourceId":"osm"},{"categories":["hire"],"id":"osm:node:10219700344","latitude":52.383489,"longitude":-1.556537,"name":"Claycroft","properties":{"brand":"Beryl","fee":"yes","network":"Beryl","operator":"Beryl","website":"https://beryl.cc/scheme/west-midlands"},"sourceId":"osm"},{"categories":["hire"],"id":"osm:node:10219705179","latitude":52.407815,"longitude":-1.495883,"name":"Sky Blue Way","properties":{"fee":"yes","network":"West Midlands Cycle Hire","operator":"Beryl","website":"https://beryl.cc/scheme/west-midlands"},"sourceId":"osm"},{"categories":["hire"],"id":"osm:node:10219705181","latitude":52.412682,"longitude":-1.512035,"name":"St Nicholas Street","properties":{"brand":"Beryl","fee":"yes","network":"Beryl","operator":"Beryl","website":"https://beryl.cc/scheme/west-midlands"},"sourceId":"osm"},{"categories":["hire"],"id":"osm:node:10219705183","latitude":52.422113,"longitude":-1.535136,"name":"Westhill Road","properties":{"brand":"Beryl","fee":"yes","network":"Beryl","operator":"Beryl","website":"https://beryl.cc/scheme/west-midlands"},"sourceId":"osm"},{"categories":["hire"],"id":"osm:node:10219705192","latitude":52.388004,"longitude":-1.557147,"name":"Argent Court","properties":{"brand":"Beryl","fee":"yes","network":"Beryl","operator":"Beryl","website":"https://beryl.cc/scheme/west-midlands"},"sourceId":"osm"},{"categories":["hire"],"id":"osm:node:10219705194","latitude":52.380647,"longitude":-1.555847,"name":"Arthur Vick","properties":{"brand":"Beryl","fee":"yes","network":"Beryl","operator":"Beryl","website":"https://beryl.cc/scheme/west-midlands"},"sourceId":"osm"},{"categories":["shop"],"id":"osm:node:12913494036","latitude":52.4198322,"longitude":-1.5372849,"name":"eZo Cycle","properties":{"openingHours":"Mo-Fr 09:00-17:00","operator":"eZo Cycle"},"sourceId":"osm"},{"categories":["shop"],"id":"osm:node:3788645052","latitude":52.406818,"longitude":-1.5766898,"name":"Jardine Cycles","properties":{},"sourceId":"osm"},{"categories":["shop"],"id":"osm:node:5394135615","latitude":52.3872596,"longitude":-1.5463362,"name":"Bike Wrench","properties":{},"sourceId":"osm"},{"categories":["hire"],"id":"osm:node:5723483760","latitude":52.3823384,"longitude":-1.5611851,"name":"Library Road","properties":{"brand":"Beryl","fee":"yes","network":"Beryl","operator":"Beryl","website":"https://beryl.cc/scheme/west-midlands"},"sourceId":"osm"},{"categories":["repair"],"id":"osm:node:6444139306","latitude":52.4010287,"longitude":-1.5130985,"name":"Bicycle repair station","properties":{},"sourceId":"osm"},{"categories":["hire"],"id":"osm:node:6446644498","latitude":52.406113,"longitude":-1.5053067,"name":"Loan Bike 1","properties":{"operator":"Coventry University"},"sourceId":"osm"},{"categories":["hire"],"id":"osm:node:8863339608","latitude":52.4105056,"longitude":-1.5082604,"name":"Millennium Place","properties":{"brand":"Beryl","fee":"yes","network":"Beryl","operator":"Beryl","website":"https://beryl.cc/scheme/west-midlands"},"sourceId":"osm"},{"categories":["hire"],"id":"osm:node:8863370241","latitude":52.418226,"longitude":-1.5252856,"name":"Moseley Avenue","properties":{"fee":"yes","network":"West Midlands Cycle Hire","operator":"Beryl","website":"https://beryl.cc/scheme/west-midlands"},"sourceId":"osm"},{"categories":["hire"],"id":"osm:node:8863378328","latitude":52.4175412,"longitude":-1.513269,"name":"Sandy Lane","properties":{"brand":"Beryl","fee":"yes","network":"Beryl","operator":"Beryl","website":"https://beryl.cc/scheme/west-midlands"},"sourceId":"osm"},{"categories":["hire"],"id":"osm:node:8863378594","latitude":52.4065385,"longitude":-1.5021593,"name":"Gosford Street","properties":{"brand":"Beryl","fee":"yes","network":"Beryl","operator":"Beryl","website":"https://beryl.cc/scheme/west-midlands"},"sourceId":"osm"},{"categories":["hire"],"id":"osm:node:8863381037","latitude":52.4142157,"longitude":-1.5042299,"name":"Coventry College","properties":{"fee":"yes","network":"West Midlands Cycle Hire","operator":"Beryl","website":"https://beryl.cc/scheme/west-midlands"},"sourceId":"osm"},{"categories":["hire"],"id":"osm:node:8863382566","latitude":52.3925481,"longitude":-1.528385,"name":"Coventry Park and Ride","properties":{"fee":"yes","network":"West Midlands Cycle Hire","operator":"Beryl","website":"https://beryl.cc/scheme/west-midlands"},"sourceId":"osm"},{"categories":["hire"],"id":"osm:node:8863387234","latitude":52.4133001,"longitude":-1.5126792,"name":"St Nicholas Street","properties":{"network":"Beryl","operator":"West Midlands Cycle Hire"},"sourceId":"osm"},{"categories":["hire"],"id":"osm:node:8863394734","latitude":52.4068446,"longitude":-1.4993384,"name":"Gosford Gate","properties":{"fee":"yes","network":"West Midlands Cycle Hire","operator":"Beryl","website":"https://beryl.cc/scheme/west-midlands"},"sourceId":"osm"},{"categories":["hire"],"id":"osm:node:8863402275","latitude":52.4047984,"longitude":-1.5092536,"name":"New Union Street","properties":{"fee":"yes","network":"West Midlands Cycle Hire","operator":"Beryl","website":"https://beryl.cc/scheme/west-midlands"},"sourceId":"osm"},{"categories":["hire"],"id":"osm:node:8863403548","latitude":52.4118103,"longitude":-1.5103998,"name":"Bishop Street Car Park","properties":{"brand":"Beryl","fee":"yes","network":"Beryl","operator":"Beryl","website":"https://beryl.cc/scheme/west-midlands"},"sourceId":"osm"},{"categories":["hire"],"id":"osm:node:8863413154","latitude":52.4069235,"longitude":-1.506438,"name":"Earl Street","properties":{"brand":"Beryl","fee":"yes","network":"Beryl","operator":"Beryl","website":"https://beryl.cc/scheme/west-midlands"},"sourceId":"osm"},{"categories":["hire"],"id":"osm:node:8863414365","latitude":52.4098181,"longitude":-1.5066764,"name":"Pool Meadow Bus Station","properties":{"network":"Beryl","operator":"West Midlands Cycle Hire"},"sourceId":"osm"},{"categories":["hire"],"id":"osm:node:8863414466","latitude":52.4029643,"longitude":-1.5134096,"name":"Friargate Bridge Deck","properties":{"fee":"yes","network":"West Midlands Cycle Hire","operator":"Beryl","website":"https://beryl.cc/scheme/west-midlands"},"sourceId":"osm"},{"categories":["hire"],"id":"osm:node:8863415329","latitude":52.4068409,"longitude":-1.5156028,"name":"Queen Victoria Rover Road","properties":{"fee":"yes","network":"West Midlands Cycle Hire","operator":"Beryl","website":"https://beryl.cc/scheme/west-midlands"},"sourceId":"osm"},{"categories":["hire"],"id":"osm:node:8863421481","latitude":52.3939137,"longitude":-1.504373,"name":"Daventry Road","properties":{"fee":"yes","network":"West Midlands Cycle Hire","operator":"Beryl","website":"https://beryl.cc/scheme/west-midlands"},"sourceId":"osm"},{"categories":["hire"],"id":"osm:node:8863429051","latitude":52.4042453,"longitude":-1.5150225,"name":"Warwick Row","properties":{"fee":"yes","network":"West Midlands Cycle Hire","operator":"Beryl","website":"https://beryl.cc/scheme/west-midlands"},"sourceId":"osm"},{"categories":["hire"],"id":"osm:node:8863431172","latitude":52.409116,"longitude":-1.5102126,"name":"Ironmonger Row","properties":{"brand":"Beryl","fee":"yes","network":"Beryl","operator":"Beryl","website":"https://beryl.cc/scheme/west-midlands"},"sourceId":"osm"},{"categories":["hire"],"id":"osm:node:8863434471","latitude":52.4100859,"longitude":-1.5143709,"name":"Belgrade Square","properties":{"brand":"Beryl","fee":"yes","network":"Beryl","operator":"Beryl","website":"https://beryl.cc/scheme/west-midlands"},"sourceId":"osm"},{"categories":["hire"],"id":"osm:node:8863434473","latitude":52.4087514,"longitude":-1.5147165,"name":"Hill Street","properties":{"fee":"yes","network":"West Midlands Cycle Hire","operator":"Beryl","website":"https://beryl.cc/scheme/west-midlands"},"sourceId":"osm"},{"categories":["hire"],"id":"osm:node:8863446088","latitude":52.405846,"longitude":-1.5229899,"name":"Butts Road","properties":{"fee":"yes","network":"West Midlands Cycle Hire","operator":"Beryl","website":"https://beryl.cc/scheme/west-midlands"},"sourceId":"osm"},{"categories":["hire"],"id":"osm:node:8863446336","latitude":52.4046445,"longitude":-1.535578,"name":"Hearsall Common","properties":{"fee":"yes","network":"West Midlands Cycle Hire","operator":"Beryl","website":"https://beryl.cc/scheme/west-midlands"},"sourceId":"osm"},{"categories":["hire"],"id":"osm:node:8863446417","latitude":52.4037805,"longitude":-1.5046622,"name":"Coventry University South","properties":{"fee":"yes","network":"West Midlands Cycle Hire","operator":"Beryl","website":"https://beryl.cc/scheme/west-midlands"},"sourceId":"osm"},{"categories":["hire"],"id":"osm:node:9433489890","latitude":52.4022119,"longitude":-1.5060531,"name":"Mile Lane","properties":{"fee":"yes","network":"West Midlands Cycle Hire","operator":"Beryl","website":"https://beryl.cc/scheme/west-midlands"},"sourceId":"osm"},{"categories":["hire"],"id":"osm:node:9433511518","latitude":52.4016833,"longitude":-1.5133964,"name":"Coventry Station","properties":{"fee":"yes","network":"West Midlands Cycle Hire","operator":"Beryl","website":"https://beryl.cc/scheme/west-midlands"},"sourceId":"osm"},{"categories":["hire"],"id":"osm:node:9433581475","latitude":52.4092585,"longitude":-1.5037826,"name":"Fairfax Street","properties":{"fee":"yes","network":"West Midlands Cycle Hire","operator":"Beryl","website":"https://beryl.cc/scheme/west-midlands"},"sourceId":"osm"},{"categories":["hire"],"id":"osm:node:9433602237","latitude":52.3864717,"longitude":-1.5557655,"name":"Cannon Park Centre","properties":{"brand":"Beryl","fee":"yes","network":"Beryl","operator":"Beryl","website":"https://beryl.cc/scheme/west-midlands"},"sourceId":"osm"},{"categories":["hire"],"id":"osm:node:9433606680","latitude":52.3955128,"longitude":-1.5789447,"name":"Westwood Student Mews","properties":{"fee":"yes","network":"West Midlands Cycle Hire","operator":"Beryl","website":"https://beryl.cc/scheme/west-midlands"},"sourceId":"osm"},{"categories":["hire"],"id":"osm:node:9433616994","latitude":52.4074223,"longitude":-1.503992,"name":"Cox Street","properties":{"brand":"Beryl","fee":"yes","network":"Beryl","operator":"Beryl","website":"https://beryl.cc/scheme/west-midlands"},"sourceId":"osm"},{"categories":["hire"],"id":"osm:node:9433711932","latitude":52.3801105,"longitude":-1.559257,"name":"The Oculus","properties":{"brand":"Beryl","fee":"yes","network":"Beryl","operator":"Beryl","website":"https://beryl.cc/scheme/west-midlands"},"sourceId":"osm"},{"categories":["hire"],"id":"osm:node:9433717740","latitude":52.3801551,"longitude":-1.5697082,"name":"Warwick Lakeside","properties":{"brand":"Beryl","fee":"yes","network":"Beryl","operator":"Beryl","website":"https://beryl.cc/scheme/west-midlands"},"sourceId":"osm"},{"categories":["hire"],"id":"osm:node:9433838625","latitude":52.3794897,"longitude":-1.5621709,"name":"Warwick Interchange","properties":{"brand":"Beryl","fee":"yes","network":"Beryl","operator":"Beryl","website":"https://beryl.cc/scheme/west-midlands"},"sourceId":"osm"},{"categories":["hire"],"id":"osm:node:9433854403","latitude":52.3893039,"longitude":-1.5619362,"name":"Westwood Campus","properties":{"brand":"Beryl","fee":"yes","network":"Beryl","operator":"Beryl","website":"https://beryl.cc/scheme/west-midlands"},"sourceId":"osm"},{"categories":["hire"],"id":"osm:node:9433885953","latitude":52.3775235,"longitude":-1.5700168,"name":"Warwick Sports Hub","properties":{"brand":"Beryl","fee":"yes","network":"Beryl","operator":"Beryl","website":"https://beryl.cc/scheme/west-midlands"},"sourceId":"osm"},{"categories":["repair"],"id":"osm:node:9603315403","latitude":52.4015685,"longitude":-1.5151999,"name":"Bicycle repair station","properties":{},"sourceId":"osm"},{"categories":["shop"],"id":"osm:way:216213922","latitude":52.416715228571434,"longitude":-1.5085547714285714,"name":"Hawk Cycles","properties":{},"sourceId":"osm"},{"categories":["repair"],"id":"osm:way:216213931","latitude":52.41615060000001,"longitude":-1.5087774444444444,"name":"Halfords","properties":{"brand":"Halfords","serviceRepair":"yes","website":"https://www.halfords.com/locations/foleshill-road-store/"},"sourceId":"osm"},{"categories":["shop","repair"],"id":"osm:way:542962880","latitude":52.40018166666667,"longitude":-1.5291477666666669,"name":"Albany Cycles","properties":{"openingHours":"Tu-Sa 09:00-18:00","servicePump":"yes","serviceRental":"no","serviceRepair":"yes"},"sourceId":"osm"}],"schemaVersion":2}
