{"key":"12/1951/1309","points":[{"id":"osm:node:11618923857","latitude":54.278683,"longitude":-8.4745408,"name":"Cartron Hill near N15","properties":{"access":"unknown","bicycle_pa":"","capacity":0,"covered":"","fee":"","operator":"Bolt","nameSource":"junction"},"sourceId":"osm"},{"id":"osm:node:12177048131","latitude":54.2719288,"longitude":-8.4729544,"name":"Queen Maeve's Square by The Snug","properties":{"access":"yes","bicycle_pa":"loops","capacity":6,"covered":"no","fee":"no","operator":"","nameSource":"landmark"},"sourceId":"osm"},{"id":"osm:node:12872896019","latitude":54.2705564,"longitude":-8.474099,"name":"Grattan Street near Market Street","properties":{"access":"unknown","bicycle_pa":"stands","capacity":6,"covered":"no","fee":"","operator":"","nameSource":"junction"},"sourceId":"osm"},{"id":"osm:node:13039215010","latitude":54.2717084,"longitude":-8.4717499,"name":"Norbert Ferguson Parade near Bridge Street","properties":{"access":"unknown","bicycle_pa":"stands","capacity":6,"covered":"no","fee":"","operator":"","nameSource":"junction"},"sourceId":"osm"},{"id":"osm:node:13327781855","latitude":54.2787666,"longitude":-8.4606418,"name":"Students' Union Shop cycle parking","properties":{"access":"unknown","bicycle_pa":"","capacity":0,"covered":"","fee":"","operator":"","nameSource":"landmark"},"sourceId":"osm"},{"id":"osm:node:13327801913","latitude":54.2781955,"longitude":-8.4601156,"name":"Students' Union Shop cycle parking","properties":{"access":"unknown","bicycle_pa":"","capacity":0,"covered":"","fee":"","operator":"","nameSource":"landmark"},"sourceId":"osm"},{"id":"osm:node:13656325950","latitude":54.2715468,"longitude":-8.4812045,"name":"N4 near Lord Edward Street","properties":{"access":"unknown","bicycle_pa":"stands","capacity":6,"covered":"no","fee":"","operator":"","nameSource":"junction"},"sourceId":"osm"},{"id":"osm:node:13945027904","latitude":54.2662296,"longitude":-8.4792332,"name":"Circular Road cycle parking","properties":{"access":"unknown","bicycle_pa":"stands","capacity":0,"covered":"no","fee":"","operator":"","nameSource":"street"},"sourceId":"osm"},{"id":"osm:node:1409987406","latitude":54.2720561,"longitude":-8.4745935,"name":"Rockwood Parade near Lower Knox Street","properties":{"access":"unknown","bicycle_pa":"","capacity":4,"covered":"no","fee":"","operator":"","nameSource":"junction"},"sourceId":"osm"},{"id":"osm:node:1409987410","latitude":54.271735,"longitude":-8.4777156,"name":"Smyths Row by Hertz","properties":{"access":"unknown","bicycle_pa":"","capacity":2,"covered":"no","fee":"","operator":"","nameSource":"landmark"},"sourceId":"osm"},{"id":"osm:node:1409987427","latitude":54.2715737,"longitude":-8.4777558,"name":"Smyths Row by Hertz","properties":{"access":"unknown","bicycle_pa":"","capacity":2,"covered":"no","fee":"","operator":"","nameSource":"landmark"},"sourceId":"osm"},{"id":"osm:node:1409987445","latitude":54.2713763,"longitude":-8.4777048,"name":"Smyths Row by Intersport Elverys","properties":{"access":"unknown","bicycle_pa":"","capacity":4,"covered":"no","fee":"","operator":"","nameSource":"landmark"},"sourceId":"osm"},{"id":"osm:node:1409987447","latitude":54.2739011,"longitude":-8.4770423,"name":"Custom House Quay near Lower Quay Street","properties":{"access":"unknown","bicycle_pa":"","capacity":2,"covered":"no","fee":"","operator":"","nameSource":"junction"},"sourceId":"osm"},{"id":"osm:node:1409987452","latitude":54.2727562,"longitude":-8.4761062,"name":"Quay Street near Lower Knox Street","properties":{"access":"unknown","bicycle_pa":"","capacity":6,"covered":"no","fee":"","operator":"","nameSource":"junction"},"sourceId":"osm"},{"id":"osm:node:1409987464","latitude":54.2738118,"longitude":-8.4766078,"name":"Lower Quay Street near Lower New Street","properties":{"access":"unknown","bicycle_pa":"","capacity":2,"covered":"","fee":"","operator":"","nameSource":"junction"},"sourceId":"osm"},{"id":"osm:node:1409987478","latitude":54.2723928,"longitude":-8.4781769,"name":"Wine Street near Quayside Shopping Centre","properties":{"access":"unknown","bicycle_pa":"","capacity":4,"covered":"no","fee":"","operator":"","nameSource":"junction"},"sourceId":"osm"},{"id":"osm:node:1409987481","latitude":54.2704401,"longitude":-8.4736292,"name":"Grattan Street near Market Street","properties":{"access":"unknown","bicycle_pa":"stands","capacity":6,"covered":"no","fee":"","operator":"","nameSource":"junction"},"sourceId":"osm"},{"id":"osm:node:1409987484","latitude":54.2715241,"longitude":-8.4741159,"name":"Rockwood Parade near Tobergal Lane","properties":{"access":"unknown","bicycle_pa":"stands","capacity":4,"covered":"no","fee":"","operator":"","nameSource":"junction"},"sourceId":"osm"},{"id":"osm:node:1409987488","latitude":54.2721384,"longitude":-8.4753631,"name":"Lower Knox Street near Fish Quay","properties":{"access":"unknown","bicycle_pa":"stands","capacity":4,"covered":"no","fee":"","operator":"","nameSource":"junction"},"sourceId":"osm"},{"id":"osm:node:1409987491","latitude":54.2724227,"longitude":-8.4739215,"name":"Lower Knox Street near Markievicz Road","properties":{"access":"unknown","bicycle_pa":"","capacity":4,"covered":"no","fee":"","operator":"","nameSource":"junction"},"sourceId":"osm"},{"id":"osm:node:1409987495","latitude":54.2729974,"longitude":-8.4762672,"name":"Quay Street near New Street","properties":{"access":"unknown","bicycle_pa":"","capacity":8,"covered":"no","fee":"","operator":"","nameSource":"junction"},"sourceId":"osm"},{"id":"osm:node:1409997604","latitude":54.2727156,"longitude":-8.4715686,"name":"Lake Isle Road near Bridge Street","properties":{"access":"unknown","bicycle_pa":"stands","capacity":4,"covered":"no","fee":"","operator":"","nameSource":"junction"},"sourceId":"osm"},{"id":"osm:node:1410049623","latitude":54.2684175,"longitude":-8.4725496,"name":"Connolly Street near High Street","properties":{"access":"unknown","bicycle_pa":"","capacity":4,"covered":"no","fee":"","operator":"","nameSource":"junction"},"sourceId":"osm"},{"id":"osm:node:1410049625","latitude":54.2696409,"longitude":-8.4641034,"name":"Garavogue Villas near Chapel Street","properties":{"access":"unknown","bicycle_pa":"","capacity":6,"covered":"no","fee":"","operator":"","nameSource":"junction"},"sourceId":"osm"},{"id":"osm:node:1410049629","latitude":54.2713715,"longitude":-8.4713373,"name":"John F. Kennedy Parade near Rockwood Parade","properties":{"access":"unknown","bicycle_pa":"","capacity":4,"covered":"","fee":"","operator":"","nameSource":"junction"},"sourceId":"osm"},{"id":"osm:node:1410049641","latitude":54.2680868,"longitude":-8.4638053,"name":"Cranmore Road near Devins Drive","properties":{"access":"unknown","bicycle_pa":"","capacity":6,"covered":"no","fee":"","operator":"","nameSource":"junction"},"sourceId":"osm"},{"id":"osm:node:1410049642","latitude":54.2727591,"longitude":-8.4668754,"name":"Calry Lane near The Mall","properties":{"access":"unknown","bicycle_pa":"","capacity":4,"covered":"no","fee":"","operator":"","nameSource":"junction"},"sourceId":"osm"},{"id":"osm:node:1410049646","latitude":54.2687371,"longitude":-8.4767848,"name":"The Lungy near Temple Street","properties":{"access":"unknown","bicycle_pa":"","capacity":4,"covered":"no","fee":"","operator":"","nameSource":"junction"},"sourceId":"osm"},{"id":"osm:node:1410049663","latitude":54.2685272,"longitude":-8.4741187,"name":"Dominic Street cycle parking","properties":{"access":"unknown","bicycle_pa":"stands","capacity":4,"covered":"no","fee":"","operator":"","nameSource":"street"},"sourceId":"osm"},{"id":"osm:node:1410049665","latitude":54.2697458,"longitude":-8.463524,"name":"Garavogue Villas cycle parking","properties":{"access":"unknown","bicycle_pa":"","capacity":10,"covered":"no","fee":"","operator":"","nameSource":"street"},"sourceId":"osm"},{"id":"osm:node:1410049669","latitude":54.2695719,"longitude":-8.4684405,"name":"Saint Joachim's Terrace near St. Annes Terrace","properties":{"access":"unknown","bicycle_pa":"","capacity":2,"covered":"no","fee":"","operator":"","nameSource":"junction"},"sourceId":"osm"},{"id":"osm:node:1410049673","latitude":54.2663436,"longitude":-8.464393,"name":"Devins Drive near Geldof Drive","properties":{"access":"unknown","bicycle_pa":"","capacity":4,"covered":"no","fee":"","operator":"","nameSource":"junction"},"sourceId":"osm"},{"id":"osm:node:1410049685","latitude":54.26895,"longitude":-8.474607,"name":"Dominic Street cycle parking","properties":{"access":"unknown","bicycle_pa":"","capacity":4,"covered":"no","fee":"","operator":"","nameSource":"street"},"sourceId":"osm"},{"id":"osm:node:1410049687","latitude":54.2706856,"longitude":-8.463127,"name":"Crozon Promenade cycle parking","properties":{"access":"unknown","bicycle_pa":"","capacity":6,"covered":"no","fee":"","operator":"","nameSource":"street"},"sourceId":"osm"},{"id":"osm:node:1410049691","latitude":54.2705548,"longitude":-8.4700964,"name":"Abbey Street near Charlotte Street","properties":{"access":"unknown","bicycle_pa":"","capacity":4,"covered":"no","fee":"","operator":"","nameSource":"junction"},"sourceId":"osm"},{"id":"osm:node:1410049707","latitude":54.2697145,"longitude":-8.4739229,"name":"High Street near Market Street","properties":{"access":"unknown","bicycle_pa":"stands","capacity":8,"covered":"no","fee":"","operator":"","nameSource":"junction"},"sourceId":"osm"},{"id":"osm:node:1410049710","latitude":54.267211,"longitude":-8.4542298,"name":"Cleveragh Drive cycle parking","properties":{"access":"unknown","bicycle_pa":"","capacity":10,"covered":"no","fee":"","operator":"","nameSource":"street"},"sourceId":"osm"},{"id":"osm:node:1410049714","latitude":54.2696195,"longitude":-8.462851,"name":"Garavogue Villas by Sligo Fire Station","properties":{"access":"unknown","bicycle_pa":"","capacity":2,"covered":"no","fee":"","operator":"","nameSource":"landmark"},"sourceId":"osm"},{"id":"osm:node:1410049728","latitude":54.2754604,"longitude":-8.4689619,"name":"Greenfort Park cycle parking","properties":{"access":"unknown","bicycle_pa":"","capacity":6,"covered":"no","fee":"","operator":"","nameSource":"landmark"},"sourceId":"osm"},{"id":"osm:node:1410049730","latitude":54.2677132,"longitude":-8.503559,"name":"Roger Eames Road by Mitchell Curley Park","properties":{"access":"unknown","bicycle_pa":"stands","capacity":10,"covered":"no","fee":"","operator":"","nameSource":"landmark"},"sourceId":"osm"},{"id":"osm:node:1410049733","latitude":54.2763677,"longitude":-8.4816396,"name":"Bonus Beds cycle parking","properties":{"access":"unknown","bicycle_pa":"","capacity":2,"covered":"no","fee":"","operator":"","nameSource":"landmark"},"sourceId":"osm"},{"id":"osm:node:1410049738","latitude":54.2754151,"longitude":-8.4692021,"name":"Greenfort Park cycle parking","properties":{"access":"unknown","bicycle_pa":"","capacity":6,"covered":"no","fee":"","operator":"","nameSource":"landmark"},"sourceId":"osm"},{"id":"osm:node:1419402323","latitude":54.281213,"longitude":-8.469346,"name":"Avondale near Ballytivnan Road","properties":{"access":"unknown","bicycle_pa":"","capacity":0,"covered":"","fee":"","operator":"","nameSource":"junction"},"sourceId":"osm"},{"id":"osm:node:5808516707","latitude":54.2719273,"longitude":-8.4716244,"name":"Bridge Street near Kempten Promenade","properties":{"access":"yes","bicycle_pa":"stands","capacity":10,"covered":"no","fee":"","operator":"","nameSource":"junction"},"sourceId":"osm"},{"id":"osm:node:728372280","latitude":54.2718143,"longitude":-8.4823567,"name":"Lord Edward Street near Knappagh Road","properties":{"access":"yes","bicycle_pa":"stands","capacity":4,"covered":"yes","fee":"","operator":"","nameSource":"junction"},"sourceId":"osm"},{"id":"osm:node:9645574110","latitude":54.2694086,"longitude":-8.4716994,"name":"Pearse Road near Old Market Street","properties":{"access":"yes","bicycle_pa":"stands","capacity":8,"covered":"no","fee":"no","operator":"Sligo County Council","nameSource":"junction"},"sourceId":"osm"},{"id":"osm:way:1352051154","latitude":54.267551839999996,"longitude":-8.469979299999999,"name":"Pearse Road near Burton Street","properties":{"access":"unknown","bicycle_pa":"","capacity":0,"covered":"yes","fee":"","operator":"","nameSource":"junction"},"sourceId":"osm"},{"id":"osm:way:1453371139","latitude":54.27899190000001,"longitude":-8.462181759999998,"name":"Sligo cycle parking","properties":{"access":"yes","bicycle_pa":"","capacity":40,"covered":"yes","fee":"","operator":"","nameSource":"place"},"sourceId":"osm"},{"id":"osm:way:1455209756","latitude":54.27771584,"longitude":-8.45817382,"name":"Manorhamilton Road cycle parking","properties":{"access":"unknown","bicycle_pa":"shed","capacity":0,"covered":"","fee":"","operator":"","nameSource":"street"},"sourceId":"osm"}],"schemaVersion":2}
