{"key":"12/1951/1354","points":[{"id":"osm:node:10236347110","latitude":51.8995259,"longitude":-8.4874984,"name":"Sunday's Well Road by Copy Room","properties":{"access":"unknown","bicycle_pa":"","capacity":0,"covered":"","fee":"","operator":"","nameSource":"landmark"},"sourceId":"osm"},{"id":"osm:node:10572261329","latitude":51.8941144,"longitude":-8.5168016,"name":"Carrigrohane Road near Curraheen Walk","properties":{"access":"yes","bicycle_pa":"stands","capacity":8,"covered":"no","fee":"no","operator":"Cork City Council","nameSource":"junction"},"sourceId":"osm"},{"id":"osm:node:10739764592","latitude":51.899799,"longitude":-8.4736782,"name":"Half Moon Street near Academy Street","properties":{"access":"unknown","bicycle_pa":"","capacity":8,"covered":"no","fee":"","operator":"","nameSource":"junction"},"sourceId":"osm"},{"id":"osm:node:10829668305","latitude":51.9001099,"longitude":-8.4629208,"name":"Michael Collins Bridge near Penrose Quay","properties":{"access":"unknown","bicycle_pa":"stands","capacity":4,"covered":"no","fee":"no","operator":"Cork City Council","nameSource":"junction"},"sourceId":"osm"},{"id":"osm:node:10829672466","latitude":51.9004941,"longitude":-8.4624723,"name":"Penrose Dock near Penrose Quay","properties":{"access":"private","bicycle_pa":"stands","capacity":10,"covered":"yes","fee":"no","operator":"","nameSource":"junction"},"sourceId":"osm"},{"id":"osm:node:10829793206","latitude":51.9014164,"longitude":-8.4679247,"name":"MacCurtain Street near Harleys Street","properties":{"access":"unknown","bicycle_pa":"stands","capacity":2,"covered":"no","fee":"no","operator":"","nameSource":"junction"},"sourceId":"osm"},{"id":"osm:node:10900151239","latitude":51.8948568,"longitude":-8.4697708,"name":"Buckingham Place by Eskimo Pizza (South)","properties":{"access":"yes","bicycle_pa":"stands","capacity":4,"covered":"no","fee":"no","operator":"Cork City Council","nameSource":"landmark"},"sourceId":"osm"},{"id":"osm:node:10990458795","latitude":51.8978688,"longitude":-8.4711461,"name":"Morgan Street near Oliver Plunkett Street","properties":{"access":"yes","bicycle_pa":"stands","capacity":4,"covered":"no","fee":"no","operator":"Cork City Council","nameSource":"junction"},"sourceId":"osm"},{"id":"osm:node:11356323641","latitude":51.901572,"longitude":-8.4703528,"name":"Coburg Street near Bridge Street","properties":{"access":"yes","bicycle_pa":"stands","capacity":4,"covered":"no","fee":"no","operator":"Cork City Council","nameSource":"junction"},"sourceId":"osm"},{"id":"osm:node:11420167570","latitude":51.9012848,"longitude":-8.4658629,"name":"MacCurtain Street near Brian Boru Street","properties":{"access":"yes","bicycle_pa":"stands","capacity":16,"covered":"no","fee":"no","operator":"","nameSource":"junction"},"sourceId":"osm"},{"id":"osm:node:11420212433","latitude":51.9015947,"longitude":-8.4689114,"name":"MacCurtain Street by Caspian Barber","properties":{"access":"yes","bicycle_pa":"stands","capacity":12,"covered":"no","fee":"no","operator":"","nameSource":"landmark"},"sourceId":"osm"},{"id":"osm:node:11881177023","latitude":51.9029246,"longitude":-8.4783977,"name":"Dominick Street near Shandon Street","properties":{"access":"unknown","bicycle_pa":"stands","capacity":6,"covered":"no","fee":"","operator":"","nameSource":"junction"},"sourceId":"osm"},{"id":"osm:node:11957821575","latitude":51.8974408,"longitude":-8.4822009,"name":"Woods Street near Woods Alley","properties":{"access":"residents","bicycle_pa":"","capacity":20,"covered":"no","fee":"","operator":"","nameSource":"junction"},"sourceId":"osm"},{"id":"osm:node:12117252181","latitude":51.8967202,"longitude":-8.4647009,"name":"Eglinton Street near Port Lane","properties":{"access":"unknown","bicycle_pa":"wall_loops","capacity":12,"covered":"yes","fee":"","operator":"","nameSource":"junction"},"sourceId":"osm"},{"id":"osm:node:12117252480","latitude":51.8963165,"longitude":-8.4683068,"name":"Union Quay near Union Quay Lane","properties":{"access":"unknown","bicycle_pa":"stands","capacity":16,"covered":"no","fee":"","operator":"","nameSource":"junction"},"sourceId":"osm"},{"id":"osm:node:12288315221","latitude":51.9196102,"longitude":-8.4540459,"name":"Ballyhooly New Road by Kempton (Meelick) Park","properties":{"access":"unknown","bicycle_pa":"anchors","capacity":0,"covered":"","fee":"","operator":"","nameSource":"landmark"},"sourceId":"osm"},{"id":"osm:node:12290135828","latitude":51.9191396,"longitude":-8.4594787,"name":"Chapelgate near Glenheights Road","properties":{"access":"unknown","bicycle_pa":"anchors","capacity":0,"covered":"","fee":"","operator":"","nameSource":"junction"},"sourceId":"osm"},{"id":"osm:node:12365097906","latitude":51.9227578,"longitude":-8.467813,"name":"Dublin Hill Upper by Wisetek","properties":{"access":"unknown","bicycle_pa":"","capacity":0,"covered":"","fee":"","operator":"","nameSource":"landmark"},"sourceId":"osm"},{"id":"osm:node:12616100237","latitude":51.9110302,"longitude":-8.4632787,"name":"Thomas Kent Park near Carnloch Drive","properties":{"access":"unknown","bicycle_pa":"","capacity":8,"covered":"","fee":"","operator":"","nameSource":"junction"},"sourceId":"osm"},{"id":"osm:node:12616100578","latitude":51.9114029,"longitude":-8.4636066,"name":"Carnloch Court near Arderin Way","properties":{"access":"unknown","bicycle_pa":"","capacity":0,"covered":"","fee":"","operator":"","nameSource":"junction"},"sourceId":"osm"},{"id":"osm:node:12645377357","latitude":51.8963374,"longitude":-8.4745604,"name":"Grand Parade near Rochford's Lane","properties":{"access":"yes","bicycle_pa":"stands","capacity":8,"covered":"no","fee":"no","operator":"","nameSource":"junction"},"sourceId":"osm"},{"id":"osm:node:12649459080","latitude":51.8984085,"longitude":-8.4741214,"name":"Saint Patrick's Street near Princes Street","properties":{"access":"unknown","bicycle_pa":"loops","capacity":8,"covered":"no","fee":"","operator":"","nameSource":"junction"},"sourceId":"osm"},{"id":"osm:node:12649459083","latitude":51.8991664,"longitude":-8.4711379,"name":"Maylor Street near Saint Patrick's Street","properties":{"access":"unknown","bicycle_pa":"stands","capacity":8,"covered":"no","fee":"","operator":"","nameSource":"junction"},"sourceId":"osm"},{"id":"osm:node:12649459095","latitude":51.8983184,"longitude":-8.468933,"name":"Oliver Plunkett Street near Smith Street","properties":{"access":"unknown","bicycle_pa":"stands","capacity":6,"covered":"no","fee":"","operator":"","nameSource":"junction"},"sourceId":"osm"},{"id":"osm:node:12649463150","latitude":51.8983374,"longitude":-8.4731265,"name":"Saint Patrick's Street near Marlboro Street","properties":{"access":"unknown","bicycle_pa":"stands","capacity":8,"covered":"no","fee":"","operator":"","nameSource":"junction"},"sourceId":"osm"},{"id":"osm:node:12649464335","latitude":51.8984042,"longitude":-8.4728133,"name":"Academy Street near Saint Patrick's Street","properties":{"access":"unknown","bicycle_pa":"stands","capacity":8,"covered":"no","fee":"","operator":"","nameSource":"junction"},"sourceId":"osm"},{"id":"osm:node:12649509262","latitude":51.8984621,"longitude":-8.4682202,"name":"Beasly Street near Oliver Plunkett Street","properties":{"access":"unknown","bicycle_pa":"","capacity":8,"covered":"","fee":"","operator":"","nameSource":"junction"},"sourceId":"osm"},{"id":"osm:node:12649534695","latitude":51.8973152,"longitude":-8.4738991,"name":"Grafton Street near Oliver Plunkett Street","properties":{"access":"unknown","bicycle_pa":"stands","capacity":8,"covered":"no","fee":"","operator":"","nameSource":"junction"},"sourceId":"osm"},{"id":"osm:node:12668189506","latitude":51.8929745,"longitude":-8.492881,"name":"Path With Ramp by UCC Radio","properties":{"access":"unknown","bicycle_pa":"stands","capacity":20,"covered":"no","fee":"","operator":"","nameSource":"landmark"},"sourceId":"osm"},{"id":"osm:node:12688276325","latitude":51.8994613,"longitude":-8.4662218,"name":"Clontarf Street near Deane Street","properties":{"access":"yes","bicycle_pa":"stands","capacity":12,"covered":"no","fee":"","operator":"Cork City Council","nameSource":"junction"},"sourceId":"osm"},{"id":"osm:node:12693586973","latitude":51.8984207,"longitude":-8.4670988,"name":"Parnell Place near Oliver Plunkett Street","properties":{"access":"yes","bicycle_pa":"stands","capacity":4,"covered":"no","fee":"","operator":"Cork City Council","nameSource":"junction"},"sourceId":"osm"},{"id":"osm:node:12693591611","latitude":51.8979565,"longitude":-8.4668678,"name":"Parnell Place near Lapp's Quay","properties":{"access":"yes","bicycle_pa":"stands","capacity":4,"covered":"no","fee":"","operator":"Cork City Council","nameSource":"junction"},"sourceId":"osm"},{"id":"osm:node:12723275175","latitude":51.8982978,"longitude":-8.4754043,"name":"Daunt's Square near Grand Parade","properties":{"access":"unknown","bicycle_pa":"stands","capacity":8,"covered":"no","fee":"no","operator":"","nameSource":"junction"},"sourceId":"osm"},{"id":"osm:node:12736694784","latitude":51.8986007,"longitude":-8.4716479,"name":"Robert Street near Bowling Green Street","properties":{"access":"yes","bicycle_pa":"stands","capacity":8,"covered":"no","fee":"no","operator":"","nameSource":"junction"},"sourceId":"osm"},{"id":"osm:node:12741515831","latitude":51.8994026,"longitude":-8.4677379,"name":"Merchant Street near Parnell Place","properties":{"access":"unknown","bicycle_pa":"wall_loops","capacity":10,"covered":"no","fee":"","operator":"","nameSource":"junction"},"sourceId":"osm"},{"id":"osm:node:12829456732","latitude":51.8990531,"longitude":-8.479984,"name":"Grattan Street near Peter's Street","properties":{"access":"unknown","bicycle_pa":"loops","capacity":14,"covered":"no","fee":"","operator":"","nameSource":"junction"},"sourceId":"osm"},{"id":"osm:node:12853337859","latitude":51.9101007,"longitude":-8.4715768,"name":"Assumption Road near L99521","properties":{"access":"private","bicycle_pa":"","capacity":0,"covered":"","fee":"","operator":"","nameSource":"junction"},"sourceId":"osm"},{"id":"osm:node:12853337860","latitude":51.9101007,"longitude":-8.4715044,"name":"Assumption Road near L99521","properties":{"access":"private","bicycle_pa":"","capacity":0,"covered":"","fee":"","operator":"","nameSource":"junction"},"sourceId":"osm"},{"id":"osm:node:13059022850","latitude":51.8984905,"longitude":-8.474472,"name":"Saint Patrick's Street near Saint Peter and Paul Place","properties":{"access":"unknown","bicycle_pa":"stands","capacity":2,"covered":"no","fee":"","operator":"","nameSource":"junction"},"sourceId":"osm"},{"id":"osm:node:13059022851","latitude":51.8984534,"longitude":-8.474312,"name":"Saint Patrick's Street near Saint Peter and Paul Place","properties":{"access":"unknown","bicycle_pa":"stands","capacity":2,"covered":"no","fee":"","operator":"","nameSource":"junction"},"sourceId":"osm"},{"id":"osm:node:13059022852","latitude":51.8984254,"longitude":-8.4741867,"name":"Saint Patrick's Street near Princes Street","properties":{"access":"unknown","bicycle_pa":"stands","capacity":2,"covered":"no","fee":"","operator":"","nameSource":"junction"},"sourceId":"osm"},{"id":"osm:node:13059022853","latitude":51.898387,"longitude":-8.4739914,"name":"Saint Patrick's Street near Princes Street","properties":{"access":"unknown","bicycle_pa":"stands","capacity":8,"covered":"no","fee":"","operator":"","nameSource":"junction"},"sourceId":"osm"},{"id":"osm:node:13059022854","latitude":51.8983434,"longitude":-8.4738229,"name":"Saint Patrick's Street near Princes Street","properties":{"access":"unknown","bicycle_pa":"stands","capacity":2,"covered":"no","fee":"","operator":"","nameSource":"junction"},"sourceId":"osm"},{"id":"osm:node:13158131944","latitude":51.8944626,"longitude":-8.4809865,"name":"Bishop Street near Sharman Crawford Street","properties":{"access":"unknown","bicycle_pa":"stands","capacity":6,"covered":"","fee":"","operator":"","nameSource":"junction"},"sourceId":"osm"},{"id":"osm:node:13229733264","latitude":51.8999539,"longitude":-8.4808589,"name":"Henry Street near Adelaide Street","properties":{"access":"unknown","bicycle_pa":"hoop","capacity":6,"covered":"","fee":"","operator":"","nameSource":"junction"},"sourceId":"osm"},{"id":"osm:node:1325673424","latitude":51.8926725,"longitude":-8.4942734,"name":"Gaol Walk by ELEMENTS Café","properties":{"access":"unknown","bicycle_pa":"stands","capacity":8,"covered":"no","fee":"","operator":"","nameSource":"landmark"},"sourceId":"osm"},{"id":"osm:node:13461430833","latitude":51.8946931,"longitude":-8.4792395,"name":"Bennetts Hill near Dean Street","properties":{"access":"unknown","bicycle_pa":"stands","capacity":3,"covered":"no","fee":"","operator":"","nameSource":"junction"},"sourceId":"osm"},{"id":"osm:node:13694736283","latitude":51.8920308,"longitude":-8.4960966,"name":"College Road cycle parking","properties":{"access":"yes","bicycle_pa":"shed","capacity":9,"covered":"","fee":"no","operator":"","nameSource":"street"},"sourceId":"osm"},{"id":"osm:node:13695737439","latitude":51.8930648,"longitude":-8.4962848,"name":"Castlewhite by UCC Biosciences","properties":{"access":"unknown","bicycle_pa":"stands","capacity":8,"covered":"no","fee":"","operator":"","nameSource":"landmark"},"sourceId":"osm"},{"id":"osm:node:13807491035","latitude":51.8947442,"longitude":-8.4692051,"name":"South Terrace near George's Quay","properties":{"access":"unknown","bicycle_pa":"loops","capacity":8,"covered":"","fee":"","operator":"","nameSource":"junction"},"sourceId":"osm"},{"id":"osm:node:13892123952","latitude":51.8932047,"longitude":-8.5018328,"name":"R846 near N22","properties":{"access":"unknown","bicycle_pa":"stands","capacity":44,"covered":"no","fee":"","operator":"","nameSource":"junction"},"sourceId":"osm"},{"id":"osm:node:13892123953","latitude":51.8928714,"longitude":-8.5013197,"name":"N22 near Western Road","properties":{"access":"unknown","bicycle_pa":"stands","capacity":48,"covered":"no","fee":"","operator":"","nameSource":"junction"},"sourceId":"osm"},{"id":"osm:node:13892139817","latitude":51.8922843,"longitude":-8.4958678,"name":"College Road cycle parking","properties":{"access":"unknown","bicycle_pa":"stands","capacity":6,"covered":"no","fee":"","operator":"","nameSource":"street"},"sourceId":"osm"},{"id":"osm:node:13892142335","latitude":51.8931739,"longitude":-8.5018196,"name":"R846 near N22","properties":{"access":"unknown","bicycle_pa":"stands","capacity":34,"covered":"no","fee":"","operator":"","nameSource":"junction"},"sourceId":"osm"},{"id":"osm:node:13892264542","latitude":51.8968616,"longitude":-8.4762248,"name":"Tuckey Street near South Main Street","properties":{"access":"unknown","bicycle_pa":"stands","capacity":8,"covered":"no","fee":"","operator":"","nameSource":"junction"},"sourceId":"osm"},{"id":"osm:node:13892306413","latitude":51.8968578,"longitude":-8.476398,"name":"Tuckey Street near South Main Street","properties":{"access":"unknown","bicycle_pa":"stands","capacity":6,"covered":"no","fee":"","operator":"","nameSource":"junction"},"sourceId":"osm"},{"id":"osm:node:13892308602","latitude":51.8959434,"longitude":-8.4862834,"name":"Western Road by Amnis House","properties":{"access":"unknown","bicycle_pa":"stands","capacity":10,"covered":"no","fee":"","operator":"","nameSource":"landmark"},"sourceId":"osm"},{"id":"osm:node:13893179832","latitude":51.8926872,"longitude":-8.4934371,"name":"Path With Ramp by UCC Radio","properties":{"access":"unknown","bicycle_pa":"stands","capacity":32,"covered":"yes","fee":"","operator":"","nameSource":"landmark"},"sourceId":"osm"},{"id":"osm:node:1428858883","latitude":51.8983289,"longitude":-8.473653,"name":"Princes Street near Saint Patrick's Street","properties":{"access":"unknown","bicycle_pa":"stands","capacity":0,"covered":"no","fee":"","operator":"","nameSource":"junction"},"sourceId":"osm"},{"id":"osm:node:1516195488","latitude":51.8923456,"longitude":-8.4922682,"name":"College Road by Staff Restaurant","properties":{"access":"unknown","bicycle_pa":"wall_loops","capacity":61,"covered":"no","fee":"","operator":"","nameSource":"landmark"},"sourceId":"osm"},{"id":"osm:node:1516195492","latitude":51.8928604,"longitude":-8.4907608,"name":"College Road by Rainbow Pride Walkway","properties":{"access":"unknown","bicycle_pa":"stands","capacity":20,"covered":"no","fee":"","operator":"","nameSource":"landmark"},"sourceId":"osm"},{"id":"osm:node:1516195498","latitude":51.8936632,"longitude":-8.4898944,"name":"Donovans Road near Connaught Avenue","properties":{"access":"unknown","bicycle_pa":"","capacity":0,"covered":"no","fee":"","operator":"","nameSource":"junction"},"sourceId":"osm"},{"id":"osm:node:1516195507","latitude":51.8925327,"longitude":-8.4933168,"name":"College Road near Westbourne Park","properties":{"access":"unknown","bicycle_pa":"stands","capacity":10,"covered":"yes","fee":"","operator":"","nameSource":"junction"},"sourceId":"osm"},{"id":"osm:node:1516195511","latitude":51.8921511,"longitude":-8.4930058,"name":"College Road near Westbourne Park","properties":{"access":"unknown","bicycle_pa":"","capacity":0,"covered":"","fee":"","operator":"","nameSource":"junction"},"sourceId":"osm"},{"id":"osm:node:1516195514","latitude":51.8931318,"longitude":-8.4907447,"name":"Rainbow Pride Walkway cycle parking","properties":{"access":"unknown","bicycle_pa":"stands","capacity":24,"covered":"no","fee":"","operator":"","nameSource":"landmark"},"sourceId":"osm"},{"id":"osm:node:1778182309","latitude":51.8994987,"longitude":-8.4707441,"name":"Saint Patrick's Street near Drawbridge Street","properties":{"access":"yes","bicycle_pa":"stands","capacity":8,"covered":"no","fee":"","operator":"","nameSource":"junction"},"sourceId":"osm"},{"id":"osm:node:1778182312","latitude":51.8994603,"longitude":-8.4745696,"name":"Rory Gallagher Place near Carey's Lane","properties":{"access":"unknown","bicycle_pa":"stands","capacity":5,"covered":"no","fee":"","operator":"","nameSource":"junction"},"sourceId":"osm"},{"id":"osm:node:1844980591","latitude":51.8981282,"longitude":-8.4792007,"name":"Liberty Street near Courthouse Street","properties":{"access":"unknown","bicycle_pa":"stands","capacity":12,"covered":"no","fee":"","operator":"","nameSource":"junction"},"sourceId":"osm"},{"id":"osm:node:1844980597","latitude":51.8981143,"longitude":-8.4796336,"name":"Sheares Street near Courthouse Street","properties":{"access":"unknown","bicycle_pa":"stands","capacity":6,"covered":"no","fee":"","operator":"","nameSource":"junction"},"sourceId":"osm"},{"id":"osm:node:2335033707","latitude":51.8979403,"longitude":-8.4752419,"name":"Grand Parade near Washington Street","properties":{"access":"unknown","bicycle_pa":"stands","capacity":16,"covered":"no","fee":"","operator":"","nameSource":"junction"},"sourceId":"osm"},{"id":"osm:node:2335033708","latitude":51.898922,"longitude":-8.4763154,"name":"Corn Market Street near Castle Street","properties":{"access":"unknown","bicycle_pa":"stands","capacity":16,"covered":"no","fee":"","operator":"","nameSource":"junction"},"sourceId":"osm"},{"id":"osm:node:2350716080","latitude":51.8933796,"longitude":-8.4911334,"name":"President's Garden cycle parking","properties":{"access":"unknown","bicycle_pa":"stands","capacity":10,"covered":"no","fee":"","operator":"","nameSource":"landmark"},"sourceId":"osm"},{"id":"osm:node:2350716111","latitude":51.8941774,"longitude":-8.4895938,"name":"Donovans Road by New Bar","properties":{"access":"unknown","bicycle_pa":"wall_loops","capacity":0,"covered":"no","fee":"","operator":"","nameSource":"landmark"},"sourceId":"osm"},{"id":"osm:node:4853416601","latitude":51.8953888,"longitude":-8.4977977,"name":"Ferry Walk near Mardyke Walk","properties":{"access":"unknown","bicycle_pa":"stands_child","capacity":8,"covered":"no","fee":"","operator":"","nameSource":"junction"},"sourceId":"osm"},{"id":"osm:node:4853417666","latitude":51.8954064,"longitude":-8.4979004,"name":"Ferry Walk near Mardyke Walk","properties":{"access":"unknown","bicycle_pa":"stands","capacity":8,"covered":"no","fee":"","operator":"","nameSource":"junction"},"sourceId":"osm"},{"id":"osm:node:4853481688","latitude":51.8958305,"longitude":-8.498028,"name":"Ferry Walk cycle parking","properties":{"access":"unknown","bicycle_pa":"stands","capacity":8,"covered":"","fee":"","operator":"","nameSource":"street"},"sourceId":"osm"},{"id":"osm:node:4964606376","latitude":51.8969063,"longitude":-8.4749255,"name":"Tuckey Street near Grand Parade","properties":{"access":"unknown","bicycle_pa":"loops","capacity":14,"covered":"no","fee":"","operator":"","nameSource":"junction"},"sourceId":"osm"},{"id":"osm:node:4964612712","latitude":51.8973539,"longitude":-8.4751669,"name":"Grand Parade near Christ Church Lane","properties":{"access":"unknown","bicycle_pa":"loops","capacity":8,"covered":"no","fee":"","operator":"","nameSource":"junction"},"sourceId":"osm"},{"id":"osm:node:4964617698","latitude":51.8961768,"longitude":-8.4741354,"name":"South Mall near Grand Parade","properties":{"access":"unknown","bicycle_pa":"stands","capacity":8,"covered":"no","fee":"no","operator":"","nameSource":"junction"},"sourceId":"osm"},{"id":"osm:node:4964627839","latitude":51.8963731,"longitude":-8.4722746,"name":"Parliament Street near South Mall","properties":{"access":"unknown","bicycle_pa":"stands","capacity":12,"covered":"no","fee":"","operator":"","nameSource":"junction"},"sourceId":"osm"},{"id":"osm:node:4964680578","latitude":51.8977745,"longitude":-8.4673331,"name":"South Mall near R848","properties":{"access":"unknown","bicycle_pa":"stands","capacity":8,"covered":"no","fee":"","operator":"","nameSource":"junction"},"sourceId":"osm"},{"id":"osm:node:4992479221","latitude":51.8995662,"longitude":-8.470906,"name":"Saint Patrick's Street near Drawbridge Street","properties":{"access":"unknown","bicycle_pa":"stands","capacity":16,"covered":"no","fee":"","operator":"","nameSource":"junction"},"sourceId":"osm"},{"id":"osm:node:5030269400","latitude":51.8987312,"longitude":-8.463902,"name":"Lapp's Quay near Custom House Quay South","properties":{"access":"yes","bicycle_pa":"stands","capacity":12,"covered":"no","fee":"","operator":"Cork City Council","nameSource":"junction"},"sourceId":"osm"},{"id":"osm:node:5037617288","latitude":51.901932,"longitude":-8.4593177,"name":"Lower Glanmire Road cycle parking","properties":{"access":"permissive","bicycle_pa":"stands","capacity":48,"covered":"yes","fee":"","operator":"Irish Rail","nameSource":"street"},"sourceId":"osm"},{"id":"osm:node:5075119957","latitude":51.9163809,"longitude":-8.4715453,"name":"Bros. Delaney Road by Boots","properties":{"access":"yes","bicycle_pa":"stands","capacity":20,"covered":"yes","fee":"no","operator":"","nameSource":"landmark"},"sourceId":"osm"},{"id":"osm:node:5082694911","latitude":51.8963998,"longitude":-8.4895858,"name":"Mardyke Walk cycle parking","properties":{"access":"unknown","bicycle_pa":"stands","capacity":8,"covered":"no","fee":"","operator":"","nameSource":"street"},"sourceId":"osm"},{"id":"osm:node:5082696770","latitude":51.9016041,"longitude":-8.4794048,"name":"Farren's Quay near Griffith Bridge","properties":{"access":"unknown","bicycle_pa":"stands","capacity":8,"covered":"no","fee":"","operator":"","nameSource":"junction"},"sourceId":"osm"},{"id":"osm:node:5108526099","latitude":51.8969849,"longitude":-8.4823646,"name":"Lancaster Quay near Woods Street","properties":{"access":"unknown","bicycle_pa":"stands","capacity":8,"covered":"no","fee":"no","operator":"","nameSource":"junction"},"sourceId":"osm"},{"id":"osm:node:5136100406","latitude":51.8936017,"longitude":-8.4996061,"name":"Western Road cycle parking","properties":{"access":"unknown","bicycle_pa":"stands","capacity":56,"covered":"no","fee":"","operator":"","nameSource":"street"},"sourceId":"osm"},{"id":"osm:node:5256281913","latitude":51.9010728,"longitude":-8.4587074,"name":"Alfred Street by Kent East","properties":{"access":"permissive","bicycle_pa":"stands","capacity":40,"covered":"yes","fee":"no","operator":"Irish Rail","nameSource":"landmark"},"sourceId":"osm"},{"id":"osm:node:5326174951","latitude":51.9011763,"longitude":-8.4588022,"name":"Alfred Street by Kent East","properties":{"access":"permissive","bicycle_pa":"stands","capacity":20,"covered":"no","fee":"","operator":"Irish Rail","nameSource":"landmark"},"sourceId":"osm"},{"id":"osm:node:5326366155","latitude":51.9018574,"longitude":-8.4591418,"name":"Lower Glanmire Road by Photo-Me","properties":{"access":"permissive","bicycle_pa":"stands","capacity":14,"covered":"yes","fee":"","operator":"Irish Rail","nameSource":"landmark"},"sourceId":"osm"},{"id":"osm:node:5326366158","latitude":51.9016903,"longitude":-8.4585303,"name":"Lower Glanmire Road by Photo-Me","properties":{"access":"permissive","bicycle_pa":"stands","capacity":30,"covered":"yes","fee":"","operator":"Irish Rail","nameSource":"landmark"},"sourceId":"osm"},{"id":"osm:node:5329936777","latitude":51.8997164,"longitude":-8.46709,"name":"Parnell Place near Merchant's Quay","properties":{"access":"yes","bicycle_pa":"stands","capacity":10,"covered":"no","fee":"","operator":"Cork City Council","nameSource":"junction"},"sourceId":"osm"},{"id":"osm:node:5330013446","latitude":51.8986748,"longitude":-8.4641911,"name":"Lapp's Quay near Anderson's Street","properties":{"access":"yes","bicycle_pa":"stands","capacity":12,"covered":"no","fee":"","operator":"Cork City Council","nameSource":"junction"},"sourceId":"osm"},{"id":"osm:node:5330013450","latitude":51.8987146,"longitude":-8.4646908,"name":"Anderson's Street near Lapp's Quay","properties":{"access":"yes","bicycle_pa":"stands","capacity":6,"covered":"no","fee":"","operator":"Cork City Council","nameSource":"junction"},"sourceId":"osm"},{"id":"osm:node:5330013457","latitude":51.898477,"longitude":-8.4648,"name":"Lapp's Quay near Anderson's Street","properties":{"access":"yes","bicycle_pa":"stands","capacity":16,"covered":"no","fee":"","operator":"Cork City Council","nameSource":"junction"},"sourceId":"osm"},{"id":"osm:node:5662144762","latitude":51.8947933,"longitude":-8.4765003,"name":"Barrack Street near Evergreen Street","properties":{"access":"unknown","bicycle_pa":"stands","capacity":4,"covered":"no","fee":"","operator":"","nameSource":"junction"},"sourceId":"osm"},{"id":"osm:node:5667633131","latitude":51.9004099,"longitude":-8.4766138,"name":"Corn Market Street near Kyrl's Street","properties":{"access":"unknown","bicycle_pa":"stands","capacity":4,"covered":"no","fee":"no","operator":"","nameSource":"junction"},"sourceId":"osm"},{"id":"osm:node:5667633132","latitude":51.9004794,"longitude":-8.4766233,"name":"Corn Market Street near Kyrl's Street","properties":{"access":"unknown","bicycle_pa":"stands","capacity":4,"covered":"no","fee":"no","operator":"","nameSource":"junction"},"sourceId":"osm"},{"id":"osm:node:5667633133","latitude":51.9004617,"longitude":-8.4765759,"name":"Corn Market Street near Kyrl's Street","properties":{"access":"unknown","bicycle_pa":"stands","capacity":4,"covered":"no","fee":"no","operator":"","nameSource":"junction"},"sourceId":"osm"},{"id":"osm:node:5667633134","latitude":51.9004274,"longitude":-8.476665,"name":"Corn Market Street near Kyrl's Street","properties":{"access":"unknown","bicycle_pa":"stands","capacity":4,"covered":"no","fee":"no","operator":"","nameSource":"junction"},"sourceId":"osm"},{"id":"osm:node:5667633135","latitude":51.9004644,"longitude":-8.4767372,"name":"Corn Market Street near Kyrl's Street","properties":{"access":"unknown","bicycle_pa":"stands","capacity":8,"covered":"no","fee":"no","operator":"","nameSource":"junction"},"sourceId":"osm"},{"id":"osm:node:5692348729","latitude":51.8974398,"longitude":-8.4679299,"name":"Morrison's Quay near South Mall","properties":{"access":"unknown","bicycle_pa":"stands","capacity":8,"covered":"no","fee":"no","operator":"","nameSource":"junction"},"sourceId":"osm"},{"id":"osm:node:5812677555","latitude":51.8983502,"longitude":-8.4814366,"name":"Sheares Street near Moore Street","properties":{"access":"unknown","bicycle_pa":"stands","capacity":6,"covered":"no","fee":"","operator":"","nameSource":"junction"},"sourceId":"osm"},{"id":"osm:node:5812678457","latitude":51.898295,"longitude":-8.480631,"name":"Anne Street near Sheares Street","properties":{"access":"unknown","bicycle_pa":"stands","capacity":10,"covered":"no","fee":"","operator":"","nameSource":"junction"},"sourceId":"osm"},{"id":"osm:node:6042358113","latitude":51.8952847,"longitude":-8.4655385,"name":"Anglesea Place near Anglesea Street","properties":{"access":"yes","bicycle_pa":"stands","capacity":8,"covered":"yes","fee":"no","operator":"","nameSource":"junction"},"sourceId":"osm"},{"id":"osm:node:6068980711","latitude":51.9171278,"longitude":-8.4731199,"name":"Blackpool Retail Park by Blackpool Retail Park","properties":{"access":"permissive","bicycle_pa":"stands","capacity":20,"covered":"no","fee":"no","operator":"","nameSource":"landmark"},"sourceId":"osm"},{"id":"osm:node:6848207017","latitude":51.8994985,"longitude":-8.4733687,"name":"Emmett Place near Academy Street","properties":{"access":"yes","bicycle_pa":"loops","capacity":8,"covered":"no","fee":"no","operator":"","nameSource":"junction"},"sourceId":"osm"},{"id":"osm:node:6949029883","latitude":51.9118758,"longitude":-8.4503186,"name":"Ballyhooly Road near Gordon's Hill","properties":{"access":"yes","bicycle_pa":"stands","capacity":8,"covered":"no","fee":"no","operator":"","nameSource":"junction"},"sourceId":"osm"},{"id":"osm:node:6949029884","latitude":51.9098117,"longitude":-8.4545986,"name":"Glen Avenue near Ballyhooly Road","properties":{"access":"unknown","bicycle_pa":"stands","capacity":6,"covered":"no","fee":"no","operator":"","nameSource":"junction"},"sourceId":"osm"},{"id":"osm:node:7002673210","latitude":51.9117676,"longitude":-8.4900142,"name":"Mount Agnes Road cycle parking","properties":{"access":"customers","bicycle_pa":"stands","capacity":8,"covered":"no","fee":"no","operator":"Lidl Ireland GmbH","nameSource":"street"},"sourceId":"osm"},{"id":"osm:node:7059796826","latitude":51.9076551,"longitude":-8.4732663,"name":"Granary Court near Seana Mhuileann Apartments","properties":{"access":"unknown","bicycle_pa":"stands","capacity":6,"covered":"no","fee":"","operator":"","nameSource":"junction"},"sourceId":"osm"},{"id":"osm:node:7059796827","latitude":51.9073713,"longitude":-8.4732401,"name":"Granary Court near Pope's Road","properties":{"access":"unknown","bicycle_pa":"stands","capacity":10,"covered":"no","fee":"","operator":"","nameSource":"junction"},"sourceId":"osm"},{"id":"osm:node:7133125821","latitude":51.8998129,"longitude":-8.4728263,"name":"Emmett Place near Drawbridge Street","properties":{"access":"yes","bicycle_pa":"loops","capacity":8,"covered":"no","fee":"no","operator":"","nameSource":"junction"},"sourceId":"osm"},{"id":"osm:node:7133125823","latitude":51.9003005,"longitude":-8.4724322,"name":"Emmett Place near Lavitt's Quay","properties":{"access":"yes","bicycle_pa":"loops","capacity":14,"covered":"no","fee":"no","operator":"","nameSource":"junction"},"sourceId":"osm"},{"id":"osm:node:7157159372","latitude":51.8997391,"longitude":-8.478503,"name":"Kyle Street near North Main Street","properties":{"access":"yes","bicycle_pa":"stands","capacity":8,"covered":"no","fee":"no","operator":"","nameSource":"junction"},"sourceId":"osm"},{"id":"osm:node:7158313601","latitude":51.896034,"longitude":-8.4740774,"name":"South Mall near Grand Parade","properties":{"access":"yes","bicycle_pa":"loops","capacity":8,"covered":"no","fee":"no","operator":"","nameSource":"junction"},"sourceId":"osm"},{"id":"osm:node:7159294307","latitude":51.8954835,"longitude":-8.4757746,"name":"Sullivan's Quay near French's Quay","properties":{"access":"yes","bicycle_pa":"stands","capacity":8,"covered":"no","fee":"no","operator":"","nameSource":"junction"},"sourceId":"osm"},{"id":"osm:node:7214606383","latitude":51.8982803,"longitude":-8.4721601,"name":"Cook Street near Saint Patrick's Street","properties":{"access":"yes","bicycle_pa":"stands","capacity":8,"covered":"no","fee":"no","operator":"Cork City Council","nameSource":"junction"},"sourceId":"osm"},{"id":"osm:node:7280664697","latitude":51.8989541,"longitude":-8.4828808,"name":"Henry Street near Grenville Place","properties":{"access":"unknown","bicycle_pa":"stands","capacity":8,"covered":"no","fee":"no","operator":"","nameSource":"junction"},"sourceId":"osm"},{"id":"osm:node:7296951381","latitude":51.8957131,"longitude":-8.493514,"name":"Mardyke Walk by Fitzgerald Park","properties":{"access":"yes","bicycle_pa":"stands","capacity":8,"covered":"no","fee":"no","operator":"","nameSource":"landmark"},"sourceId":"osm"},{"id":"osm:node:7342791536","latitude":51.9171588,"longitude":-8.4473208,"name":"Ashgrove View near Ballyhooly New Road","properties":{"access":"yes","bicycle_pa":"stands","capacity":6,"covered":"no","fee":"no","operator":"","nameSource":"junction"},"sourceId":"osm"},{"id":"osm:node:7396963287","latitude":51.8956903,"longitude":-8.4892034,"name":"Western Road near Donovans Road","properties":{"access":"yes","bicycle_pa":"stands","capacity":16,"covered":"yes","fee":"no","operator":"Cork City Council","nameSource":"junction"},"sourceId":"osm"},{"id":"osm:node:7768140263","latitude":51.8970018,"longitude":-8.4638343,"name":"Port Lane near Eglinton Street","properties":{"access":"unknown","bicycle_pa":"building","capacity":0,"covered":"","fee":"","operator":"","nameSource":"junction"},"sourceId":"osm"},{"id":"osm:node:7904120005","latitude":51.8929483,"longitude":-8.5020216,"name":"N22 near R846","properties":{"access":"permit","bicycle_pa":"lockers","capacity":0,"covered":"yes","fee":"no","operator":"University College Cork","nameSource":"junction"},"sourceId":"osm"},{"id":"osm:node:7976351186","latitude":51.8990804,"longitude":-8.4755268,"name":"Church Court by Darcy's Hairdressing","properties":{"access":"unknown","bicycle_pa":"","capacity":7,"covered":"no","fee":"no","operator":"","nameSource":"landmark"},"sourceId":"osm"},{"id":"osm:node:8023071255","latitude":51.8953086,"longitude":-8.4693058,"name":"Morrison's Quay near Trinity Bridge","properties":{"access":"yes","bicycle_pa":"stands","capacity":6,"covered":"no","fee":"no","operator":"Cork City Council","nameSource":"junction"},"sourceId":"osm"},{"id":"osm:node:8038347385","latitude":51.9000012,"longitude":-8.4704316,"name":"Saint Patrick's Street near Drawbridge Street","properties":{"access":"yes","bicycle_pa":"stands","capacity":8,"covered":"no","fee":"no","operator":"","nameSource":"junction"},"sourceId":"osm"},{"id":"osm:node:8038347489","latitude":51.898638,"longitude":-8.4720656,"name":"Opera Lane by EBS","properties":{"access":"unknown","bicycle_pa":"stands","capacity":8,"covered":"no","fee":"","operator":"","nameSource":"landmark"},"sourceId":"osm"},{"id":"osm:node:8038347491","latitude":51.899938,"longitude":-8.4707811,"name":"Saint Patrick's Street near Drawbridge Street","properties":{"access":"yes","bicycle_pa":"stands","capacity":12,"covered":"no","fee":"no","operator":"","nameSource":"junction"},"sourceId":"osm"},{"id":"osm:node:8038347687","latitude":51.8986277,"longitude":-8.4720987,"name":"Opera Lane by EBS","properties":{"access":"yes","bicycle_pa":"stands","capacity":8,"covered":"no","fee":"no","operator":"","nameSource":"landmark"},"sourceId":"osm"},{"id":"osm:node:8038347788","latitude":51.8986944,"longitude":-8.4757074,"name":"Daunt's Square near Paul Street","properties":{"access":"yes","bicycle_pa":"stands","capacity":6,"covered":"no","fee":"","operator":"","nameSource":"junction"},"sourceId":"osm"},{"id":"osm:node:8038347885","latitude":51.8980878,"longitude":-8.4728389,"name":"Marlboro Street near Saint Patrick's Street","properties":{"access":"yes","bicycle_pa":"stands","capacity":8,"covered":"no","fee":"no","operator":"","nameSource":"junction"},"sourceId":"osm"},{"id":"osm:node:8038347893","latitude":51.8983515,"longitude":-8.4732429,"name":"Saint Patrick's Street near Marlboro Street","properties":{"access":"yes","bicycle_pa":"stands","capacity":6,"covered":"no","fee":"no","operator":"","nameSource":"junction"},"sourceId":"osm"},{"id":"osm:node:8038348087","latitude":51.8982333,"longitude":-8.4738293,"name":"Saint Patrick's Street near Princes Street","properties":{"access":"yes","bicycle_pa":"stands","capacity":8,"covered":"no","fee":"no","operator":"","nameSource":"junction"},"sourceId":"osm"},{"id":"osm:node:8063849285","latitude":51.9106396,"longitude":-8.4743723,"name":"Great William O'Brien Street near L5280","properties":{"access":"yes","bicycle_pa":"stands","capacity":8,"covered":"no","fee":"no","operator":"","nameSource":"junction"},"sourceId":"osm"},{"id":"osm:node:8063849385","latitude":51.9113441,"longitude":-8.473741,"name":"Blackpool Bridge near Commons Road","properties":{"access":"yes","bicycle_pa":"","capacity":8,"covered":"no","fee":"no","operator":"","nameSource":"junction"},"sourceId":"osm"},{"id":"osm:node:8104048817","latitude":51.9002605,"longitude":-8.4606406,"name":"Waterfront Square cycle parking","properties":{"access":"yes","bicycle_pa":"stands","capacity":8,"covered":"no","fee":"no","operator":"","nameSource":"street"},"sourceId":"osm"},{"id":"osm:node:8104048917","latitude":51.9006719,"longitude":-8.4604474,"name":"Waterfront Square cycle parking","properties":{"access":"unknown","bicycle_pa":"","capacity":0,"covered":"","fee":"","operator":"","nameSource":"street"},"sourceId":"osm"},{"id":"osm:node:8109767953","latitude":51.900454,"longitude":-8.4792034,"name":"Skiddy Plaza by Money Advice and Budgeting Service (MABS)","properties":{"access":"yes","bicycle_pa":"stands","capacity":8,"covered":"no","fee":"no","operator":"Cork City Council","nameSource":"landmark"},"sourceId":"osm"},{"id":"osm:node:8121266117","latitude":51.8942945,"longitude":-8.4772775,"name":"Barrack Street near Fort Street","properties":{"access":"yes","bicycle_pa":"stands","capacity":4,"covered":"no","fee":"no","operator":"","nameSource":"junction"},"sourceId":"osm"},{"id":"osm:node:8138656617","latitude":51.8971483,"longitude":-8.4667337,"name":"Union Quay near Anglesea Street","properties":{"access":"unknown","bicycle_pa":"","capacity":8,"covered":"no","fee":"no","operator":"","nameSource":"junction"},"sourceId":"osm"},{"id":"osm:node:8138839617","latitude":51.9000429,"longitude":-8.4674038,"name":"Merchant's Quay near Parnell Place","properties":{"access":"unknown","bicycle_pa":"stands","capacity":8,"covered":"no","fee":"no","operator":"","nameSource":"junction"},"sourceId":"osm"},{"id":"osm:node:8138839618","latitude":51.9014478,"longitude":-8.4681575,"name":"MacCurtain Street near Harleys Street","properties":{"access":"unknown","bicycle_pa":"","capacity":2,"covered":"no","fee":"no","operator":"","nameSource":"junction"},"sourceId":"osm"},{"id":"osm:node:8140415917","latitude":51.8965126,"longitude":-8.4726405,"name":"Parliament Street near South Mall","properties":{"access":"unknown","bicycle_pa":"stands","capacity":6,"covered":"no","fee":"","operator":"","nameSource":"junction"},"sourceId":"osm"},{"id":"osm:node:8140416017","latitude":51.8976245,"longitude":-8.4725886,"name":"Marlboro Street near Oliver Plunkett Street","properties":{"access":"unknown","bicycle_pa":"stands","capacity":8,"covered":"no","fee":"","operator":"","nameSource":"junction"},"sourceId":"osm"},{"id":"osm:node:8247480217","latitude":51.8976947,"longitude":-8.4644944,"name":"Albert Quay near Clontarf Bridge","properties":{"access":"unknown","bicycle_pa":"stands","capacity":8,"covered":"no","fee":"no","operator":"","nameSource":"junction"},"sourceId":"osm"},{"id":"osm:node:8340667917","latitude":51.904589,"longitude":-8.4773073,"name":"Shandon Street near Cathedral Road","properties":{"access":"unknown","bicycle_pa":"stands","capacity":8,"covered":"no","fee":"no","operator":"","nameSource":"junction"},"sourceId":"osm"},{"id":"osm:node:8365106517","latitude":51.9113317,"longitude":-8.4382032,"name":"L10301 near Colmcille Avenue","properties":{"access":"unknown","bicycle_pa":"","capacity":4,"covered":"no","fee":"no","operator":"","nameSource":"junction"},"sourceId":"osm"},{"id":"osm:node:8440844418","latitude":51.9147635,"longitude":-8.485235,"name":"Fairfield Avenue near Knockpogue Avenue","properties":{"access":"yes","bicycle_pa":"","capacity":8,"covered":"no","fee":"","operator":"","nameSource":"junction"},"sourceId":"osm"},{"id":"osm:node:8569242057","latitude":51.9003647,"longitude":-8.4599906,"name":"Waterfront Square cycle parking","properties":{"access":"unknown","bicycle_pa":"stands","capacity":8,"covered":"no","fee":"no","operator":"","nameSource":"street"},"sourceId":"osm"},{"id":"osm:node:8569249817","latitude":51.90118,"longitude":-8.4602641,"name":"Waterfront Square cycle parking","properties":{"access":"unknown","bicycle_pa":"","capacity":8,"covered":"no","fee":"no","operator":"","nameSource":"street"},"sourceId":"osm"},{"id":"osm:node:8569249818","latitude":51.9013573,"longitude":-8.4609981,"name":"Railway Square cycle parking","properties":{"access":"yes","bicycle_pa":"stands","capacity":8,"covered":"no","fee":"no","operator":"","nameSource":"street"},"sourceId":"osm"},{"id":"osm:node:8596209617","latitude":51.9041833,"longitude":-8.4888816,"name":"Gurranabraher Road near The Heights","properties":{"access":"unknown","bicycle_pa":"stands","capacity":8,"covered":"no","fee":"no","operator":"","nameSource":"junction"},"sourceId":"osm"},{"id":"osm:node:8615108620","latitude":51.9013459,"longitude":-8.4641608,"name":"Lower Glanmire Road near Alfred Street","properties":{"access":"yes","bicycle_pa":"","capacity":8,"covered":"no","fee":"no","operator":"","nameSource":"junction"},"sourceId":"osm"},{"id":"osm:node:8615113719","latitude":51.9003886,"longitude":-8.4651511,"name":"Saint Patrick's Quay near Brian Boru Bridge","properties":{"access":"unknown","bicycle_pa":"stands","capacity":4,"covered":"no","fee":"no","operator":"Cork City Council","nameSource":"junction"},"sourceId":"osm"},{"id":"osm:node:8615113819","latitude":51.900688,"longitude":-8.467609,"name":"Mary Elmes Bridge cycle parking","properties":{"access":"yes","bicycle_pa":"stands","capacity":8,"covered":"no","fee":"","operator":"","nameSource":"street"},"sourceId":"osm"},{"id":"osm:node:8699992442","latitude":51.9107487,"longitude":-8.4421823,"name":"L10301 near L99286","properties":{"access":"unknown","bicycle_pa":"building","capacity":0,"covered":"","fee":"","operator":"","nameSource":"junction"},"sourceId":"osm"},{"id":"osm:node:8732321540","latitude":51.9013371,"longitude":-8.4387314,"name":"The Marina near Centre Park Road","properties":{"access":"unknown","bicycle_pa":"wall_loops","capacity":0,"covered":"no","fee":"","operator":"","nameSource":"junction"},"sourceId":"osm"},{"id":"osm:node:8732321544","latitude":51.9013527,"longitude":-8.4445278,"name":"The Marina by Shandon Boat Club","properties":{"access":"unknown","bicycle_pa":"","capacity":0,"covered":"","fee":"","operator":"","nameSource":"landmark"},"sourceId":"osm"},{"id":"osm:node:8732321546","latitude":51.8957275,"longitude":-8.4564269,"name":"Victoria Road cycle parking","properties":{"access":"unknown","bicycle_pa":"stands","capacity":8,"covered":"no","fee":"","operator":"","nameSource":"street"},"sourceId":"osm"},{"id":"osm:node:8732321547","latitude":51.8927559,"longitude":-8.4681654,"name":"Douglas Street near Rutland Street","properties":{"access":"unknown","bicycle_pa":"","capacity":0,"covered":"","fee":"","operator":"","nameSource":"junction"},"sourceId":"osm"},{"id":"osm:node:8732321548","latitude":51.895258,"longitude":-8.4694407,"name":"Trinity Bridge near Morrison's Quay","properties":{"access":"unknown","bicycle_pa":"stands","capacity":6,"covered":"no","fee":"","operator":"","nameSource":"junction"},"sourceId":"osm"},{"id":"osm:node:9094362061","latitude":51.8926873,"longitude":-8.480974,"name":"Bandon Road near Barrack Street","properties":{"access":"unknown","bicycle_pa":"","capacity":8,"covered":"no","fee":"","operator":"","nameSource":"junction"},"sourceId":"osm"},{"id":"osm:node:9094488790","latitude":51.8910102,"longitude":-8.4877899,"name":"Magazine Road near Bandon Road","properties":{"access":"unknown","bicycle_pa":"","capacity":8,"covered":"no","fee":"","operator":"","nameSource":"junction"},"sourceId":"osm"},{"id":"osm:node:9655676252","latitude":51.8925805,"longitude":-8.4679285,"name":"Douglas Street near High Street","properties":{"access":"yes","bicycle_pa":"stands","capacity":8,"covered":"no","fee":"no","operator":"Cork City Council","nameSource":"junction"},"sourceId":"osm"},{"id":"osm:node:9734627628","latitude":51.8997052,"longitude":-8.478454,"name":"Kyle Street near North Main Street","properties":{"access":"unknown","bicycle_pa":"stands","capacity":8,"covered":"no","fee":"","operator":"","nameSource":"junction"},"sourceId":"osm"},{"id":"osm:node:9776681942","latitude":51.8923846,"longitude":-8.4904344,"name":"College Road near Horgans Buildings","properties":{"access":"unknown","bicycle_pa":"","capacity":0,"covered":"","fee":"","operator":"","nameSource":"junction"},"sourceId":"osm"},{"id":"osm:node:9989336459","latitude":51.9028017,"longitude":-8.4764966,"name":"O'Connell's Square near John Redmond Street","properties":{"access":"yes","bicycle_pa":"stands","capacity":8,"covered":"no","fee":"no","operator":"Cork City Council","nameSource":"junction"},"sourceId":"osm"},{"id":"osm:way:1165044705","latitude":51.89352748,"longitude":-8.49363302,"name":"Gaol Walk by Roots","properties":{"access":"unknown","bicycle_pa":"","capacity":0,"covered":"","fee":"","operator":"","nameSource":"landmark"},"sourceId":"osm"},{"id":"osm:way:1165044706","latitude":51.89350518,"longitude":-8.49370978,"name":"Gaol Walk by Roots","properties":{"access":"unknown","bicycle_pa":"","capacity":0,"covered":"","fee":"","operator":"","nameSource":"landmark"},"sourceId":"osm"},{"id":"osm:way:1165362290","latitude":51.895129440000005,"longitude":-8.49571478,"name":"Mardyke Walk cycle parking","properties":{"access":"unknown","bicycle_pa":"","capacity":0,"covered":"","fee":"","operator":"","nameSource":"street"},"sourceId":"osm"},{"id":"osm:way:1165436677","latitude":51.89204013999999,"longitude":-8.49163396,"name":"College Road near Horgans Buildings","properties":{"access":"unknown","bicycle_pa":"","capacity":0,"covered":"","fee":"","operator":"","nameSource":"junction"},"sourceId":"osm"},{"id":"osm:way:1464960708","latitude":51.892646533333334,"longitude":-8.503038933333334,"name":"Victoria Cross Road near N22","properties":{"access":"unknown","bicycle_pa":"stands","capacity":14,"covered":"no","fee":"","operator":"","nameSource":"junction"},"sourceId":"osm"},{"id":"osm:way:1515231452","latitude":51.9213472,"longitude":-8.4789316,"name":"Old Mallow Road near Fitz's Boreen","properties":{"access":"unknown","bicycle_pa":"","capacity":0,"covered":"","fee":"","operator":"","nameSource":"junction"},"sourceId":"osm"},{"id":"osm:way:1515231471","latitude":51.920818,"longitude":-8.480128149999999,"name":"Fitz's Boreen cycle parking","properties":{"access":"unknown","bicycle_pa":"","capacity":0,"covered":"","fee":"","operator":"","nameSource":"street"},"sourceId":"osm"},{"id":"osm:way:551508615","latitude":51.90147766,"longitude":-8.4595904,"name":"Alfred Street by Kent West","properties":{"access":"permissive","bicycle_pa":"stands","capacity":40,"covered":"yes","fee":"no","operator":"Irish Rail","nameSource":"landmark"},"sourceId":"osm"},{"id":"osm:way:765930289","latitude":51.90573054,"longitude":-8.515076919999998,"name":"David McCarthy Road cycle parking","properties":{"access":"private","bicycle_pa":"lockers","capacity":0,"covered":"yes","fee":"","operator":"","nameSource":"street"},"sourceId":"osm"},{"id":"osm:way:771662936","latitude":51.90575212,"longitude":-8.515190619999998,"name":"David McCarthy Road cycle parking","properties":{"access":"private","bicycle_pa":"lockers","capacity":0,"covered":"yes","fee":"","operator":"","nameSource":"street"},"sourceId":"osm"},{"id":"osm:way:771662937","latitude":51.90558816,"longitude":-8.515343099999999,"name":"David McCarthy Road near Tadhg Barry Road","properties":{"access":"private","bicycle_pa":"lockers","capacity":0,"covered":"yes","fee":"","operator":"","nameSource":"junction"},"sourceId":"osm"},{"id":"osm:way:887041266","latitude":51.90534769999999,"longitude":-8.4998796,"name":"Knocknaheeny cycle parking","properties":{"access":"unknown","bicycle_pa":"stands","capacity":42,"covered":"no","fee":"","operator":"","nameSource":"place"},"sourceId":"osm"}],"schemaVersion":2}
