{"key":"12/1951/1506","points":[{"id":"osm:node:10948730754","latitude":42.9013562,"longitude":-8.5097347,"name":"Rúa de Eslovenia by Lidl","properties":{"access":"yes","bicycle_pa":"stands","capacity":8,"covered":"no","fee":"no","operator":"Lodo","nameSource":"landmark"},"sourceId":"osm"},{"id":"osm:node:10948730755","latitude":42.9007645,"longitude":-8.5093397,"name":"Rúa de Castela e León by MediaMarkt","properties":{"access":"yes","bicycle_pa":"stands","capacity":10,"covered":"no","fee":"no","operator":"ALDI","nameSource":"landmark"},"sourceId":"osm"},{"id":"osm:node:11662840252","latitude":42.8997645,"longitude":-8.4472143,"name":"Carretera Nacional San Sebastián a Santiago de Compostela by A Concha","properties":{"access":"unknown","bicycle_pa":"","capacity":0,"covered":"no","fee":"","operator":"","nameSource":"landmark"},"sourceId":"osm"},{"id":"osm:node:11865889589","latitude":42.8860088,"longitude":-8.5229864,"name":"Rúa de Estocolmo near Rúa de Luxemburgo","properties":{"access":"unknown","bicycle_pa":"","capacity":0,"covered":"","fee":"","operator":"","nameSource":"junction"},"sourceId":"osm"},{"id":"osm:node:12206924743","latitude":42.9275479,"longitude":-8.523314,"name":"Centro Cívico da Gracia cycle parking","properties":{"access":"yes","bicycle_pa":"wall_loops","capacity":5,"covered":"no","fee":"no","operator":"","nameSource":"landmark"},"sourceId":"osm"},{"id":"osm:way:1525204732","latitude":42.902412919999996,"longitude":-8.51056114,"name":"Rúa de Polonia near Rúa de Malta","properties":{"access":"yes","bicycle_pa":"safe_loops","capacity":10,"covered":"yes","fee":"","operator":"","nameSource":"junction"},"sourceId":"osm"}],"schemaVersion":2}
