{"key":"12/1951/1517","points":[{"id":"osm:node:10907534405","latitude":42.1741444,"longitude":-8.5069775,"name":"Rúa da Estrada near Rúa do Dr. Fernández de la Vega","properties":{"access":"yes","bicycle_pa":"stands","capacity":6,"covered":"no","fee":"no","operator":"","nameSource":"junction"},"sourceId":"osm"},{"id":"osm:node:10907534406","latitude":42.1727459,"longitude":-8.4994575,"name":"Rúa Trovador Xoán García de Guillade near Rúa dos Nardos","properties":{"access":"yes","bicycle_pa":"stands","capacity":8,"covered":"no","fee":"no","operator":"","nameSource":"junction"},"sourceId":"osm"},{"id":"osm:node:10963520784","latitude":42.17278,"longitude":-8.5006205,"name":"Rúa Trovador Xoán García de Guillade near Rúa Forno Telleiro","properties":{"access":"yes","bicycle_pa":"stands","capacity":12,"covered":"no","fee":"no","operator":"","nameSource":"junction"},"sourceId":"osm"},{"id":"osm:node:11341266889","latitude":42.1742249,"longitude":-8.5001011,"name":"Paseo Matutino near Rúa dos Nardos","properties":{"access":"yes","bicycle_pa":"stands","capacity":8,"covered":"no","fee":"no","operator":"","nameSource":"junction"},"sourceId":"osm"},{"id":"osm:node:8892451973","latitude":42.174423,"longitude":-8.5069996,"name":"Rúa Morales Hidalgo near Rúa do Dr. Fernández de la Vega","properties":{"access":"yes","bicycle_pa":"stands","capacity":6,"covered":"no","fee":"no","operator":"","nameSource":"junction"},"sourceId":"osm"}],"schemaVersion":2}
