{"key":"12/2065/1342","points":[{"id":"osm:node:11171642287","latitude":52.5787997,"longitude":1.5135897,"name":"Station Road by Amazon Hub","properties":{"access":"unknown","bicycle_pa":"stands","capacity":4,"covered":"no","fee":"","operator":"","nameSource":"landmark"},"sourceId":"osm"},{"id":"osm:node:11171642295","latitude":52.5788747,"longitude":1.5128893,"name":"Station Road by The Rose of Cantley","properties":{"access":"unknown","bicycle_pa":"stands","capacity":2,"covered":"no","fee":"","operator":"","nameSource":"landmark"},"sourceId":"osm"},{"id":"osm:node:11171642301","latitude":52.5788348,"longitude":1.513015,"name":"Station Road by The Rose of Cantley","properties":{"access":"unknown","bicycle_pa":"stands","capacity":2,"covered":"no","fee":"","operator":"","nameSource":"landmark"},"sourceId":"osm"},{"id":"osm:node:11190336585","latitude":52.5593795,"longitude":1.5686343,"name":"Riverside near Middle Hill","properties":{"access":"unknown","bicycle_pa":"stands","capacity":6,"covered":"no","fee":"","operator":"","nameSource":"junction"},"sourceId":"osm"},{"id":"osm:node:11190336658","latitude":52.5593137,"longitude":1.5678088,"name":"Riverside near Middle Hill","properties":{"access":"unknown","bicycle_pa":"stands","capacity":6,"covered":"no","fee":"","operator":"","nameSource":"junction"},"sourceId":"osm"},{"id":"osm:node:11190336999","latitude":52.5645586,"longitude":1.5593384,"name":"Station Drive by Reedham","properties":{"access":"unknown","bicycle_pa":"stands","capacity":8,"covered":"no","fee":"","operator":"","nameSource":"landmark"},"sourceId":"osm"},{"id":"osm:node:11190337028","latitude":52.5641702,"longitude":1.5605853,"name":"Platform 1 cycle parking","properties":{"access":"unknown","bicycle_pa":"stands","capacity":4,"covered":"no","fee":"","operator":"","nameSource":"street"},"sourceId":"osm"},{"id":"osm:node:11190337029","latitude":52.5641743,"longitude":1.5605612,"name":"Platform 1 cycle parking","properties":{"access":"unknown","bicycle_pa":"stands","capacity":4,"covered":"no","fee":"","operator":"","nameSource":"street"},"sourceId":"osm"}],"schemaVersion":2}
