{"key":"12/2065/1346","points":[{"id":"osm:node:2381672561","latitude":52.3466526,"longitude":1.5059585,"name":"Bramblewood Way by Halesworth Museum","properties":{"access":"unknown","bicycle_pa":"lockers","capacity":4,"covered":"yes","fee":"","operator":"","nameSource":"landmark"},"sourceId":"osm"},{"id":"osm:node:2381677027","latitude":52.343872,"longitude":1.5023737,"name":"Thoroughfare by Spar","properties":{"access":"unknown","bicycle_pa":"stands","capacity":6,"covered":"no","fee":"","operator":"","nameSource":"landmark"},"sourceId":"osm"},{"id":"osm:node:2381678102","latitude":52.3449191,"longitude":1.501797,"name":"Rectory Street near Bridge Street","properties":{"access":"unknown","bicycle_pa":"stands","capacity":6,"covered":"no","fee":"","operator":"","nameSource":"junction"},"sourceId":"osm"},{"id":"osm:node:2381682014","latitude":52.342788,"longitude":1.5013116,"name":"Market Place near Chediston Street","properties":{"access":"unknown","bicycle_pa":"stands","capacity":2,"covered":"no","fee":"","operator":"","nameSource":"junction"},"sourceId":"osm"},{"id":"osm:node:2882316004","latitude":52.3470276,"longitude":1.505906,"name":"Bramblewood Way by Halesworth","properties":{"access":"unknown","bicycle_pa":"lockers","capacity":5,"covered":"yes","fee":"","operator":"","nameSource":"landmark"},"sourceId":"osm"},{"id":"osm:node:2882316305","latitude":52.3470063,"longitude":1.5059302,"name":"Bramblewood Way by Halesworth","properties":{"access":"unknown","bicycle_pa":"stands","capacity":4,"covered":"no","fee":"","operator":"","nameSource":"landmark"},"sourceId":"osm"},{"id":"osm:node:2882344901","latitude":52.3466413,"longitude":1.5059737,"name":"Bramblewood Way by Halesworth Museum","properties":{"access":"unknown","bicycle_pa":"stands","capacity":14,"covered":"yes","fee":"","operator":"","nameSource":"landmark"},"sourceId":"osm"}],"schemaVersion":2}
