{"key":"12/2065/1532","points":[{"id":"osm:node:10711954611","latitude":41.1834129,"longitude":1.542527,"name":"Passeig Marítim de Sant Salvador near Plaça de Sant Salvador","properties":{"access":"unknown","bicycle_pa":"stands","capacity":6,"covered":"no","fee":"","operator":"","nameSource":"junction"},"sourceId":"osm"},{"id":"osm:node:11362922041","latitude":41.1860504,"longitude":1.5242566,"name":"Carrer de l'Estació cycle parking","properties":{"access":"yes","bicycle_pa":"stands","capacity":0,"covered":"no","fee":"no","operator":"","nameSource":"street"},"sourceId":"osm"},{"id":"osm:node:12112993951","latitude":41.1866832,"longitude":1.5697423,"name":"Passeig Marítim de Sant Joan de Déu by Centre d'Interpretació del Calafell Pescador \"La Confraria\"","properties":{"access":"yes","bicycle_pa":"wall_loops","capacity":5,"covered":"no","fee":"no","operator":"","nameSource":"landmark"},"sourceId":"osm"},{"id":"osm:node:13116911215","latitude":41.1874836,"longitude":1.577369,"name":"Carrer del Pinton Mir near Passeig Marítim de Sant Joan de Déu","properties":{"access":"unknown","bicycle_pa":"","capacity":0,"covered":"","fee":"","operator":"","nameSource":"junction"},"sourceId":"osm"},{"id":"osm:node:13527012346","latitude":41.1826619,"longitude":1.5360689,"name":"Plaça del Pessebre near Avinguda Palfuriana","properties":{"access":"unknown","bicycle_pa":"stands","capacity":0,"covered":"no","fee":"","operator":"","nameSource":"junction"},"sourceId":"osm"},{"id":"osm:node:13527013291","latitude":41.183601,"longitude":1.5443404,"name":"Carreterea de Sant Salvador near Passeig Marítim de Joan Raventós","properties":{"access":"unknown","bicycle_pa":"stands","capacity":4,"covered":"no","fee":"","operator":"","nameSource":"junction"},"sourceId":"osm"},{"id":"osm:node:13625648934","latitude":41.1877554,"longitude":1.5789438,"name":"Passeig Marítim de Sant Joan de Déu near Rambla de la Costa Daurada","properties":{"access":"unknown","bicycle_pa":"","capacity":0,"covered":"","fee":"","operator":"","nameSource":"junction"},"sourceId":"osm"},{"id":"osm:node:13625648935","latitude":41.1877763,"longitude":1.5791575,"name":"Passeig Marítim de Sant Joan de Déu by Wave Riders Calafell","properties":{"access":"unknown","bicycle_pa":"","capacity":0,"covered":"","fee":"","operator":"","nameSource":"landmark"},"sourceId":"osm"},{"id":"osm:node:13625648936","latitude":41.1875601,"longitude":1.5782442,"name":"Passeig Marítim de Sant Joan de Déu near Rambla de la Costa Daurada","properties":{"access":"unknown","bicycle_pa":"","capacity":0,"covered":"","fee":"","operator":"","nameSource":"junction"},"sourceId":"osm"},{"id":"osm:node:13625648946","latitude":41.1865938,"longitude":1.5696192,"name":"Passeig Marítim de Sant Joan de Déu by Bot Salvavidas","properties":{"access":"yes","bicycle_pa":"wall_loops","capacity":5,"covered":"no","fee":"no","operator":"","nameSource":"landmark"},"sourceId":"osm"},{"id":"osm:node:13625648964","latitude":41.1864347,"longitude":1.567785,"name":"Passeig Marítim de Sant Joan de Déu near Avinguda de Sant Joan de Déu","properties":{"access":"unknown","bicycle_pa":"","capacity":0,"covered":"","fee":"","operator":"","nameSource":"junction"},"sourceId":"osm"},{"id":"osm:node:13652878699","latitude":41.1895925,"longitude":1.5747233,"name":"Pas sota la via de l'Estació near Avinguda de Mossèn Jaume Soler","properties":{"access":"unknown","bicycle_pa":"","capacity":0,"covered":"","fee":"","operator":"","nameSource":"junction"},"sourceId":"osm"},{"id":"osm:node:13656932103","latitude":41.189379,"longitude":1.5681885,"name":"P1 by Salmeron","properties":{"access":"unknown","bicycle_pa":"","capacity":0,"covered":"","fee":"","operator":"","nameSource":"landmark"},"sourceId":"osm"},{"id":"osm:node:13656932117","latitude":41.1888172,"longitude":1.5655689,"name":"Carrer Puigmal cycle parking","properties":{"access":"customers","bicycle_pa":"","capacity":0,"covered":"","fee":"","operator":"Lidl","nameSource":"street"},"sourceId":"osm"},{"id":"osm:node:13656932128","latitude":41.1879131,"longitude":1.5693926,"name":"Plaça de la Democràcia by El Racó de Calafell","properties":{"access":"unknown","bicycle_pa":"","capacity":0,"covered":"","fee":"","operator":"","nameSource":"landmark"},"sourceId":"osm"}],"schemaVersion":2}
