{"key":"12/1952/1354","points":[{"id":"osm:node:10120582099","latitude":51.8988699,"longitude":-8.3981782,"name":"Castle Road near Gate Lodge","properties":{"access":"yes","bicycle_pa":"stands","capacity":8,"covered":"no","fee":"no","operator":"Cork City Council","nameSource":"junction"},"sourceId":"osm"},{"id":"osm:node:10676022871","latitude":51.8929205,"longitude":-8.403514,"name":"Avenue de Rennes near Mahon Drive","properties":{"access":"yes","bicycle_pa":"stands","capacity":8,"covered":"no","fee":"no","operator":"","nameSource":"junction"},"sourceId":"osm"},{"id":"osm:node:11086115117","latitude":51.8991228,"longitude":-8.4365374,"name":"Marina Park cycle parking","properties":{"access":"yes","bicycle_pa":"wall_loops","capacity":6,"covered":"no","fee":"no","operator":"Cork GAA","nameSource":"landmark"},"sourceId":"osm"},{"id":"osm:node:11143894394","latitude":51.8997728,"longitude":-8.4015512,"name":"The Line cycle parking","properties":{"access":"unknown","bicycle_pa":"stands","capacity":8,"covered":"no","fee":"","operator":"","nameSource":"street"},"sourceId":"osm"},{"id":"osm:node:11685217125","latitude":51.9206687,"longitude":-8.4066889,"name":"Crawford Woods near The Avenue, Crawford Woods","properties":{"access":"unknown","bicycle_pa":"wall_loops","capacity":0,"covered":"no","fee":"","operator":"","nameSource":"junction"},"sourceId":"osm"},{"id":"osm:node:13021168737","latitude":51.9167653,"longitude":-8.4258405,"name":"L7093 near Old Youghal Road","properties":{"access":"unknown","bicycle_pa":"","capacity":0,"covered":"","fee":"","operator":"","nameSource":"junction"},"sourceId":"osm"},{"id":"osm:node:2246465725","latitude":51.8976499,"longitude":-8.4134624,"name":"Blackrock Village by Blackrock Sunday Market","properties":{"access":"unknown","bicycle_pa":"stands","capacity":8,"covered":"no","fee":"","operator":"","nameSource":"landmark"},"sourceId":"osm"},{"id":"osm:node:2246465729","latitude":51.8982589,"longitude":-8.4131324,"name":"Blackrock Village cycle parking","properties":{"access":"unknown","bicycle_pa":"stands","capacity":6,"covered":"no","fee":"","operator":"","nameSource":"street"},"sourceId":"osm"},{"id":"osm:node:538539600","latitude":51.8975288,"longitude":-8.412666,"name":"Castle Road near Convent Road","properties":{"access":"unknown","bicycle_pa":"stands","capacity":8,"covered":"no","fee":"no","operator":"","nameSource":"junction"},"sourceId":"osm"},{"id":"osm:node:5661193459","latitude":51.8998742,"longitude":-8.4026663,"name":"Castle Road near Sandy Lane","properties":{"access":"customers","bicycle_pa":"stands","capacity":8,"covered":"no","fee":"no","operator":"Blackrock Castle","nameSource":"junction"},"sourceId":"osm"},{"id":"osm:node:5662006613","latitude":51.8979908,"longitude":-8.41369,"name":"The Marina near Walsh Road","properties":{"access":"unknown","bicycle_pa":"stands","capacity":8,"covered":"no","fee":"","operator":"","nameSource":"junction"},"sourceId":"osm"},{"id":"osm:node:8684816019","latitude":51.8917394,"longitude":-8.4108116,"name":"Blackrock Avenue near Ballinsheen Road","properties":{"access":"yes","bicycle_pa":"","capacity":16,"covered":"yes","fee":"no","operator":"","nameSource":"junction"},"sourceId":"osm"},{"id":"osm:node:8732315407","latitude":51.9309367,"longitude":-8.3974116,"name":"Hazel Wood Shopping Centre near Hazelwood Road","properties":{"access":"unknown","bicycle_pa":"","capacity":0,"covered":"","fee":"","operator":"","nameSource":"junction"},"sourceId":"osm"},{"id":"osm:node:8732315408","latitude":51.9307148,"longitude":-8.3958425,"name":"Crestfield Centre near Hazelwood Road","properties":{"access":"unknown","bicycle_pa":"","capacity":0,"covered":"","fee":"","operator":"","nameSource":"junction"},"sourceId":"osm"},{"id":"osm:node:8732315409","latitude":51.928185,"longitude":-8.3942175,"name":"L3010 near Meadowbrook","properties":{"access":"unknown","bicycle_pa":"","capacity":0,"covered":"","fee":"","operator":"","nameSource":"junction"},"sourceId":"osm"},{"id":"osm:node:8732321541","latitude":51.9150205,"longitude":-8.4288274,"name":"Old Youghal Road near North Ring Road","properties":{"access":"unknown","bicycle_pa":"","capacity":0,"covered":"","fee":"","operator":"","nameSource":"junction"},"sourceId":"osm"},{"id":"osm:node:8732321545","latitude":51.9002984,"longitude":-8.433404,"name":"Cork Harbour Greenway cycle parking","properties":{"access":"unknown","bicycle_pa":"stands","capacity":8,"covered":"no","fee":"","operator":"","nameSource":"street"},"sourceId":"osm"},{"id":"osm:node:9247119319","latitude":51.9317395,"longitude":-8.3968324,"name":"Hazelwood Road near L2966","properties":{"access":"unknown","bicycle_pa":"","capacity":0,"covered":"","fee":"","operator":"","nameSource":"junction"},"sourceId":"osm"},{"id":"osm:node:9261463040","latitude":51.9036982,"longitude":-8.3517859,"name":"L2985 near R623","properties":{"access":"unknown","bicycle_pa":"","capacity":0,"covered":"","fee":"","operator":"","nameSource":"junction"},"sourceId":"osm"},{"id":"osm:node:9861913488","latitude":51.8924045,"longitude":-8.3986919,"name":"Castle Meadows cycle parking","properties":{"access":"yes","bicycle_pa":"stands","capacity":8,"covered":"no","fee":"no","operator":"Cork City Council","nameSource":"street"},"sourceId":"osm"},{"id":"osm:way:1328994437","latitude":51.90790230000001,"longitude":-8.35502134,"name":"L3004 by Littleisland","properties":{"access":"unknown","bicycle_pa":"","capacity":10,"covered":"yes","fee":"no","operator":"","nameSource":"landmark"},"sourceId":"osm"}],"schemaVersion":2}
