{"key":"12/2035/1315","points":[{"categories":["repair"],"id":"osm:node:10815534958","latitude":53.961516,"longitude":-1.0807919,"name":"Bicycle repair station","properties":{"servicePump":"yes","serviceTools":"yes"},"sourceId":"osm"},{"categories":["repair"],"id":"osm:node:13198088762","latitude":53.9659089,"longitude":-1.0821665,"name":"Bicycle repair station","properties":{},"sourceId":"osm"},{"categories":["shop"],"id":"osm:node:1808377093","latitude":53.9576503,"longitude":-1.0925391,"name":"Cycle Heaven","properties":{"openingHours":"Mo-Fr 08:30-17:30; Sa 09:00-17:00"},"sourceId":"osm"},{"categories":["shop","repair"],"id":"osm:node:1863971736","latitude":53.9629924,"longitude":-1.0714587,"name":"Cyclestreet","properties":{"serviceRepair":"yes"},"sourceId":"osm"},{"categories":["shop","repair"],"id":"osm:node:3346775282","latitude":53.9631743,"longitude":-1.0788055,"name":"Giant","properties":{"brand":"Giant","serviceRepair":"yes"},"sourceId":"osm"},{"categories":["shop"],"id":"osm:node:3595086712","latitude":53.9631757,"longitude":-1.0775662,"name":"Liv York","properties":{},"sourceId":"osm"},{"categories":["shop"],"id":"osm:node:4014526325","latitude":53.9590871,"longitude":-1.0841428,"name":"Evans Cycles","properties":{"servicePump":"no"},"sourceId":"osm"},{"categories":["shop","repair"],"id":"osm:node:4033087824","latitude":53.957367,"longitude":-1.0763718,"name":"ReCycle","properties":{"openingHours":"Mo-Sa 09:00-17:30, Su 10:00-16:00","serviceRepair":"yes"},"sourceId":"osm"},{"categories":["repair"],"id":"osm:node:4654648896","latitude":53.9571586,"longitude":-1.0933245,"name":"Bicycle repair station","properties":{"fee":"no","openingHours":"24/7","servicePump":"no","serviceTools":"yes"},"sourceId":"osm"},{"categories":["shop","repair"],"id":"osm:node:8150303171","latitude":53.9728381,"longitude":-1.0792387,"name":"Cycle Culture","properties":{"serviceRepair":"yes"},"sourceId":"osm"},{"categories":["repair"],"id":"osm:way:59108407","latitude":53.96043648888889,"longitude":-1.0723127000000001,"name":"Halfords","properties":{"brand":"Halfords","openingHours":"Mo-Fr 09:00-20:00; Sa 09:00-18:00; Su 10:00-17:00","operator":"Halfords","serviceRepair":"yes"},"sourceId":"osm"},{"categories":["shop"],"id":"osm:way:809177376","latitude":54.006205685714285,"longitude":-1.0746720285714286,"name":"Haxby Cycles","properties":{},"sourceId":"osm"}],"schemaVersion":2}
