{"key":"12/2035/1316","points":[{"categories":["repair"],"id":"osm:node:13539920476","latitude":53.944881,"longitude":-1.0773299,"name":"Get Cycling CIC","properties":{"operator":"Get Cycling CIC","servicePump":"yes","serviceRepair":"no","serviceTools":"no"},"sourceId":"osm"},{"categories":["shop","repair"],"id":"osm:node:1369587227","latitude":53.9521353,"longitude":-1.0843005,"name":"Cycle Heaven","properties":{"serviceRepair":"yes","website":"https://www.cycle-heaven.co.uk/"},"sourceId":"osm"},{"categories":["shop","repair"],"id":"osm:node:1565193271","latitude":53.9548697,"longitude":-1.07007,"name":"York Cycleworks","properties":{"serviceRepair":"yes"},"sourceId":"osm"},{"categories":["shop","repair"],"id":"osm:node:4136480350","latitude":53.9221623,"longitude":-1.0947663,"name":"Twisted Cogs","properties":{"serviceRepair":"yes","website":"https://www.twistedcogs.co.uk/"},"sourceId":"osm"},{"categories":["repair"],"id":"osm:node:5446867448","latitude":53.9463216,"longitude":-1.0582707,"name":"Bicycle repair station","properties":{"servicePump":"yes","serviceTools":"no"},"sourceId":"osm"},{"categories":["shop","repair","hire"],"id":"osm:way:122605298","latitude":53.94476596666667,"longitude":-1.0773368666666667,"name":"Get Cycling","properties":{"brand":"Nihola;Burley;Babboe","servicePump":"yes","serviceRental":"yes","serviceRepair":"yes","website":"https://www.getcycling.org.uk/"},"sourceId":"osm"},{"categories":["shop","repair"],"id":"osm:way:377050414","latitude":53.94586258333333,"longitude":-1.0785314666666668,"name":"Cycle Heaven","properties":{"openingHours":"Mo-Sa 08:30-17:30; Su 10:00-16:30","servicePump":"yes","serviceRepair":"yes","website":"https://www.cycle-heaven.co.uk/"},"sourceId":"osm"}],"schemaVersion":2}
