{"key":"12/2035/1374","points":[{"categories":["hire"],"id":"osm:node:10222039920","latitude":50.79731,"longitude":-1.093786,"name":"King Henry I Street","properties":{"brand":"Beryl","fee":"yes","network":"Beryl","operator":"Beryl"},"sourceId":"osm"},{"categories":["hire"],"id":"osm:node:10222039921","latitude":50.797121,"longitude":-1.089375,"name":"Unite Students - Chaucer House","properties":{"brand":"Beryl","fee":"yes","network":"Beryl","operator":"Beryl"},"sourceId":"osm"},{"categories":["hire"],"id":"osm:node:10222039922","latitude":50.798749,"longitude":-1.091386,"name":"Portsmouth & Southsea Station","properties":{"brand":"Beryl","fee":"yes","network":"Beryl","operator":"Beryl"},"sourceId":"osm"},{"categories":["hire"],"id":"osm:node:10222039923","latitude":50.799071,"longitude":-1.090833,"name":"Station Street","properties":{"brand":"Beryl","fee":"yes","network":"Beryl","operator":"Beryl"},"sourceId":"osm"},{"categories":["hire"],"id":"osm:node:10222039924","latitude":50.797989,"longitude":-1.079896,"name":"The Bridge Shopping Centre South","properties":{"brand":"Beryl","fee":"yes","network":"Beryl","operator":"Beryl"},"sourceId":"osm"},{"categories":["hire"],"id":"osm:node:10222039925","latitude":50.795996,"longitude":-1.076468,"name":"Fratton Bridge","properties":{"brand":"Beryl","fee":"yes","network":"Beryl","operator":"Beryl"},"sourceId":"osm"},{"categories":["hire"],"id":"osm:node:10222039926","latitude":50.795894,"longitude":-1.066619,"name":"McLoughlin Way","properties":{"brand":"Beryl","fee":"yes","network":"Beryl","operator":"Beryl"},"sourceId":"osm"},{"categories":["hire"],"id":"osm:node:10222039928","latitude":50.79923,"longitude":-1.080535,"name":"The Bridge Shopping Centre North","properties":{"brand":"Beryl","fee":"yes","network":"Beryl","operator":"Beryl"},"sourceId":"osm"},{"categories":["hire"],"id":"osm:node:10222039929","latitude":50.792513,"longitude":-1.086811,"name":"Margate Road","properties":{"brand":"Beryl","fee":"yes","network":"Beryl","operator":"Beryl"},"sourceId":"osm"},{"categories":["hire"],"id":"osm:node:10222039930","latitude":50.794965,"longitude":-1.095672,"name":"Lord Montgomery Way","properties":{"brand":"Beryl","fee":"yes","network":"Beryl","operator":"Beryl"},"sourceId":"osm"},{"categories":["hire"],"id":"osm:node:10222039931","latitude":50.800165,"longitude":-1.092461,"name":"Bishop Crispian Way","properties":{"brand":"Beryl","fee":"yes","network":"Beryl","operator":"Beryl"},"sourceId":"osm"},{"categories":["hire"],"id":"osm:node:10222039932","latitude":50.795484,"longitude":-1.08614,"name":"Somerstown Central Health Centre","properties":{"brand":"Beryl","fee":"yes","network":"Beryl","operator":"Beryl"},"sourceId":"osm"},{"categories":["hire"],"id":"osm:node:10222039933","latitude":50.802713,"longitude":-1.081942,"name":"Church Road/Union Place","properties":{"fee":"yes","network":"Beryl - Portsmouth","operator":"Beryl"},"sourceId":"osm"},{"categories":["hire"],"id":"osm:node:10222039934","latitude":50.795089,"longitude":-1.088755,"name":"Winston Churchill Avenue Roundabout","properties":{"brand":"Beryl","fee":"yes","network":"Beryl","operator":"Beryl"},"sourceId":"osm"},{"categories":["hire"],"id":"osm:node:10222039935","latitude":50.797301,"longitude":-1.089005,"name":"Isambard Brunel Road","properties":{"brand":"Beryl","fee":"yes","network":"Beryl","operator":"Beryl"},"sourceId":"osm"},{"categories":["hire"],"id":"osm:node:10222039936","latitude":50.792227,"longitude":-1.07608,"name":"Fawcett Road","properties":{"brand":"Beryl","fee":"yes","network":"Beryl","operator":"Beryl"},"sourceId":"osm"},{"categories":["hire"],"id":"osm:node:10222039937","latitude":50.798965,"longitude":-1.09951,"name":"St James's Street Student Accommodation","properties":{"brand":"Beryl","fee":"yes","network":"Beryl","operator":"Beryl"},"sourceId":"osm"},{"categories":["hire"],"id":"osm:node:10222039938","latitude":50.797188,"longitude":-1.105701,"name":"The Hard","properties":{"brand":"Beryl","fee":"yes","network":"Beryl","operator":"Beryl"},"sourceId":"osm"},{"categories":["hire"],"id":"osm:node:10222039939","latitude":50.795568,"longitude":-1.103094,"name":"St George's Road","properties":{"brand":"Beryl","fee":"yes","network":"Beryl","operator":"Beryl"},"sourceId":"osm"},{"categories":["hire"],"id":"osm:node:10222039940","latitude":50.799701,"longitude":-1.097611,"name":"Lion Terrace","properties":{"brand":"Beryl","fee":"yes","network":"Beryl","operator":"Beryl"},"sourceId":"osm"},{"categories":["hire"],"id":"osm:node:10222039941","latitude":50.795504,"longitude":-1.093746,"name":"Winston Churchill Avenue","properties":{"brand":"Beryl","fee":"yes","network":"Beryl","operator":"Beryl"},"sourceId":"osm"},{"categories":["hire"],"id":"osm:node:10222039942","latitude":50.7955708,"longitude":-1.0936673,"name":"Guildhall Walk","properties":{"brand":"Beryl","fee":"yes","network":"Beryl","operator":"Beryl"},"sourceId":"osm"},{"categories":["hire"],"id":"osm:node:10222039943","latitude":50.795228,"longitude":-1.090643,"name":"University of Portsmouth - Eldon Building","properties":{"brand":"Beryl","fee":"yes","network":"Beryl","operator":"Beryl"},"sourceId":"osm"},{"categories":["hire"],"id":"osm:node:10222039944","latitude":50.795192,"longitude":-1.082578,"name":"Somers Road","properties":{"brand":"Beryl","fee":"yes","network":"Beryl","operator":"Beryl"},"sourceId":"osm"},{"categories":["shop"],"id":"osm:node:11373723102","latitude":50.8064373,"longitude":-1.0634516,"name":"Cycle Trace","properties":{"openingHours":"Mo-Sa 09:00-18:00; Su 09:00-16:00"},"sourceId":"osm"},{"categories":["hire"],"id":"osm:node:11469589316","latitude":50.8169341,"longitude":-1.06433,"name":"Burrfields Road","properties":{"network":"Beryl - Portsmouth","operator":"Beryl"},"sourceId":"osm"},{"categories":["hire"],"id":"osm:node:11469589317","latitude":50.8169816,"longitude":-1.0646975,"name":"Copnor Road","properties":{"network":"Beryl - Portsmouth","operator":"Beryl"},"sourceId":"osm"},{"categories":["shop"],"id":"osm:node:1214681185","latitude":50.8248944,"longitude":-1.0735832,"name":"CycleWorld","properties":{"openingHours":"Mo-Fr 09:00-18:00; Sa 09:00-17:30; BH 10:00-16:00; Su off"},"sourceId":"osm"},{"categories":["shop","repair"],"id":"osm:node:13331222416","latitude":50.8183167,"longitude":-1.064964,"name":"GC","properties":{"serviceRepair":"yes"},"sourceId":"osm"},{"categories":["hire"],"id":"osm:node:13705739002","latitude":50.8069703,"longitude":-1.0832542,"name":"voi","properties":{"openingHours":"24/7","operator":"voi"},"sourceId":"osm"},{"categories":["shop"],"id":"osm:node:2456014326","latitude":50.8032658,"longitude":-1.0602427,"name":"Community Cycle Centre","properties":{},"sourceId":"osm"},{"categories":["shop"],"id":"osm:node:2860605001","latitude":50.7935856,"longitude":-1.1341359,"name":"Town Bikes","properties":{"openingHours":"Mo-Fr 09:00-17:00; Sa 09:00-15:00; Su off"},"sourceId":"osm"},{"categories":["shop"],"id":"osm:node:3171371739","latitude":50.7928585,"longitude":-1.0631912,"name":"Bicycle Boutique","properties":{},"sourceId":"osm"},{"categories":["hire"],"id":"osm:node:5557717108","latitude":50.7971842,"longitude":-1.106029,"name":"Brompton Bike Hire","properties":{"brand":"Brompton Bike Hire"},"sourceId":"osm"},{"categories":["shop"],"id":"osm:node:7140183243","latitude":50.8021765,"longitude":-1.088763,"name":"Acorn Cycles","properties":{"openingHours":"Mo,Tu,Th,Fr,Sa 09:00-17:30; Su,We,BH off"},"sourceId":"osm"},{"categories":["repair"],"id":"osm:node:8731902721","latitude":50.7927541,"longitude":-1.1091402,"name":"Bicycle repair station","properties":{"servicePump":"yes"},"sourceId":"osm"},{"categories":["hire"],"id":"osm:node:8893199510","latitude":50.7923963,"longitude":-1.0575958,"name":"Cycle hire","properties":{},"sourceId":"osm"},{"categories":["repair"],"id":"osm:node:8901777778","latitude":50.7920876,"longitude":-1.0704626,"name":"Bicycle repair station","properties":{"servicePump":"yes"},"sourceId":"osm"},{"categories":["shop"],"id":"osm:node:9003608450","latitude":50.7949345,"longitude":-1.1198319,"name":"Trent's Bike Shack","properties":{},"sourceId":"osm"},{"categories":["repair"],"id":"osm:way:183600748","latitude":50.79434425000001,"longitude":-1.12604915,"name":"Halfords","properties":{"brand":"Halfords","serviceRepair":"yes"},"sourceId":"osm"}],"schemaVersion":2}
