{"key":"12/2035/1375","points":[{"categories":["hire"],"id":"osm:node:10222039927","latitude":50.79082,"longitude":-1.092971,"name":"Great Southsea Street","properties":{"brand":"Beryl","fee":"yes","network":"Beryl","operator":"Beryl"},"sourceId":"osm"},{"categories":["shop"],"id":"osm:node:2769244791","latitude":50.7865885,"longitude":-1.0748192,"name":"Bike U Like","properties":{"openingHours":"Mo,We,Th,Fr 09:00-19:00; Tu 09:00-18:00; Sa 10:00-17:00; Su 12:00-15:00"},"sourceId":"osm"},{"categories":["repair"],"id":"osm:node:8683168289","latitude":50.7789388,"longitude":-1.0788569,"name":"Bicycle repair station","properties":{"servicePump":"yes"},"sourceId":"osm"},{"categories":["repair"],"id":"osm:node:8731902722","latitude":50.7858689,"longitude":-1.1002564,"name":"Bicycle repair station","properties":{"servicePump":"yes"},"sourceId":"osm"},{"categories":["shop","repair"],"id":"osm:node:938900981","latitude":50.7865742,"longitude":-1.0716397,"name":"Southsea Cycles","properties":{"openingHours":"Mo-Sa 09:00-17:00","serviceRepair":"yes"},"sourceId":"osm"},{"categories":["shop"],"id":"osm:node:938900985","latitude":50.7898511,"longitude":-1.0827165,"name":"Portsmouth Cycle Exchange","properties":{"openingHours":"Mo-Sa 08:30-17:30; Su 10:00-16:00; PH 10:00-16:00"},"sourceId":"osm"}],"schemaVersion":2}
