{"key":"12/2035/1580","points":[{"categories":["shop","hire"],"id":"osm:node:10821583078","latitude":37.9818123,"longitude":-1.1332588,"name":"Muvit","properties":{"openingHours":"Mo-Fr 11:00-13:30,16:30-20:00; Sa-Su 11:00-14:30,16:30-20:00","serviceRental":"yes","website":"https://www.muvitciclogaraje.es/"},"sourceId":"osm"},{"categories":["shop"],"id":"osm:node:12097989555","latitude":37.9919694,"longitude":-1.1289047,"name":"ABCE","properties":{"openingHours":"Mo-Sa 10:00-21:30","website":"https://www.abce.store/"},"sourceId":"osm"},{"categories":["shop"],"id":"osm:node:1277066744","latitude":37.9733911,"longitude":-1.1353617,"name":"Malandra","properties":{},"sourceId":"osm"},{"categories":["shop","repair","hire"],"id":"osm:node:1542353587","latitude":37.9708544,"longitude":-1.121281,"name":"Mister Moon Bikes","properties":{"openingHours":"Mo-Fr 10:00-13:30, 17:00-21:00; Sa 11:00-14:00","serviceRental":"yes","serviceRepair":"yes"},"sourceId":"osm"},{"categories":["shop","repair","hire"],"id":"osm:node:1732745937","latitude":37.9777572,"longitude":-1.1337968,"name":"Hospital de bicis","properties":{"serviceRental":"yes","serviceRepair":"yes","website":"https://hospitaldebicis.com/"},"sourceId":"osm"},{"categories":["shop","repair"],"id":"osm:node:2187485197","latitude":37.9701531,"longitude":-1.1380567,"name":"Anmbike","properties":{"serviceRepair":"yes","website":"http://www.anmibike.com/"},"sourceId":"osm"},{"categories":["shop"],"id":"osm:node:2187485202","latitude":37.97655,"longitude":-1.1245702,"name":"Pemoy","properties":{},"sourceId":"osm"},{"categories":["shop","repair"],"id":"osm:node:2275726260","latitude":37.9859233,"longitude":-1.1244838,"name":"Bicio Urbano","properties":{"serviceRepair":"yes","website":"http://biciourbano.com/"},"sourceId":"osm"},{"categories":["shop","repair","hire"],"id":"osm:node:2293065210","latitude":37.995793,"longitude":-1.0987372,"name":"Ciclos Teo","properties":{"serviceRental":"yes","serviceRepair":"yes"},"sourceId":"osm"},{"categories":["shop","repair","hire"],"id":"osm:node:2293065212","latitude":37.979447,"longitude":-1.1287813,"name":"JP García - GAC","properties":{"serviceRental":"yes","serviceRepair":"yes","website":"https://www.jpgarcia.es/"},"sourceId":"osm"},{"categories":["shop","repair","hire"],"id":"osm:node:2293065213","latitude":37.9909852,"longitude":-1.1190996,"name":"Motos Laureano Bicicletas","properties":{"serviceRental":"yes","serviceRepair":"yes"},"sourceId":"osm"},{"categories":["shop","repair"],"id":"osm:node:2295784238","latitude":37.9785041,"longitude":-1.1312428,"name":"BH Hidalgo","properties":{"serviceRepair":"yes","website":"http://www.bhidalgo.es/"},"sourceId":"osm"},{"categories":["shop"],"id":"osm:node:2318327800","latitude":37.9918791,"longitude":-1.1281597,"name":"Bicicletas Puerta Nueva","properties":{},"sourceId":"osm"},{"categories":["shop","repair","hire"],"id":"osm:node:2467495017","latitude":37.9959956,"longitude":-1.1300513,"name":"Chop Shop","properties":{"serviceRental":"yes","serviceRepair":"yes"},"sourceId":"osm"},{"categories":["shop","repair","hire"],"id":"osm:node:2467495018","latitude":37.9778403,"longitude":-1.0619322,"name":"Ciclos Jequetor","properties":{"serviceRental":"yes","serviceRepair":"yes"},"sourceId":"osm"},{"categories":["shop","repair","hire"],"id":"osm:node:2467498137","latitude":37.9426117,"longitude":-1.1178293,"name":"Cordillera Bike 2","properties":{"serviceRental":"yes","serviceRepair":"yes"},"sourceId":"osm"},{"categories":["shop","repair","hire"],"id":"osm:node:2467504999","latitude":37.9955294,"longitude":-1.1334681,"name":"JC1 Bike Shop","properties":{"serviceRental":"yes","serviceRepair":"yes"},"sourceId":"osm"},{"categories":["hire"],"id":"osm:node:3407718488","latitude":37.9693897,"longitude":-1.1309277,"name":"MUyBICI: Paseo Florencia 1","properties":{"operator":"UTE MuyBici servicio público de transporte con bicicleta de Murcia"},"sourceId":"osm"},{"categories":["hire"],"id":"osm:node:3407718490","latitude":37.9750163,"longitude":-1.1313001,"name":"MuyBici: Estación R.E.N.F.E.","properties":{"operator":"UTE MuyBici servicio público de transporte con bicicleta de Murcia"},"sourceId":"osm"},{"categories":["hire"],"id":"osm:node:3407718491","latitude":37.9758748,"longitude":-1.1206439,"name":"MUyBICI: Avd Pío Baroja","properties":{"operator":"UTE MuyBici servicio público de transporte con bicicleta de Murcia"},"sourceId":"osm"},{"categories":["hire"],"id":"osm:node:3407718492","latitude":37.9781904,"longitude":-1.1250862,"name":"MUyBICI: Juan Ramón Jiménez","properties":{"operator":"UTE MuyBici servicio público de transporte con bicicleta de Murcia."},"sourceId":"osm"},{"categories":["hire"],"id":"osm:node:3407724594","latitude":37.9773224,"longitude":-1.1134972,"name":"MUyBICI: Ciudad de la Justicia","properties":{"operator":"UTE MuyBici servicio público de transporte con bicicleta de Murcia"},"sourceId":"osm"},{"categories":["hire"],"id":"osm:node:3407724595","latitude":37.9797519,"longitude":-1.1300523,"name":"MUyBICI: Jardín de Floridablanca","properties":{"operator":"UTE MuyBici servicio público de transporte con bicicleta de Murcia"},"sourceId":"osm"},{"categories":["hire"],"id":"osm:node:3407724596","latitude":37.9804013,"longitude":-1.1193347,"name":"MUyBICI: Avd S.Juan de la Cruz","properties":{"operator":"UTE MuyBici servicio público de transporte con bicicleta de Murcia","website":"https://www.muybici.org/"},"sourceId":"osm"},{"categories":["hire"],"id":"osm:node:3407724597","latitude":37.9820474,"longitude":-1.1214743,"name":"MUyBICI: Hospital Reina Sofía","properties":{"operator":"UTE MuyBici servicio público de transporte con bicicleta de Murcia"},"sourceId":"osm"},{"categories":["hire"],"id":"osm:node:3407724599","latitude":37.9846394,"longitude":-1.1285821,"name":"MUyBICI: Plaza de la Cruz","properties":{},"sourceId":"osm"},{"categories":["hire"],"id":"osm:node:3407724600","latitude":37.9853275,"longitude":-1.1233156,"name":"MUyBICI: Ronda de Garay","properties":{},"sourceId":"osm"},{"categories":["hire"],"id":"osm:node:3407724601","latitude":37.9850671,"longitude":-1.132946,"name":"MUyBICI: Santa Catalina","properties":{},"sourceId":"osm"},{"categories":["hire"],"id":"osm:node:3407724603","latitude":37.9864402,"longitude":-1.1270935,"name":"MUyBICI: Plaza de Europa","properties":{},"sourceId":"osm"},{"categories":["hire"],"id":"osm:node:3407724604","latitude":37.9860917,"longitude":-1.1318915,"name":"MUyBICI: Santa Isabel","properties":{},"sourceId":"osm"},{"categories":["hire"],"id":"osm:node:3407724605","latitude":37.9863752,"longitude":-1.139686,"name":"MUyBICI: Estación de Autobuses","properties":{},"sourceId":"osm"},{"categories":["hire"],"id":"osm:node:3407724607","latitude":37.9882766,"longitude":-1.126515,"name":"MUyBICI: Plaza de la Merced 1","properties":{},"sourceId":"osm"},{"categories":["hire"],"id":"osm:node:3407724608","latitude":37.9876868,"longitude":-1.120094,"name":"MUyBICI: Avd La Fama","properties":{},"sourceId":"osm"},{"categories":["hire"],"id":"osm:node:3407724609","latitude":37.9905039,"longitude":-1.1341054,"name":"MUyBICI: Avd de la Libertad","properties":{},"sourceId":"osm"},{"categories":["hire"],"id":"osm:node:3407724611","latitude":37.9942376,"longitude":-1.1320701,"name":"MUyBICI: Avd Juan Carlos I","properties":{},"sourceId":"osm"},{"categories":["hire"],"id":"osm:node:3407724612","latitude":37.9930873,"longitude":-1.1418215,"name":"MUyBICI: Plaza de Castilla","properties":{},"sourceId":"osm"},{"categories":["hire"],"id":"osm:node:3407724613","latitude":37.9923628,"longitude":-1.113984,"name":"MUyBICI: Palacio de Deportes","properties":{},"sourceId":"osm"},{"categories":["hire"],"id":"osm:node:3407724614","latitude":37.9942801,"longitude":-1.1347176,"name":"MUyBICI: Calle Auditorium","properties":{},"sourceId":"osm"},{"categories":["hire"],"id":"osm:node:3407724617","latitude":37.9943132,"longitude":-1.1250433,"name":"MUyBICI: Juan de Borbón","properties":{},"sourceId":"osm"},{"categories":["hire"],"id":"osm:node:3455995858","latitude":37.9918095,"longitude":-1.129619,"name":"MUyBICI: Plaza Circular","properties":{},"sourceId":"osm"},{"categories":["hire"],"id":"osm:node:3468346537","latitude":37.9951565,"longitude":-1.1210923,"name":"MUyBICI: CD La Flota","properties":{},"sourceId":"osm"},{"categories":["shop","repair","hire"],"id":"osm:node:3471161620","latitude":37.9891002,"longitude":-1.1265026,"name":"Bicicletas Puerta Nueva","properties":{"serviceRental":"yes","serviceRepair":"yes","website":"https://www.bicicletaspuertanueva.com/"},"sourceId":"osm"},{"categories":["hire"],"id":"osm:node:3876754443","latitude":37.9687678,"longitude":-1.1337198,"name":"MUyBICI: Paseo Florencia 2","properties":{"network":"UTE MuyBici servicio público de transporte con bicicleta de Murcia"},"sourceId":"osm"},{"categories":["hire"],"id":"osm:node:3876791169","latitude":37.992578,"longitude":-1.1336899,"name":"MUyBICI: Hospital La Vega","properties":{},"sourceId":"osm"},{"categories":["hire"],"id":"osm:node:3876791170","latitude":37.9882269,"longitude":-1.1252168,"name":"MUyBICI: Plaza de la Merced 2","properties":{},"sourceId":"osm"},{"categories":["hire"],"id":"osm:node:3876791171","latitude":37.9877931,"longitude":-1.1303955,"name":"MUyBICI: Santo Domingo","properties":{},"sourceId":"osm"},{"categories":["hire"],"id":"osm:node:3876836014","latitude":37.9815302,"longitude":-1.1143748,"name":"MUyBICI: Avd. Primero de Mayo","properties":{"operator":"UTE MuyBici servicio público de transporte con bicicleta de Murcia"},"sourceId":"osm"},{"categories":["hire"],"id":"osm:node:3876836017","latitude":37.988657,"longitude":-1.1322728,"name":"MUyBICI: Gran Vía","properties":{},"sourceId":"osm"},{"categories":["hire"],"id":"osm:node:3876836021","latitude":37.9892099,"longitude":-1.1388097,"name":"MUyBICI: La Seda","properties":{},"sourceId":"osm"},{"categories":["hire"],"id":"osm:node:3876836023","latitude":37.9828147,"longitude":-1.1384388,"name":"MUyBICI: Malecón","properties":{"operator":"UTE MuyBici servicio público de transporte con bicicleta de Murcia"},"sourceId":"osm"},{"categories":["hire"],"id":"osm:node:3876836025","latitude":37.9831468,"longitude":-1.1336259,"name":"MUyBICI: Plano de San Francisco","properties":{"operator":"UTE MuyBici servicio público de transporte con bicicleta de Murcia"},"sourceId":"osm"},{"categories":["hire"],"id":"osm:node:3876836026","latitude":37.9929569,"longitude":-1.1311876,"name":"MUyBICI: Plaza Circular 2","properties":{},"sourceId":"osm"},{"categories":["hire"],"id":"osm:node:3876836027","latitude":37.9915213,"longitude":-1.1252233,"name":"MUyBICI: Plaza Juan XXIII","properties":{},"sourceId":"osm"},{"categories":["hire"],"id":"osm:node:3876836028","latitude":37.9820341,"longitude":-1.126761,"name":"MUyBICI: Plaza de la Cruz Roja","properties":{"operator":"UTE MuyBici servicio público de transporte con bicicleta de Murcia"},"sourceId":"osm"},{"categories":["hire"],"id":"osm:node:3876836029","latitude":37.9719392,"longitude":-1.1250407,"name":"MUyBICI: Santiago el Mayor","properties":{"operator":"UTE MuyBici servicio público de transporte con bicicleta de Murcia"},"sourceId":"osm"},{"categories":["shop"],"id":"osm:node:4947482721","latitude":37.9774074,"longitude":-1.1048609,"name":"Casa Tornel","properties":{},"sourceId":"osm"},{"categories":["hire"],"id":"osm:node:5094151022","latitude":37.9898811,"longitude":-1.1303802,"name":"MUyBICI: Alfonso X El Sabio","properties":{},"sourceId":"osm"},{"categories":["hire"],"id":"osm:node:5242592463","latitude":37.9782571,"longitude":-1.1337162,"name":"MuyBici: Cuartel de Artilleria","properties":{"operator":"UTE MuyBici servicio público de transporte con bicicleta de Murcia"},"sourceId":"osm"},{"categories":["hire"],"id":"osm:node:5242664365","latitude":37.9830182,"longitude":-1.1301896,"name":"MUyBICI: Glorieta de España","properties":{"operator":"UTE MuyBici servicio público de transporte con bicicleta de Murcia."},"sourceId":"osm"},{"categories":["hire"],"id":"osm:node:6912144246","latitude":37.9881069,"longitude":-1.1367661,"name":"SOBIKES (Southern Bike Escape) / Entre Tierras","properties":{"openingHours":"Mo-Fr 09:30-14:00,16:30-20:00; Sa 09:30-13:30","operator":"SOBIKES","website":"https://www.sobikes.com/"},"sourceId":"osm"},{"categories":["shop","repair","hire"],"id":"osm:node:6912144247","latitude":37.9881102,"longitude":-1.1367455,"name":"Bicicletas Naga","properties":{"openingHours":"Mo-Fr 09:30-14:00,16:30-20:00; Sa 09:30-13:30","operator":"Bicicletas Naga","servicePump":"yes","serviceRental":"yes","serviceRepair":"yes","serviceTools":"yes","website":"https://www.bicicletasnaga.es/"},"sourceId":"osm"},{"categories":["shop"],"id":"osm:way:588459797","latitude":37.9564387,"longitude":-1.1361043800000001,"name":"Bicycle shop","properties":{},"sourceId":"osm"}],"schemaVersion":2}
