{"key":"12/2063/1341","points":[{"categories":["hire"],"id":"osm:node:12692615741","latitude":52.6114341,"longitude":1.3209854,"name":"Cycle hire","properties":{},"sourceId":"osm"},{"categories":["hire"],"id":"osm:node:7598971786","latitude":52.626642,"longitude":1.3258267,"name":"Beryl Bikes","properties":{"network":"Beryl Bikes"},"sourceId":"osm"},{"categories":["hire"],"id":"osm:node:8355747465","latitude":52.6352493,"longitude":1.3218923,"name":"Beryl Bikes","properties":{"network":"Beryl Bikes"},"sourceId":"osm"},{"categories":["hire"],"id":"osm:node:8693708907","latitude":52.6268493,"longitude":1.3259354,"name":"Broadland District Council","properties":{"fee":"yes","network":"Beryl - Norwich","operator":"Beryl"},"sourceId":"osm"},{"categories":["hire"],"id":"osm:node:8693708911","latitude":52.6413879,"longitude":1.337095,"name":"Witard Road","properties":{"fee":"yes","network":"Beryl - Norwich","operator":"Beryl"},"sourceId":"osm"},{"categories":["hire"],"id":"osm:node:8693709121","latitude":52.6211433,"longitude":1.330104,"name":"Whitlingham Country Park","properties":{"fee":"yes","network":"Beryl - Norwich","operator":"Beryl"},"sourceId":"osm"},{"categories":["hire"],"id":"osm:node:8693709363","latitude":52.6283035,"longitude":1.357739,"name":"Yarmouth Road Mobility Hub","properties":{"fee":"yes","network":"Beryl - Norwich","operator":"Beryl"},"sourceId":"osm"},{"categories":["hire"],"id":"osm:node:8693709387","latitude":52.6352768,"longitude":1.322001,"name":"Plumstead Road Library","properties":{"fee":"yes","network":"Beryl - Norwich","operator":"Beryl"},"sourceId":"osm"},{"categories":["hire"],"id":"osm:node:8693709396","latitude":52.6292686,"longitude":1.371848,"name":"Broadland Business Park","properties":{"fee":"yes","network":"Beryl - Norwich","operator":"Beryl"},"sourceId":"osm"},{"categories":["hire"],"id":"osm:node:9613076847","latitude":52.6262703,"longitude":1.341083,"name":"South Avenue","properties":{"fee":"yes","network":"Beryl - Norwich","operator":"Beryl"},"sourceId":"osm"},{"categories":["hire"],"id":"osm:node:9613076853","latitude":52.6412354,"longitude":1.328115,"name":"Heartsease Lane","properties":{"fee":"yes","network":"Beryl - Norwich","operator":"Beryl"},"sourceId":"osm"},{"categories":["hire"],"id":"osm:node:9613076855","latitude":52.6318588,"longitude":1.32627,"name":"Pilling Park","properties":{"brand":"Beryl","fee":"yes","network":"Beryl","operator":"Beryl"},"sourceId":"osm"},{"categories":["hire"],"id":"osm:node:9613076856","latitude":52.6395683,"longitude":1.365232,"name":"Dussindale Drive North","properties":{"fee":"yes","network":"Beryl - Norwich","operator":"Beryl"},"sourceId":"osm"},{"categories":["hire"],"id":"osm:node:9613076857","latitude":52.6334114,"longitude":1.361879,"name":"Dussindale Drive South","properties":{"fee":"yes","network":"Beryl - Norwich","operator":"Beryl"},"sourceId":"osm"}],"schemaVersion":2}
