{"key":"12/2032/1300","points":[{"id":"osm:node:10126192864","latitude":54.7623048,"longitude":-1.368588,"name":"Shotton Road near White House Way","properties":{"access":"customers","bicycle_pa":"","capacity":5,"covered":"","fee":"","operator":"","nameSource":"junction"},"sourceId":"osm"},{"id":"osm:node:12980134128","latitude":54.7601571,"longitude":-1.3335877,"name":"The Chare by Asda","properties":{"access":"customers","bicycle_pa":"stands","capacity":8,"covered":"no","fee":"no","operator":"","nameSource":"landmark"},"sourceId":"osm"},{"id":"osm:node:1958762281","latitude":54.7593738,"longitude":-1.3375247,"name":"Burnhope Way near Bede Way","properties":{"access":"unknown","bicycle_pa":"","capacity":6,"covered":"","fee":"","operator":"","nameSource":"junction"},"sourceId":"osm"},{"id":"osm:node:2667748710","latitude":54.7597354,"longitude":-1.3354679,"name":"Yoden Way by Peterlee Bus Station","properties":{"access":"unknown","bicycle_pa":"","capacity":0,"covered":"","fee":"","operator":"","nameSource":"landmark"},"sourceId":"osm"},{"id":"osm:node:4618812475","latitude":54.7492664,"longitude":-1.3541236,"name":"Passfield Way cycle parking","properties":{"access":"unknown","bicycle_pa":"stands","capacity":0,"covered":"yes","fee":"","operator":"","nameSource":"street"},"sourceId":"osm"},{"id":"osm:node:4618812476","latitude":54.7498934,"longitude":-1.3533002,"name":"Passfield Way cycle parking","properties":{"access":"unknown","bicycle_pa":"stands","capacity":0,"covered":"yes","fee":"","operator":"","nameSource":"street"},"sourceId":"osm"}],"schemaVersion":2}
