{"key":"12/2032/1305","points":[{"id":"osm:node:10284570185","latitude":54.5101754,"longitude":-1.354873,"name":"High Street near Silver Street","properties":{"access":"yes","bicycle_pa":"stands","capacity":4,"covered":"no","fee":"","operator":"","nameSource":"junction"},"sourceId":"osm"},{"id":"osm:node:10579227107","latitude":54.5179377,"longitude":-1.3196595,"name":"Barwick Lane cycle parking","properties":{"access":"private","bicycle_pa":"","capacity":0,"covered":"yes","fee":"","operator":"","nameSource":"street"},"sourceId":"osm"},{"id":"osm:node:1378781019","latitude":54.4940121,"longitude":-1.3521809,"name":"Green Lane near B1264","properties":{"access":"unknown","bicycle_pa":"stands","capacity":10,"covered":"yes","fee":"no","operator":"","nameSource":"junction"},"sourceId":"osm"},{"id":"osm:way:1156563617","latitude":54.51890362,"longitude":-1.320391,"name":"Blair Avenue near Barwick Lane","properties":{"access":"unknown","bicycle_pa":"shed","capacity":0,"covered":"yes","fee":"no","operator":"Tees Active","nameSource":"junction"},"sourceId":"osm"},{"id":"osm:way:1448107665","latitude":54.51675786,"longitude":-1.35976742,"name":"Urlay Nook Road by Male Changing Room","properties":{"access":"unknown","bicycle_pa":"shed","capacity":0,"covered":"","fee":"","operator":"","nameSource":"landmark"},"sourceId":"osm"},{"id":"osm:way:1453210296","latitude":54.506685219999994,"longitude":-1.3525291799999999,"name":"The Spital by Yarm School","properties":{"access":"unknown","bicycle_pa":"shed","capacity":0,"covered":"","fee":"","operator":"","nameSource":"landmark"},"sourceId":"osm"},{"id":"osm:way:1453210297","latitude":54.50658258000001,"longitude":-1.35244784,"name":"Yarm School cycle parking","properties":{"access":"unknown","bicycle_pa":"shed","capacity":0,"covered":"","fee":"","operator":"","nameSource":"landmark"},"sourceId":"osm"}],"schemaVersion":2}
