{"key":"12/2032/1325","points":[{"id":"osm:node:8323940909","latitude":53.4431336,"longitude":-1.3434796,"name":"Boots cycle parking","properties":{"access":"yes","bicycle_pa":"lockers","capacity":3,"covered":"yes","fee":"no","operator":"private","nameSource":"landmark"},"sourceId":"osm"},{"id":"osm:node:8323940914","latitude":53.4536886,"longitude":-1.3723019,"name":"Greenside near Munsbrough Rise","properties":{"access":"yes","bicycle_pa":"stands","capacity":6,"covered":"yes","fee":"no","operator":"private","nameSource":"junction"},"sourceId":"osm"},{"id":"osm:node:8333094696","latitude":53.4443133,"longitude":-1.3431518,"name":"Stadium Way by Nike Factory Store","properties":{"access":"yes","bicycle_pa":"stands","capacity":8,"covered":"no","fee":"no","operator":"private","nameSource":"landmark"},"sourceId":"osm"},{"id":"osm:node:8333094697","latitude":53.4493784,"longitude":-1.3432304,"name":"Beale Way near Rail Mill Way","properties":{"access":"yes","bicycle_pa":"stands","capacity":6,"covered":"no","fee":"no","operator":"private","nameSource":"junction"},"sourceId":"osm"},{"id":"osm:node:8333094698","latitude":53.4504616,"longitude":-1.3453133,"name":"Broad Street by Asda","properties":{"access":"yes","bicycle_pa":"stands","capacity":8,"covered":"no","fee":"no","operator":"private","nameSource":"landmark"},"sourceId":"osm"},{"id":"osm:node:8333094699","latitude":53.4505897,"longitude":-1.3441914,"name":"Broad Street near Foundry Street","properties":{"access":"yes","bicycle_pa":"stands","capacity":10,"covered":"no","fee":"no","operator":"private","nameSource":"junction"},"sourceId":"osm"}],"schemaVersion":2}
