{"key":"12/2032/1336","points":[{"id":"osm:node:1436690410","latitude":52.8972136,"longitude":-1.3185052,"name":"Main Street near Church View","properties":{"access":"unknown","bicycle_pa":"stands","capacity":4,"covered":"no","fee":"","operator":"","nameSource":"junction"},"sourceId":"osm"},{"id":"osm:node:3913733594","latitude":52.869798,"longitude":-1.339989,"name":"Wilne Lane near The Maltings","properties":{"access":"unknown","bicycle_pa":"stands","capacity":4,"covered":"no","fee":"","operator":"","nameSource":"junction"},"sourceId":"osm"},{"id":"osm:node:3914951335","latitude":52.8685219,"longitude":-1.346216,"name":"London Road cycle parking","properties":{"access":"unknown","bicycle_pa":"stands","capacity":6,"covered":"no","fee":"","operator":"","nameSource":"street"},"sourceId":"osm"},{"id":"osm:node:3916273416","latitude":52.9070965,"longitude":-1.3811969,"name":"Victoria Avenue near Derby Road","properties":{"access":"unknown","bicycle_pa":"stands","capacity":10,"covered":"no","fee":"","operator":"","nameSource":"junction"},"sourceId":"osm"},{"id":"osm:node:8618236118","latitude":52.89292,"longitude":-1.3961602,"name":"St Bartholomew's, Elvaston cycle parking","properties":{"access":"yes","bicycle_pa":"wall_loops","capacity":13,"covered":"no","fee":"","operator":"","nameSource":"landmark"},"sourceId":"osm"},{"id":"osm:node:8735929627","latitude":52.8939765,"longitude":-1.3900068,"name":"Elvaston cycle parking","properties":{"access":"yes","bicycle_pa":"stands","capacity":10,"covered":"","fee":"","operator":"","nameSource":"place"},"sourceId":"osm"}],"schemaVersion":2}
