{"key":"12/2032/1351","points":[{"id":"osm:node:10968123605","latitude":52.0699475,"longitude":-1.3458495,"name":"Nursery Drive near Ruscote Avenue","properties":{"access":"unknown","bicycle_pa":"shed","capacity":0,"covered":"","fee":"","operator":"","nameSource":"junction"},"sourceId":"osm"},{"id":"osm:node:11384973728","latitude":52.0626613,"longitude":-1.3359867,"name":"Market Place near Parsons Street","properties":{"access":"unknown","bicycle_pa":"stands","capacity":6,"covered":"no","fee":"","operator":"","nameSource":"junction"},"sourceId":"osm"},{"id":"osm:node:11384973729","latitude":52.0625034,"longitude":-1.3358897,"name":"Market Place near Parsons Street","properties":{"access":"unknown","bicycle_pa":"wall_loops","capacity":2,"covered":"no","fee":"","operator":"","nameSource":"junction"},"sourceId":"osm"},{"id":"osm:node:12817777672","latitude":52.0533802,"longitude":-1.3361083,"name":"Post room cycle parking","properties":{"access":"yes","bicycle_pa":"wall_loops","capacity":4,"covered":"no","fee":"no","operator":"","nameSource":"landmark"},"sourceId":"osm"},{"id":"osm:node:12846835455","latitude":52.0530075,"longitude":-1.3363639,"name":"Hightown Road by Post room","properties":{"access":"permissive","bicycle_pa":"stands","capacity":4,"covered":"no","fee":"no","operator":"","nameSource":"landmark"},"sourceId":"osm"},{"id":"osm:node:12847169257","latitude":52.0537694,"longitude":-1.3349608,"name":"MRI cycle parking","properties":{"access":"permissive","bicycle_pa":"shed","capacity":10,"covered":"yes","fee":"no","operator":"","nameSource":"landmark"},"sourceId":"osm"},{"id":"osm:node:12850536496","latitude":52.0532016,"longitude":-1.3354576,"name":"Hightown Road cycle parking","properties":{"access":"unknown","bicycle_pa":"stands","capacity":4,"covered":"no","fee":"","operator":"","nameSource":"street"},"sourceId":"osm"},{"id":"osm:node:12850573692","latitude":52.0537583,"longitude":-1.3348844,"name":"MRI cycle parking","properties":{"access":"unknown","bicycle_pa":"stands","capacity":5,"covered":"no","fee":"","operator":"","nameSource":"landmark"},"sourceId":"osm"},{"id":"osm:node:12852770132","latitude":52.0532351,"longitude":-1.3353231,"name":"Hightown Road cycle parking","properties":{"access":"unknown","bicycle_pa":"stands","capacity":4,"covered":"no","fee":"","operator":"","nameSource":"street"},"sourceId":"osm"},{"id":"osm:node:12913122875","latitude":52.0617044,"longitude":-1.3657585,"name":"Dover Avenue cycle parking","properties":{"access":"unknown","bicycle_pa":"rack","capacity":6,"covered":"","fee":"","operator":"","nameSource":"street"},"sourceId":"osm"},{"id":"osm:node:13085227210","latitude":52.073551,"longitude":-1.339172,"name":"Lockheed Close by Tesco Extra","properties":{"access":"unknown","bicycle_pa":"","capacity":0,"covered":"yes","fee":"","operator":"","nameSource":"landmark"},"sourceId":"osm"},{"id":"osm:node:2919602823","latitude":52.0606745,"longitude":-1.3267586,"name":"Higham Way near Marshall Road","properties":{"access":"unknown","bicycle_pa":"stands","capacity":10,"covered":"yes","fee":"","operator":"","nameSource":"junction"},"sourceId":"osm"},{"id":"osm:node:2919602829","latitude":52.0609422,"longitude":-1.3268912,"name":"Higham Way near Marshall Road","properties":{"access":"unknown","bicycle_pa":"stands","capacity":16,"covered":"yes","fee":"","operator":"","nameSource":"junction"},"sourceId":"osm"},{"id":"osm:node:5116822451","latitude":52.0766772,"longitude":-1.3206264,"name":"Acorn Way cycle parking","properties":{"access":"unknown","bicycle_pa":"stands","capacity":36,"covered":"yes","fee":"","operator":"","nameSource":"street"},"sourceId":"osm"},{"id":"osm:node:5116822452","latitude":52.0766393,"longitude":-1.3202192,"name":"Acorn Way by Primark","properties":{"access":"unknown","bicycle_pa":"stands","capacity":16,"covered":"yes","fee":"","operator":"","nameSource":"landmark"},"sourceId":"osm"},{"id":"osm:node:5116822453","latitude":52.0768499,"longitude":-1.320466,"name":"Acorn Way by Primark","properties":{"access":"unknown","bicycle_pa":"stands","capacity":40,"covered":"yes","fee":"","operator":"","nameSource":"landmark"},"sourceId":"osm"},{"id":"osm:node:676397115","latitude":52.0608193,"longitude":-1.3285766,"name":"Station Approach near Station Road","properties":{"access":"unknown","bicycle_pa":"","capacity":52,"covered":"no","fee":"","operator":"","nameSource":"junction"},"sourceId":"osm"},{"id":"osm:node:6809924412","latitude":52.0710114,"longitude":-1.3437561,"name":"Beaumont Road near Ruscote Avenue","properties":{"access":"private","bicycle_pa":"","capacity":0,"covered":"","fee":"","operator":"","nameSource":"junction"},"sourceId":"osm"},{"id":"osm:node:7252839799","latitude":52.060757,"longitude":-1.3348854,"name":"Broad Street near George Street","properties":{"access":"unknown","bicycle_pa":"stands","capacity":6,"covered":"no","fee":"","operator":"","nameSource":"junction"},"sourceId":"osm"},{"id":"osm:node:7273108707","latitude":52.0610971,"longitude":-1.3333123,"name":"Christchurch Court near Crown House","properties":{"access":"unknown","bicycle_pa":"stands","capacity":11,"covered":"no","fee":"","operator":"","nameSource":"junction"},"sourceId":"osm"},{"id":"osm:node:8950482813","latitude":52.0632094,"longitude":-1.336015,"name":"Castle Street by Cornhill Centre and Cafe","properties":{"access":"unknown","bicycle_pa":"","capacity":0,"covered":"","fee":"","operator":"","nameSource":"landmark"},"sourceId":"osm"},{"id":"osm:node:9906014140","latitude":52.0608188,"longitude":-1.3269156,"name":"Higham Way near Marshall Road","properties":{"access":"unknown","bicycle_pa":"stands","capacity":12,"covered":"yes","fee":"","operator":"","nameSource":"junction"},"sourceId":"osm"},{"id":"osm:way:930220570","latitude":52.05554998,"longitude":-1.3418877999999999,"name":"Harriers View cycle parking","properties":{"access":"private","bicycle_pa":"shed","capacity":0,"covered":"yes","fee":"no","operator":"","nameSource":"street"},"sourceId":"osm"},{"id":"osm:way:957905885","latitude":52.06062382,"longitude":-1.32850042,"name":"Station Road near Station Approach","properties":{"access":"yes","bicycle_pa":"shed","capacity":88,"covered":"yes","fee":"no","operator":"","nameSource":"junction"},"sourceId":"osm"},{"id":"osm:way:957905886","latitude":52.06077835999999,"longitude":-1.32862904,"name":"Station Approach near Station Road","properties":{"access":"yes","bicycle_pa":"shed","capacity":88,"covered":"yes","fee":"no","operator":"","nameSource":"junction"},"sourceId":"osm"}],"schemaVersion":2}
