{"key":"12/2032/1367","points":[{"id":"osm:node:1136080223","latitude":51.2301347,"longitude":-1.3410077,"name":"Bell Street near Bell Yard","properties":{"access":"unknown","bicycle_pa":"stands","capacity":8,"covered":"no","fee":"","operator":"","nameSource":"junction"},"sourceId":"osm"},{"id":"osm:node:1136473915","latitude":51.2299707,"longitude":-1.3391131,"name":"B3400 near Bell Street","properties":{"access":"unknown","bicycle_pa":"stands","capacity":2,"covered":"no","fee":"","operator":"","nameSource":"junction"},"sourceId":"osm"},{"id":"osm:node:1136904987","latitude":51.2299382,"longitude":-1.3389778,"name":"B3400 near Newbury Street","properties":{"access":"unknown","bicycle_pa":"stands","capacity":4,"covered":"no","fee":"","operator":"","nameSource":"junction"},"sourceId":"osm"},{"id":"osm:node:1136904988","latitude":51.2299157,"longitude":-1.3393135,"name":"Bell Street near Town Hall Court","properties":{"access":"yes","bicycle_pa":"stands","capacity":1,"covered":"no","fee":"","operator":"","nameSource":"junction"},"sourceId":"osm"},{"id":"osm:node:1288299018","latitude":51.2279657,"longitude":-1.338676,"name":"Gill Nethercott Cycle Parking","properties":{"access":"unknown","bicycle_pa":"","capacity":4,"covered":"yes","fee":"","operator":"","nameSource":"source"},"sourceId":"osm"},{"id":"osm:node:1852025140","latitude":51.2268081,"longitude":-1.3363259,"name":"Rec Cycle hoops","properties":{"access":"unknown","bicycle_pa":"stands","capacity":4,"covered":"no","fee":"","operator":"","nameSource":"source"},"sourceId":"osm"}],"schemaVersion":2}
