{"key":"12/1859/1710","points":[{"categories":["shop","repair"],"id":"osm:node:10736057682","latitude":28.3982158,"longitude":-16.5779487,"name":"Gofi's Bici","properties":{"openingHours":"Mo-Fr 10:00-14:00; 17:00-20:30; Sa,Su,PH off","serviceRepair":"yes","website":"https://www.gofisbici.es/"},"sourceId":"osm"},{"categories":["hire"],"id":"osm:node:10736064983","latitude":28.4115199,"longitude":-16.5527158,"name":"Basti's Bike Rental","properties":{"openingHours":"Mo-Fr,Sa 16:00-19:00","website":"https://www.rennradvermietung-puertodelacruz.com/"},"sourceId":"osm"},{"categories":["shop","hire"],"id":"osm:node:13936935117","latitude":28.4150481,"longitude":-16.5461992,"name":"Teide Bike","properties":{"serviceRental":"yes","website":"https://teidecycling.com/"},"sourceId":"osm"},{"categories":["shop","hire"],"id":"osm:node:13936935118","latitude":28.4160489,"longitude":-16.5486988,"name":"rent electric bike","properties":{"serviceRental":"yes","website":"https://bikeandsun.es/"},"sourceId":"osm"},{"categories":["hire"],"id":"osm:node:5225335925","latitude":28.4115823,"longitude":-16.5595014,"name":"Ride Base","properties":{},"sourceId":"osm"},{"categories":["shop"],"id":"osm:node:5275770758","latitude":28.3862717,"longitude":-16.5848916,"name":"Tenemobis","properties":{},"sourceId":"osm"},{"categories":["hire"],"id":"osm:node:9447210018","latitude":28.4132029,"longitude":-16.5425811,"name":"Electric Cycles Tenerife","properties":{"website":"https://www.ecrider.es/es/"},"sourceId":"osm"}],"schemaVersion":2}
