{"key":"12/1972/1326","points":[{"id":"osm:node:12709842531","latitude":53.4004036,"longitude":-6.6670884,"name":"Church Lane near The Square","properties":{"access":"unknown","bicycle_pa":"stands","capacity":12,"covered":"no","fee":"","operator":"","nameSource":"junction"},"sourceId":"osm"},{"id":"osm:node:1308910626","latitude":53.3843779,"longitude":-6.6029901,"name":"Maynooth University (North Campus) Chargers cycle parking","properties":{"access":"unknown","bicycle_pa":"stands","capacity":14,"covered":"yes","fee":"","operator":"","nameSource":"landmark"},"sourceId":"osm"},{"id":"osm:node:13119094990","latitude":53.3937691,"longitude":-6.5994397,"name":"Moyglare Road by Gaelscoil Ruairí","properties":{"access":"unknown","bicycle_pa":"","capacity":0,"covered":"","fee":"","operator":"","nameSource":"landmark"},"sourceId":"osm"},{"id":"osm:node:13257550513","latitude":53.399867,"longitude":-6.6679716,"name":"Butlers Lane near School Street","properties":{"access":"customers","bicycle_pa":"wall_loops","capacity":0,"covered":"no","fee":"no","operator":"","nameSource":"junction"},"sourceId":"osm"},{"id":"osm:node:2297208196","latitude":53.3984513,"longitude":-6.6653339,"name":"Royal Canal Greenway by Lidl","properties":{"access":"permissive","bicycle_pa":"anchors","capacity":5,"covered":"no","fee":"no","operator":"Lidl Ireland GmbH","nameSource":"landmark"},"sourceId":"osm"},{"id":"osm:node:2324123990","latitude":53.3861988,"longitude":-6.598165,"name":"River Apartments near University Village Apartments","properties":{"access":"unknown","bicycle_pa":"","capacity":0,"covered":"","fee":"","operator":"","nameSource":"junction"},"sourceId":"osm"},{"id":"osm:node:3801457482","latitude":53.4004397,"longitude":-6.6669135,"name":"Church Lane near The Square","properties":{"access":"unknown","bicycle_pa":"","capacity":0,"covered":"","fee":"","operator":"","nameSource":"junction"},"sourceId":"osm"},{"id":"osm:node:391294707","latitude":53.3850589,"longitude":-6.6033658,"name":"Maynooth University (North Campus) Chargers cycle parking","properties":{"access":"unknown","bicycle_pa":"stands","capacity":0,"covered":"","fee":"","operator":"","nameSource":"landmark"},"sourceId":"osm"},{"id":"osm:node:395253911","latitude":53.385806,"longitude":-6.5970467,"name":"University Village Apartments cycle parking","properties":{"access":"unknown","bicycle_pa":"rack","capacity":24,"covered":"no","fee":"","operator":"","nameSource":"street"},"sourceId":"osm"},{"id":"osm:node:405791221","latitude":53.3836889,"longitude":-6.6009973,"name":"The Little Coffee Co. Maynooth cycle parking","properties":{"access":"permissive","bicycle_pa":"stands","capacity":108,"covered":"no","fee":"","operator":"","nameSource":"landmark"},"sourceId":"osm"},{"id":"osm:node:408014165","latitude":53.383594,"longitude":-6.601843,"name":"The Little Coffee Co. Maynooth cycle parking","properties":{"access":"unknown","bicycle_pa":"","capacity":0,"covered":"","fee":"","operator":"","nameSource":"landmark"},"sourceId":"osm"},{"id":"osm:node:409093354","latitude":53.3863603,"longitude":-6.6001903,"name":"River Apartments cycle parking","properties":{"access":"unknown","bicycle_pa":"wall_loops","capacity":0,"covered":"","fee":"","operator":"","nameSource":"street"},"sourceId":"osm"},{"id":"osm:node:409093356","latitude":53.3864535,"longitude":-6.6000839,"name":"River Apartments cycle parking","properties":{"access":"unknown","bicycle_pa":"wall_loops","capacity":0,"covered":"","fee":"","operator":"","nameSource":"street"},"sourceId":"osm"},{"id":"osm:node:4538387760","latitude":53.3855288,"longitude":-6.6018218,"name":"Eolas Bike Parking","properties":{"access":"permissive","bicycle_pa":"stands","capacity":30,"covered":"yes","fee":"","operator":"","nameSource":"source"},"sourceId":"osm"},{"id":"osm:node:458416167","latitude":53.3845374,"longitude":-6.598866,"name":"Créche cycle parking","properties":{"access":"unknown","bicycle_pa":"","capacity":0,"covered":"","fee":"","operator":"","nameSource":"landmark"},"sourceId":"osm"},{"id":"osm:node:4713483134","latitude":53.3852932,"longitude":-6.598857,"name":"Créche cycle parking","properties":{"access":"unknown","bicycle_pa":"","capacity":0,"covered":"","fee":"","operator":"","nameSource":"landmark"},"sourceId":"osm"},{"id":"osm:node:471972163","latitude":53.3839168,"longitude":-6.5948918,"name":"Moyglare Road cycle parking","properties":{"access":"unknown","bicycle_pa":"","capacity":0,"covered":"","fee":"","operator":"","nameSource":"street"},"sourceId":"osm"},{"id":"osm:node:644658664","latitude":53.3835564,"longitude":-6.5977521,"name":"Student Medical Centre cycle parking","properties":{"access":"unknown","bicycle_pa":"","capacity":4,"covered":"","fee":"","operator":"","nameSource":"landmark"},"sourceId":"osm"},{"id":"osm:node:824551858","latitude":53.3844693,"longitude":-6.6002084,"name":"Maynooth University North Campus cycle parking","properties":{"access":"unknown","bicycle_pa":"stands","capacity":16,"covered":"yes","fee":"","operator":"","nameSource":"landmark"},"sourceId":"osm"},{"id":"osm:node:824573912","latitude":53.383482,"longitude":-6.5975452,"name":"Student Medical Centre cycle parking","properties":{"access":"unknown","bicycle_pa":"","capacity":4,"covered":"","fee":"","operator":"","nameSource":"landmark"},"sourceId":"osm"},{"id":"osm:way:1216893572","latitude":53.39376432,"longitude":-6.5993436,"name":"Moyglare Hall by Gaelscoil Ruairí","properties":{"access":"private","bicycle_pa":"rack","capacity":0,"covered":"no","fee":"","operator":"","nameSource":"landmark"},"sourceId":"osm"},{"id":"osm:way:1216893573","latitude":53.39380190000001,"longitude":-6.5992047,"name":"Moyglare Hall by Gaelscoil Ruairí","properties":{"access":"private","bicycle_pa":"rack","capacity":0,"covered":"no","fee":"","operator":"","nameSource":"landmark"},"sourceId":"osm"},{"id":"osm:way:1272598320","latitude":53.38368686,"longitude":-6.595097300000001,"name":"Moyglare Road by Saint Mary's Boys' National School Maynooth","properties":{"access":"unknown","bicycle_pa":"","capacity":0,"covered":"","fee":"","operator":"","nameSource":"landmark"},"sourceId":"osm"},{"id":"osm:way:1389901435","latitude":53.394575999999994,"longitude":-6.597513879999999,"name":"Moyglare Hall cycle parking","properties":{"access":"unknown","bicycle_pa":"","capacity":0,"covered":"yes","fee":"","operator":"","nameSource":"street"},"sourceId":"osm"},{"id":"osm:way:1389901436","latitude":53.39536812,"longitude":-6.59950582,"name":"Moyglare Road cycle parking","properties":{"access":"unknown","bicycle_pa":"","capacity":0,"covered":"yes","fee":"","operator":"","nameSource":"street"},"sourceId":"osm"},{"id":"osm:way:474377435","latitude":53.38554068,"longitude":-6.60180158,"name":"Eolas Bike Parking","properties":{"access":"permissive","bicycle_pa":"stands","capacity":30,"covered":"yes","fee":"","operator":"","nameSource":"source"},"sourceId":"osm"}],"schemaVersion":2}
