{"key":"12/2062/1338","points":[{"id":"osm:node:12778458499","latitude":52.7897477,"longitude":1.244604,"name":"Mileham Drive near Henry Page Road","properties":{"access":"unknown","bicycle_pa":"wall_loops","capacity":6,"covered":"no","fee":"","operator":"","nameSource":"junction"},"sourceId":"osm"},{"id":"osm:node:12778458500","latitude":52.7897866,"longitude":1.2446275,"name":"Mileham Drive near Henry Page Road","properties":{"access":"unknown","bicycle_pa":"wall_loops","capacity":6,"covered":"no","fee":"","operator":"","nameSource":"junction"},"sourceId":"osm"},{"id":"osm:node:13059610492","latitude":52.795037,"longitude":1.2512197,"name":"Market Place near Penfold Street","properties":{"access":"unknown","bicycle_pa":"stands","capacity":6,"covered":"","fee":"","operator":"","nameSource":"junction"},"sourceId":"osm"},{"id":"osm:node:13059610493","latitude":52.795428,"longitude":1.2518632,"name":"Town Hall Loke near Red Lion Street","properties":{"access":"unknown","bicycle_pa":"stands","capacity":4,"covered":"","fee":"","operator":"","nameSource":"junction"},"sourceId":"osm"},{"id":"osm:node:13059634620","latitude":52.7947633,"longitude":1.2507066,"name":"Hungate Street near Joseph Clover Court","properties":{"access":"unknown","bicycle_pa":"stands","capacity":6,"covered":"","fee":"","operator":"","nameSource":"junction"},"sourceId":"osm"},{"id":"osm:node:13059644870","latitude":52.7965884,"longitude":1.2515005,"name":"Cromer Road near Red Lion Street","properties":{"access":"unknown","bicycle_pa":"stands","capacity":4,"covered":"","fee":"","operator":"","nameSource":"junction"},"sourceId":"osm"},{"id":"osm:node:13059644871","latitude":52.7954429,"longitude":1.2515758,"name":"Town Hall Loke near Red Lion Street","properties":{"access":"unknown","bicycle_pa":"stands","capacity":1,"covered":"","fee":"","operator":"","nameSource":"junction"},"sourceId":"osm"},{"id":"osm:node:13059644872","latitude":52.7954366,"longitude":1.2515095,"name":"Town Hall Loke near Market Place","properties":{"access":"unknown","bicycle_pa":"stands","capacity":1,"covered":"","fee":"","operator":"","nameSource":"junction"},"sourceId":"osm"},{"id":"osm:node:13059672070","latitude":52.7914156,"longitude":1.2547606,"name":"Station Road near Norwich Road","properties":{"access":"unknown","bicycle_pa":"stands","capacity":10,"covered":"","fee":"","operator":"","nameSource":"junction"},"sourceId":"osm"}],"schemaVersion":2}
