{"key":"12/2062/1341","points":[{"id":"osm:node:10073058814","latitude":52.6027246,"longitude":1.2758513,"name":"Marston Lane cycle parking","properties":{"access":"unknown","bicycle_pa":"stands","capacity":6,"covered":"no","fee":"","operator":"","nameSource":"street"},"sourceId":"osm"},{"id":"osm:node:10173600984","latitude":52.6261508,"longitude":1.2672451,"name":"The Avenues cycle parking","properties":{"access":"unknown","bicycle_pa":"stands","capacity":6,"covered":"","fee":"","operator":"","nameSource":"street"},"sourceId":"osm"},{"id":"osm:node:10173600985","latitude":52.6261421,"longitude":1.2671094,"name":"The Avenues cycle parking","properties":{"access":"unknown","bicycle_pa":"stands","capacity":6,"covered":"","fee":"","operator":"","nameSource":"street"},"sourceId":"osm"},{"id":"osm:node:1018132630","latitude":52.621382,"longitude":1.237462,"name":"Education","properties":{"access":"unknown","bicycle_pa":"stands","capacity":40,"covered":"yes","fee":"","operator":"University of East Anglia","nameSource":"source"},"sourceId":"osm"},{"id":"osm:node:10196858974","latitude":52.6385804,"longitude":1.2479735,"name":"Jex Road cycle parking","properties":{"access":"unknown","bicycle_pa":"shed","capacity":0,"covered":"yes","fee":"","operator":"","nameSource":"street"},"sourceId":"osm"},{"id":"osm:node:10196858975","latitude":52.6387369,"longitude":1.247127,"name":"Jex Road near Dereham Road","properties":{"access":"unknown","bicycle_pa":"","capacity":0,"covered":"","fee":"","operator":"","nameSource":"junction"},"sourceId":"osm"},{"id":"osm:node:1020412133","latitude":52.628062,"longitude":1.237636,"name":"Village - Courtyard","properties":{"access":"private","bicycle_pa":"","capacity":80,"covered":"yes","fee":"","operator":"University of East Anglia","nameSource":"source"},"sourceId":"osm"},{"id":"osm:node:1020412161","latitude":52.6206261,"longitude":1.2377676,"name":"Norfolk 2","properties":{"access":"unknown","bicycle_pa":"stands","capacity":8,"covered":"yes","fee":"","operator":"University of East Anglia","nameSource":"source"},"sourceId":"osm"},{"id":"osm:node:1020412173","latitude":52.6213448,"longitude":1.2404037,"name":"Lecture Theatres (Road Level)","properties":{"access":"unknown","bicycle_pa":"stands","capacity":20,"covered":"no","fee":"","operator":"University of East Anglia","nameSource":"source"},"sourceId":"osm"},{"id":"osm:node:1020412179","latitude":52.62884,"longitude":1.235206,"name":"Village - Hawthorn","properties":{"access":"unknown","bicycle_pa":"","capacity":12,"covered":"no","fee":"","operator":"University of East Anglia","nameSource":"source"},"sourceId":"osm"},{"id":"osm:node:1020412215","latitude":52.621928,"longitude":1.245464,"name":"Britten 2","properties":{"access":"unknown","bicycle_pa":"stands","capacity":28,"covered":"yes","fee":"","operator":"University of East Anglia","nameSource":"source"},"sourceId":"osm"},{"id":"osm:node:1020412223","latitude":52.628094,"longitude":1.236488,"name":"Village - Ash","properties":{"access":"unknown","bicycle_pa":"","capacity":10,"covered":"no","fee":"","operator":"University of East Anglia","nameSource":"source"},"sourceId":"osm"},{"id":"osm:node:1020412228","latitude":52.6220721,"longitude":1.2404196,"name":"Post Room (Rear)","properties":{"access":"unknown","bicycle_pa":"stands","capacity":26,"covered":"no","fee":"","operator":"University of East Anglia","nameSource":"source"},"sourceId":"osm"},{"id":"osm:node:1020412232","latitude":52.6210144,"longitude":1.2470579,"name":"Colman 5","properties":{"access":"private","bicycle_pa":"building","capacity":20,"covered":"yes","fee":"","operator":"University of East Anglia","nameSource":"source"},"sourceId":"osm"},{"id":"osm:node:1020412257","latitude":52.6221534,"longitude":1.2420708,"name":"Congregation Hall","properties":{"access":"unknown","bicycle_pa":"stands","capacity":80,"covered":"no","fee":"","operator":"University of East Anglia","nameSource":"source"},"sourceId":"osm"},{"id":"osm:node:1020412265","latitude":52.6212521,"longitude":1.2384456,"name":"Norfolk Road (Road Level)","properties":{"access":"unknown","bicycle_pa":"stands","capacity":24,"covered":"no","fee":"","operator":"University of East Anglia","nameSource":"source"},"sourceId":"osm"},{"id":"osm:node:1020412271","latitude":52.621686,"longitude":1.2463182,"name":"Colman 3","properties":{"access":"private","bicycle_pa":"building","capacity":16,"covered":"yes","fee":"","operator":"University of East Anglia","nameSource":"source"},"sourceId":"osm"},{"id":"osm:node:1020412288","latitude":52.6216319,"longitude":1.2450309,"name":"Colman 1","properties":{"access":"private","bicycle_pa":"building","capacity":16,"covered":"yes","fee":"","operator":"University of East Anglia","nameSource":"source"},"sourceId":"osm"},{"id":"osm:node:1020412290","latitude":52.629081,"longitude":1.235055,"name":"Village - Willow","properties":{"access":"unknown","bicycle_pa":"","capacity":12,"covered":"no","fee":"","operator":"University of East Anglia","nameSource":"source"},"sourceId":"osm"},{"id":"osm:node:1020412292","latitude":52.6216551,"longitude":1.2372976,"name":"ZICER/Education","properties":{"access":"unknown","bicycle_pa":"stands","capacity":6,"covered":"no","fee":"","operator":"University of East Anglia","nameSource":"source"},"sourceId":"osm"},{"id":"osm:node:1020412321","latitude":52.6204551,"longitude":1.239715,"name":"Suffolk 1","properties":{"access":"unknown","bicycle_pa":"stands","capacity":20,"covered":"yes","fee":"","operator":"University of East Anglia","nameSource":"source"},"sourceId":"osm"},{"id":"osm:node:1020412330","latitude":52.6228927,"longitude":1.2467985,"name":"Kett 1","properties":{"access":"unknown","bicycle_pa":"stands","capacity":20,"covered":"yes","fee":"","operator":"University of East Anglia","nameSource":"source"},"sourceId":"osm"},{"id":"osm:node:1020412338","latitude":52.6202188,"longitude":1.236752,"name":"Norfolk 5","properties":{"access":"unknown","bicycle_pa":"stands","capacity":26,"covered":"yes","fee":"","operator":"University of East Anglia","nameSource":"source"},"sourceId":"osm"},{"id":"osm:node:1020412359","latitude":52.6212488,"longitude":1.2348921,"name":"Constable","properties":{"access":"private","bicycle_pa":"shed","capacity":14,"covered":"yes","fee":"","operator":"University of East Anglia","nameSource":"source"},"sourceId":"osm"},{"id":"osm:node:1020412377","latitude":52.6219351,"longitude":1.2403876,"name":"Post Room (Arch)","properties":{"access":"unknown","bicycle_pa":"stands","capacity":20,"covered":"yes","fee":"","operator":"University of East Anglia","nameSource":"source"},"sourceId":"osm"},{"id":"osm:node:1020412413","latitude":52.6225861,"longitude":1.2410045,"name":"Founders' Green 3","properties":{"access":"unknown","bicycle_pa":"stands","capacity":76,"covered":"no","fee":"","operator":"University of East Anglia","nameSource":"source"},"sourceId":"osm"},{"id":"osm:node:1020412417","latitude":52.62105,"longitude":1.2423864,"name":"Music / The Street","properties":{"access":"private","bicycle_pa":"shed","capacity":60,"covered":"yes","fee":"","operator":"University of East Anglia","nameSource":"source"},"sourceId":"osm"},{"id":"osm:node:1020412429","latitude":52.6232217,"longitude":1.2466829,"name":"Medical Centre","properties":{"access":"unknown","bicycle_pa":"stands","capacity":10,"covered":"no","fee":"","operator":"University of East Anglia","nameSource":"source"},"sourceId":"osm"},{"id":"osm:node:1020412462","latitude":52.6213598,"longitude":1.2391179,"name":"ITCS","properties":{"access":"unknown","bicycle_pa":"stands","capacity":40,"covered":"no","fee":"","operator":"University of East Anglia","nameSource":"source"},"sourceId":"osm"},{"id":"osm:node:1020412475","latitude":52.6227277,"longitude":1.2473484,"name":"Kett 2","properties":{"access":"unknown","bicycle_pa":"stands","capacity":10,"covered":"yes","fee":"","operator":"University of East Anglia","nameSource":"source"},"sourceId":"osm"},{"id":"osm:node:1020412483","latitude":52.621656,"longitude":1.238025,"name":"ZICER","properties":{"access":"private","bicycle_pa":"building","capacity":64,"covered":"yes","fee":"","operator":"University of East Anglia","nameSource":"source"},"sourceId":"osm"},{"id":"osm:node:1020412515","latitude":52.6216534,"longitude":1.2427624,"name":"Drama Studio / Nelson","properties":{"access":"unknown","bicycle_pa":"stands","capacity":32,"covered":"no","fee":"","operator":"University of East Anglia","nameSource":"source"},"sourceId":"osm"},{"id":"osm:node:1020412523","latitude":52.623568,"longitude":1.246283,"name":"Nursery","properties":{"access":"unknown","bicycle_pa":"stands","capacity":8,"covered":"no","fee":"","operator":"University of East Anglia","nameSource":"source"},"sourceId":"osm"},{"id":"osm:node:1020412534","latitude":52.6222531,"longitude":1.2474538,"name":"Browne","properties":{"access":"unknown","bicycle_pa":"stands","capacity":10,"covered":"yes","fee":"","operator":"University of East Anglia","nameSource":"source"},"sourceId":"osm"},{"id":"osm:node:1020412578","latitude":52.628501,"longitude":1.236654,"name":"Village - Beech","properties":{"access":"unknown","bicycle_pa":"","capacity":10,"covered":"no","fee":"","operator":"University of East Anglia","nameSource":"source"},"sourceId":"osm"},{"id":"osm:node:1020412582","latitude":52.6208561,"longitude":1.2380566,"name":"Norfolk 1","properties":{"access":"unknown","bicycle_pa":"stands","capacity":26,"covered":"yes","fee":"","operator":"University of East Anglia","nameSource":"source"},"sourceId":"osm"},{"id":"osm:node:1020412586","latitude":52.628811,"longitude":1.237459,"name":"Village - Elm","properties":{"access":"unknown","bicycle_pa":"","capacity":12,"covered":"no","fee":"","operator":"University of East Anglia","nameSource":"source"},"sourceId":"osm"},{"id":"osm:node:1020412607","latitude":52.628124,"longitude":1.23616,"name":"Village - Oak","properties":{"access":"unknown","bicycle_pa":"","capacity":11,"covered":"no","fee":"","operator":"University of East Anglia","nameSource":"source"},"sourceId":"osm"},{"id":"osm:node:1020412614","latitude":52.6221571,"longitude":1.2409136,"name":"Arts (Lower Walkway Level)","properties":{"access":"unknown","bicycle_pa":"stands","capacity":92,"covered":"no","fee":"","operator":"University of East Anglia","nameSource":"source"},"sourceId":"osm"},{"id":"osm:node:1020412620","latitude":52.625626,"longitude":1.236992,"name":"Earlham Hall","properties":{"access":"unknown","bicycle_pa":"stands","capacity":10,"covered":"no","fee":"","operator":"","nameSource":"source"},"sourceId":"osm"},{"id":"osm:node:1020412652","latitude":52.620105,"longitude":1.2406852,"name":"Suffolk 4","properties":{"access":"unknown","bicycle_pa":"stands","capacity":26,"covered":"yes","fee":"","operator":"University of East Anglia","nameSource":"source"},"sourceId":"osm"},{"id":"osm:node:1020412654","latitude":52.6220757,"longitude":1.2354141,"name":"Medicine 1","properties":{"access":"unknown","bicycle_pa":"stands","capacity":60,"covered":"yes","fee":"","operator":"University of East Anglia","nameSource":"source"},"sourceId":"osm"},{"id":"osm:node:1020412657","latitude":52.628163,"longitude":1.236681,"name":"Village - Larch","properties":{"access":"unknown","bicycle_pa":"","capacity":10,"covered":"no","fee":"","operator":"University of East Anglia","nameSource":"source"},"sourceId":"osm"},{"id":"osm:node:1020412686","latitude":52.629192,"longitude":1.235114,"name":"Village - Pine","properties":{"access":"unknown","bicycle_pa":"","capacity":12,"covered":"no","fee":"","operator":"University of East Anglia","nameSource":"source"},"sourceId":"osm"},{"id":"osm:node:1020412694","latitude":52.6202914,"longitude":1.2400244,"name":"Suffolk 2","properties":{"access":"unknown","bicycle_pa":"stands","capacity":10,"covered":"yes","fee":"","operator":"University of East Anglia","nameSource":"source"},"sourceId":"osm"},{"id":"osm:node:1020412700","latitude":52.6223301,"longitude":1.2455434,"name":"Paston 2","properties":{"access":"unknown","bicycle_pa":"stands","capacity":32,"covered":"yes","fee":"","operator":"University of East Anglia","nameSource":"source"},"sourceId":"osm"},{"id":"osm:node:1020412727","latitude":52.6226696,"longitude":1.2408277,"name":"Founders' Green 1","properties":{"access":"unknown","bicycle_pa":"stands","capacity":90,"covered":"yes","fee":"","operator":"University of East Anglia","nameSource":"source"},"sourceId":"osm"},{"id":"osm:node:1020412732","latitude":52.6217569,"longitude":1.2330609,"name":"Chancellors Drive near Norfolk Road","properties":{"access":"unknown","bicycle_pa":"stands","capacity":20,"covered":"no","fee":"","operator":"University of East Anglia","nameSource":"junction"},"sourceId":"osm"},{"id":"osm:node:1020412737","latitude":52.6224876,"longitude":1.2414046,"name":"Registry","properties":{"access":"unknown","bicycle_pa":"stands","capacity":42,"covered":"no","fee":"","operator":"University of East Anglia","nameSource":"source"},"sourceId":"osm"},{"id":"osm:node:1020412745","latitude":52.6203721,"longitude":1.2371213,"name":"Norfolk 4","properties":{"access":"unknown","bicycle_pa":"stands","capacity":26,"covered":"yes","fee":"","operator":"University of East Anglia","nameSource":"source"},"sourceId":"osm"},{"id":"osm:node:1020412768","latitude":52.6226079,"longitude":1.2409451,"name":"Founders' Green 2","properties":{"access":"unknown","bicycle_pa":"stands","capacity":88,"covered":"no","fee":"","operator":"University of East Anglia","nameSource":"source"},"sourceId":"osm"},{"id":"osm:node:1020412770","latitude":52.6202339,"longitude":1.2402987,"name":"Suffolk 3","properties":{"access":"unknown","bicycle_pa":"stands","capacity":28,"covered":"yes","fee":"","operator":"University of East Anglia","nameSource":"source"},"sourceId":"osm"},{"id":"osm:node:1020412773","latitude":52.6217126,"longitude":1.2436646,"name":"Nelson","properties":{"access":"unknown","bicycle_pa":"stands","capacity":16,"covered":"no","fee":"","operator":"University of East Anglia","nameSource":"source"},"sourceId":"osm"},{"id":"osm:node:1020412796","latitude":52.6220172,"longitude":1.238317,"name":"Estates","properties":{"access":"unknown","bicycle_pa":"stands","capacity":7,"covered":"no","fee":"","operator":"University of East Anglia","nameSource":"source"},"sourceId":"osm"},{"id":"osm:node:1020412804","latitude":52.6214081,"longitude":1.2390256,"name":"Chemistry Arch","properties":{"access":"private","bicycle_pa":"shed","capacity":36,"covered":"yes","fee":"","operator":"University of East Anglia","nameSource":"source"},"sourceId":"osm"},{"id":"osm:node:1020412811","latitude":52.6208408,"longitude":1.2357302,"name":"Biology 1","properties":{"access":"unknown","bicycle_pa":"stands","capacity":84,"covered":"no","fee":"","operator":"University of East Anglia","nameSource":"source"},"sourceId":"osm"},{"id":"osm:node:1020412833","latitude":52.621659,"longitude":1.2455603,"name":"Colman 2","properties":{"access":"private","bicycle_pa":"building","capacity":20,"covered":"yes","fee":"","operator":"University of East Anglia","nameSource":"source"},"sourceId":"osm"},{"id":"osm:node:1020412839","latitude":52.6205348,"longitude":1.2375064,"name":"Norfolk 3","properties":{"access":"unknown","bicycle_pa":"stands","capacity":26,"covered":"yes","fee":"","operator":"University of East Anglia","nameSource":"source"},"sourceId":"osm"},{"id":"osm:node:1020412843","latitude":52.6224341,"longitude":1.2444518,"name":"Paston 1","properties":{"access":"unknown","bicycle_pa":"stands","capacity":32,"covered":"yes","fee":"","operator":"University of East Anglia","nameSource":"source"},"sourceId":"osm"},{"id":"osm:node:1020412870","latitude":52.6207646,"longitude":1.2359108,"name":"Biology 2","properties":{"access":"unknown","bicycle_pa":"stands","capacity":20,"covered":"yes","fee":"","operator":"University of East Anglia","nameSource":"source"},"sourceId":"osm"},{"id":"osm:node:1020412875","latitude":52.628641,"longitude":1.236772,"name":"Village - Yew","properties":{"access":"unknown","bicycle_pa":"","capacity":11,"covered":"no","fee":"","operator":"University of East Anglia","nameSource":"source"},"sourceId":"osm"},{"id":"osm:node:1020412902","latitude":52.6214217,"longitude":1.2467696,"name":"Colman 4","properties":{"access":"private","bicycle_pa":"building","capacity":16,"covered":"yes","fee":"","operator":"University of East Anglia","nameSource":"source"},"sourceId":"osm"},{"id":"osm:node:1020412912","latitude":52.621393,"longitude":1.240597,"name":"Suffolk Road near Norfolk Road","properties":{"access":"private","bicycle_pa":"stands","capacity":8,"covered":"no","fee":"","operator":"University of East Anglia","nameSource":"junction"},"sourceId":"osm"},{"id":"osm:node:1020412916","latitude":52.6207079,"longitude":1.2359176,"name":"Biology 3","properties":{"access":"unknown","bicycle_pa":"stands","capacity":12,"covered":"no","fee":"","operator":"University of East Anglia","nameSource":"source"},"sourceId":"osm"},{"id":"osm:node:1020412932","latitude":52.6222424,"longitude":1.2437694,"name":"Britten 1","properties":{"access":"unknown","bicycle_pa":"stands","capacity":32,"covered":"yes","fee":"","operator":"University of East Anglia","nameSource":"source"},"sourceId":"osm"},{"id":"osm:node:1026267823","latitude":52.6306584,"longitude":1.2956565,"name":"Saint Georges Street near Princes Street","properties":{"access":"unknown","bicycle_pa":"stands","capacity":2,"covered":"no","fee":"","operator":"","nameSource":"junction"},"sourceId":"osm"},{"id":"osm:node:1026267837","latitude":52.6306842,"longitude":1.2957159,"name":"Saint Georges Street near Princes Street","properties":{"access":"unknown","bicycle_pa":"stands","capacity":4,"covered":"no","fee":"","operator":"","nameSource":"junction"},"sourceId":"osm"},{"id":"osm:node:1026267841","latitude":52.6306754,"longitude":1.295978,"name":"Princes Street near Saint Georges Street","properties":{"access":"unknown","bicycle_pa":"stands","capacity":4,"covered":"no","fee":"","operator":"","nameSource":"junction"},"sourceId":"osm"},{"id":"osm:node:1026667103","latitude":52.6235925,"longitude":1.3086951,"name":"Koblenz Avenue by Timpson","properties":{"access":"private","bicycle_pa":"","capacity":22,"covered":"no","fee":"","operator":"","nameSource":"landmark"},"sourceId":"osm"},{"id":"osm:node:1026667117","latitude":52.6227132,"longitude":1.3071072,"name":"Wherry Road by Costa","properties":{"access":"private","bicycle_pa":"","capacity":12,"covered":"no","fee":"","operator":"","nameSource":"landmark"},"sourceId":"osm"},{"id":"osm:node:1026667130","latitude":52.6233007,"longitude":1.3059964,"name":"Albion Way near Wherry Road","properties":{"access":"private","bicycle_pa":"","capacity":16,"covered":"yes","fee":"","operator":"","nameSource":"junction"},"sourceId":"osm"},{"id":"osm:node:1026667140","latitude":52.6227039,"longitude":1.3081271,"name":"Koblenz Avenue by Nike","properties":{"access":"unknown","bicycle_pa":"","capacity":30,"covered":"no","fee":"","operator":"Norwich City Council","nameSource":"landmark"},"sourceId":"osm"},{"id":"osm:node:1026667146","latitude":52.6245405,"longitude":1.3021673,"name":"Abbey Lane near King Street","properties":{"access":"unknown","bicycle_pa":"","capacity":12,"covered":"no","fee":"","operator":"Norwich City Council","nameSource":"junction"},"sourceId":"osm"},{"id":"osm:node:1026667255","latitude":52.6255988,"longitude":1.3060028,"name":"Koblenz Avenue near Riverside","properties":{"access":"private","bicycle_pa":"","capacity":100,"covered":"yes","fee":"","operator":"","nameSource":"junction"},"sourceId":"osm"},{"id":"osm:node:1026667265","latitude":52.6255085,"longitude":1.3045306,"name":"Wherry Road near Riverside Walk","properties":{"access":"private","bicycle_pa":"","capacity":14,"covered":"no","fee":"","operator":"","nameSource":"junction"},"sourceId":"osm"},{"id":"osm:node:1026667275","latitude":52.6245336,"longitude":1.3064688,"name":"Albion Way by Matalan","properties":{"access":"private","bicycle_pa":"","capacity":22,"covered":"no","fee":"","operator":"","nameSource":"landmark"},"sourceId":"osm"},{"id":"osm:node:1026667309","latitude":52.6241966,"longitude":1.3081747,"name":"Albion Way near Koblenz Avenue","properties":{"access":"private","bicycle_pa":"","capacity":14,"covered":"no","fee":"","operator":"","nameSource":"junction"},"sourceId":"osm"},{"id":"osm:node:1026667408","latitude":52.6294932,"longitude":1.3010032,"name":"Prince of Wales Road by Prince of Wales Road Dental Practice","properties":{"access":"unknown","bicycle_pa":"stands","capacity":12,"covered":"no","fee":"","operator":"Norwich City Council","nameSource":"landmark"},"sourceId":"osm"},{"id":"osm:node:1026667440","latitude":52.6282063,"longitude":1.3038621,"name":"Prince of Wales Road near Eastbourne Place","properties":{"access":"private","bicycle_pa":"","capacity":12,"covered":"no","fee":"","operator":"","nameSource":"junction"},"sourceId":"osm"},{"id":"osm:node:1026667471","latitude":52.6327918,"longitude":1.2998359,"name":"Palace Street near Bedding Lane","properties":{"access":"private","bicycle_pa":"","capacity":10,"covered":"no","fee":"","operator":"","nameSource":"junction"},"sourceId":"osm"},{"id":"osm:node:1026667480","latitude":52.6336965,"longitude":1.3001931,"name":"Pyes Yard near Bedding Lane","properties":{"access":"unknown","bicycle_pa":"","capacity":6,"covered":"no","fee":"","operator":"Norwich City Council","nameSource":"junction"},"sourceId":"osm"},{"id":"osm:node:1026667509","latitude":52.6299556,"longitude":1.2969316,"name":"London Street near Bank Plain","properties":{"access":"unknown","bicycle_pa":"stands","capacity":6,"covered":"no","fee":"","operator":"Norwich City Council","nameSource":"junction"},"sourceId":"osm"},{"id":"osm:node:1026667531","latitude":52.6306751,"longitude":1.2990182,"name":"Tombland near Saint Faith's Lane","properties":{"access":"unknown","bicycle_pa":"stands","capacity":10,"covered":"no","fee":"","operator":"Norwich City Council","nameSource":"junction"},"sourceId":"osm"},{"id":"osm:node:1026667616","latitude":52.6352108,"longitude":1.2965923,"name":"Saint Saviours Alley near Magdalen Street","properties":{"access":"unknown","bicycle_pa":"stands","capacity":6,"covered":"no","fee":"","operator":"Norwich City Council","nameSource":"junction"},"sourceId":"osm"},{"id":"osm:node:1026667635","latitude":52.6355132,"longitude":1.2965346,"name":"Magdalen Street near Saint Saviours Alley","properties":{"access":"unknown","bicycle_pa":"stands","capacity":18,"covered":"no","fee":"","operator":"Norwich City Council","nameSource":"junction"},"sourceId":"osm"},{"id":"osm:node:1026667697","latitude":52.6366591,"longitude":1.2966312,"name":"Magdalen Street near Cowgate","properties":{"access":"unknown","bicycle_pa":"","capacity":22,"covered":"no","fee":"","operator":"Norwich City Council","nameSource":"junction"},"sourceId":"osm"},{"id":"osm:node:1026667820","latitude":52.6305313,"longitude":1.2959697,"name":"Saint Andrews Street near Princes Street","properties":{"access":"private","bicycle_pa":"","capacity":10,"covered":"no","fee":"","operator":"","nameSource":"junction"},"sourceId":"osm"},{"id":"osm:node:1026667829","latitude":52.6316096,"longitude":1.2949199,"name":"Saint Georges Street near Riverside Walk","properties":{"access":"unknown","bicycle_pa":"stands","capacity":12,"covered":"no","fee":"","operator":"Norwich City Council","nameSource":"junction"},"sourceId":"osm"},{"id":"osm:node:1026667844","latitude":52.6320803,"longitude":1.2947976,"name":"Saint Georges Street by St George's Street/Norwich Playhouse","properties":{"access":"unknown","bicycle_pa":"stands","capacity":18,"covered":"no","fee":"","operator":"Norwich City Council","nameSource":"landmark"},"sourceId":"osm"},{"id":"osm:node:1026667862","latitude":52.6311701,"longitude":1.2933285,"name":"Duke Street near Charing Cross","properties":{"access":"unknown","bicycle_pa":"","capacity":14,"covered":"yes","fee":"","operator":"Norwich City Council","nameSource":"junction"},"sourceId":"osm"},{"id":"osm:node:1026667880","latitude":52.6330695,"longitude":1.2951231,"name":"Friars Quay near Colegate","properties":{"access":"unknown","bicycle_pa":"","capacity":6,"covered":"no","fee":"","operator":"Norwich City Council","nameSource":"junction"},"sourceId":"osm"},{"id":"osm:node:1026667946","latitude":52.6306361,"longitude":1.2929029,"name":"Saint John's Alley near Saint John Maddermarket","properties":{"access":"unknown","bicycle_pa":"stands","capacity":6,"covered":"no","fee":"","operator":"Norwich City Council","nameSource":"junction"},"sourceId":"osm"},{"id":"osm:node:1026667956","latitude":52.6306881,"longitude":1.2941528,"name":"Saint Andrews Street near Exchange Street","properties":{"access":"unknown","bicycle_pa":"stands","capacity":0,"covered":"no","fee":"","operator":"Norwich City Council","nameSource":"junction"},"sourceId":"osm"},{"id":"osm:node:1026667994","latitude":52.6307053,"longitude":1.2956577,"name":"Saint Georges Street near Princes Street","properties":{"access":"unknown","bicycle_pa":"stands","capacity":10,"covered":"no","fee":"","operator":"Norwich City Council","nameSource":"junction"},"sourceId":"osm"},{"id":"osm:node:1026668003","latitude":52.6309613,"longitude":1.2956818,"name":"Saint Georges Street near Princes Street","properties":{"access":"unknown","bicycle_pa":"","capacity":6,"covered":"no","fee":"","operator":"Norwich City Council","nameSource":"junction"},"sourceId":"osm"},{"id":"osm:node:1027927750","latitude":52.6276958,"longitude":1.2952472,"name":"Castle Meadow near Farmers Avenue","properties":{"access":"unknown","bicycle_pa":"","capacity":28,"covered":"no","fee":"","operator":"Norwich City Council","nameSource":"junction"},"sourceId":"osm"},{"id":"osm:node:1027927751","latitude":52.6270707,"longitude":1.2944693,"name":"Red Lion Street near White Lion Street","properties":{"access":"unknown","bicycle_pa":"stands","capacity":14,"covered":"no","fee":"","operator":"Norwich City Council","nameSource":"junction"},"sourceId":"osm"},{"id":"osm:node:1027927753","latitude":52.6292402,"longitude":1.287172,"name":"Upper Saint Giles Street near Cleveland Road","properties":{"access":"unknown","bicycle_pa":"","capacity":8,"covered":"no","fee":"","operator":"Norwich City Council","nameSource":"junction"},"sourceId":"osm"},{"id":"osm:node:1027927766","latitude":52.6311796,"longitude":1.2885551,"name":"Saint Benedicts Street near Three King's Lane","properties":{"access":"unknown","bicycle_pa":"stands","capacity":12,"covered":"no","fee":"","operator":"Norwich City Council","nameSource":"junction"},"sourceId":"osm"},{"id":"osm:node:1027927767","latitude":52.6314435,"longitude":1.2875411,"name":"Saint Swithins Alley near Saint Benedicts Street","properties":{"access":"unknown","bicycle_pa":"","capacity":16,"covered":"no","fee":"","operator":"Norwich City Council","nameSource":"junction"},"sourceId":"osm"},{"id":"osm:node:1027927768","latitude":52.6318567,"longitude":1.2886724,"name":"Saint Margarets Street near Saint Swithins Road","properties":{"access":"unknown","bicycle_pa":"","capacity":4,"covered":"no","fee":"","operator":"Norwich City Council","nameSource":"junction"},"sourceId":"osm"},{"id":"osm:node:1027927769","latitude":52.6292497,"longitude":1.2977587,"name":"Agricultural Hall Plain near Bank Plain","properties":{"access":"unknown","bicycle_pa":"stands","capacity":18,"covered":"no","fee":"","operator":"Norwich City Council","nameSource":"junction"},"sourceId":"osm"},{"id":"osm:node:1027927771","latitude":52.6281387,"longitude":1.299013,"name":"Cattle Market Street near Crown Road","properties":{"access":"unknown","bicycle_pa":"stands","capacity":4,"covered":"no","fee":"","operator":"Norwich City Council","nameSource":"junction"},"sourceId":"osm"},{"id":"osm:node:1027927780","latitude":52.6291147,"longitude":1.29101,"name":"St Giles Street near Upper Goat Lane","properties":{"access":"unknown","bicycle_pa":"","capacity":0,"covered":"no","fee":"","operator":"Norwich City Council","nameSource":"junction"},"sourceId":"osm"},{"id":"osm:node:1027927781","latitude":52.6294436,"longitude":1.2882807,"name":"Rigbys Court near St Giles Street","properties":{"access":"unknown","bicycle_pa":"","capacity":2,"covered":"no","fee":"","operator":"Norwich City Council","nameSource":"junction"},"sourceId":"osm"},{"id":"osm:node:1027927785","latitude":52.6305445,"longitude":1.2912093,"name":"St Gregorys Alley near Saint Benedicts Street","properties":{"access":"unknown","bicycle_pa":"stands","capacity":14,"covered":"no","fee":"","operator":"Norwich City Council","nameSource":"junction"},"sourceId":"osm"},{"id":"osm:node:1027927786","latitude":52.630911,"longitude":1.2901931,"name":"Saint Benedicts Street near Saint Lawrence Lane","properties":{"access":"unknown","bicycle_pa":"","capacity":4,"covered":"no","fee":"","operator":"Norwich City Council","nameSource":"junction"},"sourceId":"osm"},{"id":"osm:node:1027927792","latitude":52.62724,"longitude":1.2895716,"name":"Theatre Street near Chapelfield East","properties":{"access":"private","bicycle_pa":"","capacity":4,"covered":"no","fee":"","operator":"","nameSource":"junction"},"sourceId":"osm"},{"id":"osm:node:1027927793","latitude":52.6272725,"longitude":1.2915672,"name":"Millennium Plain near Upper Millenium Plain","properties":{"access":"unknown","bicycle_pa":"stands","capacity":20,"covered":"no","fee":"","operator":"Norwich City Council","nameSource":"junction"},"sourceId":"osm"},{"id":"osm:node:1027927794","latitude":52.6279628,"longitude":1.291653,"name":"Upper Millenium Plain near Amphitheatre","properties":{"access":"unknown","bicycle_pa":"stands","capacity":14,"covered":"no","fee":"","operator":"Norwich City Council","nameSource":"junction"},"sourceId":"osm"},{"id":"osm:node:1027927795","latitude":52.6259961,"longitude":1.2910736,"name":"North Terrace by McDonald's","properties":{"access":"unknown","bicycle_pa":"stands","capacity":24,"covered":"no","fee":"","operator":"Norwich City Council","nameSource":"landmark"},"sourceId":"osm"},{"id":"osm:node:1027927796","latitude":52.6280835,"longitude":1.2866005,"name":"Chapelfield North near Hales Court","properties":{"access":"unknown","bicycle_pa":"","capacity":8,"covered":"no","fee":"","operator":"Norwich City Council","nameSource":"junction"},"sourceId":"osm"},{"id":"osm:node:1027927797","latitude":52.624832,"longitude":1.2898445,"name":"Coburg Street cycle parking","properties":{"access":"unknown","bicycle_pa":"stands","capacity":19,"covered":"no","fee":"","operator":"","nameSource":"street"},"sourceId":"osm"},{"id":"osm:node:1027927798","latitude":52.6250155,"longitude":1.2900029,"name":"Coburg Street by H&M","properties":{"access":"unknown","bicycle_pa":"stands","capacity":44,"covered":"yes","fee":"","operator":"","nameSource":"landmark"},"sourceId":"osm"},{"id":"osm:node:1032180669","latitude":52.6294178,"longitude":1.2478089,"name":"Earlham Green Lane near Fiveways Roundabout","properties":{"access":"unknown","bicycle_pa":"","capacity":2,"covered":"no","fee":"","operator":"","nameSource":"junction"},"sourceId":"osm"},{"id":"osm:node:1032180777","latitude":52.6293583,"longitude":1.2479257,"name":"Earlham Green Lane near Fiveways Roundabout","properties":{"access":"unknown","bicycle_pa":"stands","capacity":6,"covered":"no","fee":"","operator":"","nameSource":"junction"},"sourceId":"osm"},{"id":"osm:node:10654979201","latitude":52.6202162,"longitude":1.3113546,"name":"Riverside Walk cycle parking","properties":{"access":"unknown","bicycle_pa":"","capacity":0,"covered":"","fee":"","operator":"","nameSource":"street"},"sourceId":"osm"},{"id":"osm:node:10957695246","latitude":52.6293237,"longitude":1.2530013,"name":"Earlham Road near Earles Gardens","properties":{"access":"unknown","bicycle_pa":"","capacity":4,"covered":"","fee":"","operator":"","nameSource":"junction"},"sourceId":"osm"},{"id":"osm:node:11050897746","latitude":52.6354192,"longitude":1.2999701,"name":"Whitefriars near Saint James Court","properties":{"access":"unknown","bicycle_pa":"stands","capacity":10,"covered":"no","fee":"","operator":"","nameSource":"junction"},"sourceId":"osm"},{"id":"osm:node:11153406165","latitude":52.6351304,"longitude":1.3042861,"name":"Jarrold Bridge cycle parking","properties":{"access":"unknown","bicycle_pa":"stands","capacity":8,"covered":"no","fee":"","operator":"","nameSource":"street"},"sourceId":"osm"},{"id":"osm:node:11153418969","latitude":52.6340368,"longitude":1.3030531,"name":"Bishopgate by The Adam And Eve","properties":{"access":"unknown","bicycle_pa":"stands","capacity":4,"covered":"no","fee":"","operator":"","nameSource":"landmark"},"sourceId":"osm"},{"id":"osm:node:11245933086","latitude":52.6205826,"longitude":1.2396245,"name":"Suffolk Road cycle parking","properties":{"access":"unknown","bicycle_pa":"stands","capacity":18,"covered":"yes","fee":"","operator":"","nameSource":"street"},"sourceId":"osm"},{"id":"osm:node:11247690447","latitude":52.6202557,"longitude":1.23633,"name":"Beryl bike stands","properties":{"access":"unknown","bicycle_pa":"stands","capacity":8,"covered":"","fee":"","operator":"","nameSource":"source"},"sourceId":"osm"},{"id":"osm:node:1132439645","latitude":52.6211256,"longitude":1.2362189,"name":"Chancellors Drive by Atrium Café","properties":{"access":"unknown","bicycle_pa":"stands","capacity":12,"covered":"","fee":"","operator":"","nameSource":"landmark"},"sourceId":"osm"},{"id":"osm:node:1137851576","latitude":52.6219811,"longitude":1.2460898,"name":"Britten 3","properties":{"access":"unknown","bicycle_pa":"stands","capacity":28,"covered":"yes","fee":"","operator":"University of East Anglia","nameSource":"source"},"sourceId":"osm"},{"id":"osm:node:1163638332","latitude":52.6368881,"longitude":1.2933777,"name":"New Botolph Street near Botolph Street","properties":{"access":"unknown","bicycle_pa":"stands","capacity":4,"covered":"no","fee":"","operator":"","nameSource":"junction"},"sourceId":"osm"},{"id":"osm:node:1163638339","latitude":52.636973,"longitude":1.2930735,"name":"New Botolph Street near Pitt Street","properties":{"access":"unknown","bicycle_pa":"stands","capacity":8,"covered":"no","fee":"","operator":"","nameSource":"junction"},"sourceId":"osm"},{"id":"osm:node:1163690731","latitude":52.6386147,"longitude":1.2911067,"name":"Bakers Road near Saint Augustines Street","properties":{"access":"unknown","bicycle_pa":"","capacity":6,"covered":"no","fee":"","operator":"","nameSource":"junction"},"sourceId":"osm"},{"id":"osm:node:11828628593","latitude":52.628612,"longitude":1.3034321,"name":"Eastbourne Place near Prince of Wales Road","properties":{"access":"unknown","bicycle_pa":"stands","capacity":8,"covered":"no","fee":"","operator":"","nameSource":"junction"},"sourceId":"osm"},{"id":"osm:node:12019948227","latitude":52.6129988,"longitude":1.3161211,"name":"The Street near Whitlingham Lane","properties":{"access":"unknown","bicycle_pa":"stands","capacity":0,"covered":"","fee":"","operator":"Beryl","nameSource":"junction"},"sourceId":"osm"},{"id":"osm:node:12059511045","latitude":52.6071597,"longitude":1.2893882,"name":"Sandy Lane near Whiting Road","properties":{"access":"unknown","bicycle_pa":"","capacity":0,"covered":"yes","fee":"","operator":"","nameSource":"junction"},"sourceId":"osm"},{"id":"osm:node:12065966031","latitude":52.6090846,"longitude":1.2927885,"name":"Whiting Road by Hughes","properties":{"access":"unknown","bicycle_pa":"stands","capacity":8,"covered":"no","fee":"","operator":"","nameSource":"landmark"},"sourceId":"osm"},{"id":"osm:node:12155888452","latitude":52.6305117,"longitude":1.2968609,"name":"Redwell Street near Saint Andrews Street","properties":{"access":"unknown","bicycle_pa":"stands","capacity":0,"covered":"no","fee":"","operator":"","nameSource":"junction"},"sourceId":"osm"},{"id":"osm:node:12157366480","latitude":52.6254385,"longitude":1.2603097,"name":"Bunnett Square near The Avenues","properties":{"access":"unknown","bicycle_pa":"stands","capacity":4,"covered":"no","fee":"","operator":"","nameSource":"junction"},"sourceId":"osm"},{"id":"osm:node:12306917800","latitude":52.6072634,"longitude":1.2522049,"name":"Church Lane near Havant Close","properties":{"access":"unknown","bicycle_pa":"stands","capacity":8,"covered":"no","fee":"","operator":"","nameSource":"junction"},"sourceId":"osm"},{"id":"osm:node:12324298311","latitude":52.6289669,"longitude":1.291935,"name":"St Giles Street near Guildhall Hill","properties":{"access":"unknown","bicycle_pa":"stands","capacity":6,"covered":"no","fee":"","operator":"Norwich City Council","nameSource":"junction"},"sourceId":"osm"},{"id":"osm:node:12324597824","latitude":52.6282982,"longitude":1.2899695,"name":"Bethel Street near Little Bethel Street","properties":{"access":"unknown","bicycle_pa":"stands","capacity":10,"covered":"no","fee":"","operator":"","nameSource":"junction"},"sourceId":"osm"},{"id":"osm:node:12324597825","latitude":52.6283052,"longitude":1.2899133,"name":"Bethel Street near Little Bethel Street","properties":{"access":"unknown","bicycle_pa":"stands","capacity":10,"covered":"no","fee":"","operator":"","nameSource":"junction"},"sourceId":"osm"},{"id":"osm:node:12327055598","latitude":52.6029701,"longitude":1.2329699,"name":"Holme Avenue near Calthorpe Drive","properties":{"access":"unknown","bicycle_pa":"stands","capacity":8,"covered":"no","fee":"","operator":"","nameSource":"junction"},"sourceId":"osm"},{"id":"osm:node:1275978613","latitude":52.6330287,"longitude":1.2955711,"name":"Friars Quay near Colegate","properties":{"access":"unknown","bicycle_pa":"","capacity":4,"covered":"","fee":"","operator":"","nameSource":"junction"},"sourceId":"osm"},{"id":"osm:node:1296072229","latitude":52.6317437,"longitude":1.241295,"name":"Earlham West Centre near Enfield Road","properties":{"access":"unknown","bicycle_pa":"","capacity":0,"covered":"no","fee":"","operator":"","nameSource":"junction"},"sourceId":"osm"},{"id":"osm:node:13048564057","latitude":52.6261076,"longitude":1.2984918,"name":"Rouen Road near Normans Buildings","properties":{"access":"unknown","bicycle_pa":"stands","capacity":10,"covered":"no","fee":"","operator":"","nameSource":"junction"},"sourceId":"osm"},{"id":"osm:node:13136507784","latitude":52.6320893,"longitude":1.2928247,"name":"Duke Street near Riverside Walk","properties":{"access":"unknown","bicycle_pa":"stands","capacity":8,"covered":"","fee":"","operator":"","nameSource":"junction"},"sourceId":"osm"},{"id":"osm:node:13136507786","latitude":52.6334888,"longitude":1.3124011,"name":"Ladbrooke Place cycle parking","properties":{"access":"unknown","bicycle_pa":"stands","capacity":4,"covered":"no","fee":"","operator":"","nameSource":"street"},"sourceId":"osm"},{"id":"osm:node:13136507789","latitude":52.6315127,"longitude":1.2951029,"name":"Saint Georges Street near Riverside Walk","properties":{"access":"unknown","bicycle_pa":"stands","capacity":14,"covered":"no","fee":"","operator":"","nameSource":"junction"},"sourceId":"osm"},{"id":"osm:node:13136557204","latitude":52.6317309,"longitude":1.2957106,"name":"Riverside Walk near Saint Georges Street","properties":{"access":"unknown","bicycle_pa":"stands","capacity":20,"covered":"","fee":"","operator":"","nameSource":"junction"},"sourceId":"osm"},{"id":"osm:node:13136557216","latitude":52.6321241,"longitude":1.2928133,"name":"Duke Street near Riverside Walk","properties":{"access":"unknown","bicycle_pa":"stands","capacity":8,"covered":"","fee":"","operator":"","nameSource":"junction"},"sourceId":"osm"},{"id":"osm:node:13136557225","latitude":52.6330773,"longitude":1.2941046,"name":"Colegate near Saint George's Street","properties":{"access":"unknown","bicycle_pa":"stands","capacity":4,"covered":"no","fee":"","operator":"Norwich City Council","nameSource":"junction"},"sourceId":"osm"},{"id":"osm:node:13136557233","latitude":52.6322548,"longitude":1.294777,"name":"Saint Georges Street by St George's Street/Norwich Playhouse","properties":{"access":"unknown","bicycle_pa":"stands","capacity":10,"covered":"no","fee":"","operator":"Norwich City Council","nameSource":"landmark"},"sourceId":"osm"},{"id":"osm:node:13136557235","latitude":52.6314904,"longitude":1.2949839,"name":"Saint Georges Street near Riverside Walk","properties":{"access":"unknown","bicycle_pa":"stands","capacity":12,"covered":"no","fee":"","operator":"Norwich City Council","nameSource":"junction"},"sourceId":"osm"},{"id":"osm:node:1315425658","latitude":52.6217285,"longitude":1.2599078,"name":"North Park Avenue near Fairfax Road","properties":{"access":"unknown","bicycle_pa":"stands","capacity":4,"covered":"no","fee":"","operator":"","nameSource":"junction"},"sourceId":"osm"},{"id":"osm:node:1323453560","latitude":52.6338204,"longitude":1.291366,"name":"Rosemary Lane near Saint Marys Plain","properties":{"access":"unknown","bicycle_pa":"stands","capacity":8,"covered":"no","fee":"","operator":"","nameSource":"junction"},"sourceId":"osm"},{"id":"osm:node:1324794310","latitude":52.6088415,"longitude":1.2921831,"name":"Whiting Road by Spa Medica","properties":{"access":"unknown","bicycle_pa":"stands","capacity":12,"covered":"yes","fee":"no","operator":"","nameSource":"landmark"},"sourceId":"osm"},{"id":"osm:node:1334004392","latitude":52.6345929,"longitude":1.2568788,"name":"Ivy Road cycle parking","properties":{"access":"unknown","bicycle_pa":"stands","capacity":12,"covered":"yes","fee":"","operator":"","nameSource":"street"},"sourceId":"osm"},{"id":"osm:node:13410360178","latitude":52.6256688,"longitude":1.3019796,"name":"Saint Ann Lane near King Street","properties":{"access":"unknown","bicycle_pa":"stands","capacity":6,"covered":"no","fee":"","operator":"","nameSource":"junction"},"sourceId":"osm"},{"id":"osm:node:1342638573","latitude":52.6375968,"longitude":1.2428631,"name":"Motum Road by Earlham Early Years Centre","properties":{"access":"unknown","bicycle_pa":"wall_loops","capacity":7,"covered":"no","fee":"","operator":"","nameSource":"landmark"},"sourceId":"osm"},{"id":"osm:node:13511726210","latitude":52.6336782,"longitude":1.2771479,"name":"Dereham Road near Adelaide Street","properties":{"access":"unknown","bicycle_pa":"stands","capacity":4,"covered":"no","fee":"","operator":"","nameSource":"junction"},"sourceId":"osm"},{"id":"osm:node:1351367173","latitude":52.6331535,"longitude":1.2811059,"name":"Dereham Road near Douro Place","properties":{"access":"unknown","bicycle_pa":"","capacity":4,"covered":"no","fee":"","operator":"","nameSource":"junction"},"sourceId":"osm"},{"id":"osm:node:1351367175","latitude":52.6391723,"longitude":1.2415052,"name":"Dereham Road near Larkman Lane","properties":{"access":"unknown","bicycle_pa":"stands","capacity":20,"covered":"no","fee":"","operator":"Aldi","nameSource":"junction"},"sourceId":"osm"},{"id":"osm:node:1358220479","latitude":52.6249747,"longitude":1.2603064,"name":"Bunnett Square near Colman Road","properties":{"access":"unknown","bicycle_pa":"stands","capacity":4,"covered":"no","fee":"","operator":"","nameSource":"junction"},"sourceId":"osm"},{"id":"osm:node:1359963136","latitude":52.6321886,"longitude":1.2839207,"name":"Dereham Road near Golding Place","properties":{"access":"unknown","bicycle_pa":"","capacity":8,"covered":"no","fee":"","operator":"","nameSource":"junction"},"sourceId":"osm"},{"id":"osm:node:1359963223","latitude":52.6329668,"longitude":1.2817831,"name":"Mancroft Street near Dereham Road","properties":{"access":"unknown","bicycle_pa":"stands","capacity":4,"covered":"no","fee":"","operator":"","nameSource":"junction"},"sourceId":"osm"},{"id":"osm:node:1359963226","latitude":52.632985,"longitude":1.2779275,"name":"Belvoir Street by Belvedere Community Centre Luncheon Club","properties":{"access":"unknown","bicycle_pa":"stands","capacity":8,"covered":"no","fee":"","operator":"","nameSource":"landmark"},"sourceId":"osm"},{"id":"osm:node:13709316885","latitude":52.6194069,"longitude":1.2868149,"name":"Ipswich Road cycle parking","properties":{"access":"unknown","bicycle_pa":"shed","capacity":0,"covered":"","fee":"","operator":"City College Norwich","nameSource":"street"},"sourceId":"osm"},{"id":"osm:node:13709316886","latitude":52.6194234,"longitude":1.2867434,"name":"Ipswich Road cycle parking","properties":{"access":"unknown","bicycle_pa":"shed","capacity":0,"covered":"","fee":"","operator":"City College Norwich","nameSource":"street"},"sourceId":"osm"},{"id":"osm:node:13709328027","latitude":52.61885,"longitude":1.2862056,"name":"Ipswich Road by City College Norwich","properties":{"access":"customers","bicycle_pa":"shed","capacity":0,"covered":"","fee":"","operator":"City College Norwich","nameSource":"landmark"},"sourceId":"osm"},{"id":"osm:node:13709328034","latitude":52.6186402,"longitude":1.2871578,"name":"City College Norwich cycle parking","properties":{"access":"unknown","bicycle_pa":"shed","capacity":0,"covered":"","fee":"","operator":"City College Norwich","nameSource":"landmark"},"sourceId":"osm"},{"id":"osm:node:1371303946","latitude":52.6291146,"longitude":1.268915,"name":"Earlham Road near Recreation Road","properties":{"access":"unknown","bicycle_pa":"wall_loops","capacity":14,"covered":"yes","fee":"","operator":"","nameSource":"junction"},"sourceId":"osm"},{"id":"osm:node:1372241718","latitude":52.6292168,"longitude":1.247984,"name":"Earlham Green Lane near Fiveways Roundabout","properties":{"access":"unknown","bicycle_pa":"stands","capacity":6,"covered":"no","fee":"","operator":"","nameSource":"junction"},"sourceId":"osm"},{"id":"osm:node:13744992733","latitude":52.6283525,"longitude":1.2696307,"name":"Recreation Road near Speedway","properties":{"access":"customers","bicycle_pa":"shed","capacity":10,"covered":"","fee":"no","operator":"","nameSource":"junction"},"sourceId":"osm"},{"id":"osm:node:13817977460","latitude":52.6422824,"longitude":1.2822771,"name":"Boot Binders Road near Finishers Road","properties":{"access":"unknown","bicycle_pa":"","capacity":0,"covered":"","fee":"","operator":"","nameSource":"junction"},"sourceId":"osm"},{"id":"osm:node:13817977461","latitude":52.6425892,"longitude":1.2823281,"name":"Drayton Road by Aldi","properties":{"access":"unknown","bicycle_pa":"","capacity":0,"covered":"","fee":"","operator":"","nameSource":"landmark"},"sourceId":"osm"},{"id":"osm:node:13873715306","latitude":52.6334314,"longitude":1.2967609,"name":"Colegate near Fye Bridge Street","properties":{"access":"unknown","bicycle_pa":"stands","capacity":6,"covered":"no","fee":"","operator":"","nameSource":"junction"},"sourceId":"osm"},{"id":"osm:node:13900802176","latitude":52.6367636,"longitude":1.2836236,"name":"Marriott Close near Wingate Way","properties":{"access":"unknown","bicycle_pa":"","capacity":0,"covered":"","fee":"","operator":"","nameSource":"junction"},"sourceId":"osm"},{"id":"osm:node:13955366066","latitude":52.6025038,"longitude":1.2861447,"name":"White Lodge Business Estate by Howdens Joinery","properties":{"access":"unknown","bicycle_pa":"stands","capacity":0,"covered":"","fee":"","operator":"","nameSource":"landmark"},"sourceId":"osm"},{"id":"osm:node:13955366067","latitude":52.6026022,"longitude":1.286631,"name":"White Lodge Business Estate by Rexel","properties":{"access":"unknown","bicycle_pa":"stands","capacity":0,"covered":"","fee":"","operator":"","nameSource":"landmark"},"sourceId":"osm"},{"id":"osm:node:13955366075","latitude":52.6029369,"longitude":1.2864001,"name":"White Lodge Business Estate cycle parking","properties":{"access":"unknown","bicycle_pa":"stands","capacity":0,"covered":"","fee":"","operator":"","nameSource":"street"},"sourceId":"osm"},{"id":"osm:node:13957755245","latitude":52.6355261,"longitude":1.266847,"name":"Dereham Road near Bond Street","properties":{"access":"unknown","bicycle_pa":"","capacity":0,"covered":"","fee":"","operator":"","nameSource":"junction"},"sourceId":"osm"},{"id":"osm:node:1395873759","latitude":52.6292721,"longitude":1.2877591,"name":"St Giles Street near Cleveland Road","properties":{"access":"unknown","bicycle_pa":"","capacity":4,"covered":"no","fee":"","operator":"Norwich City Council","nameSource":"junction"},"sourceId":"osm"},{"id":"osm:node:1395873760","latitude":52.6293633,"longitude":1.2862684,"name":"Upper Saint Giles Street near Cock Yard","properties":{"access":"unknown","bicycle_pa":"","capacity":4,"covered":"no","fee":"","operator":"Norwich City Council","nameSource":"junction"},"sourceId":"osm"},{"id":"osm:node:1395873771","latitude":52.6301642,"longitude":1.2896044,"name":"Pottergate near Fishers Lane","properties":{"access":"unknown","bicycle_pa":"","capacity":8,"covered":"no","fee":"","operator":"Norwich City Council","nameSource":"junction"},"sourceId":"osm"},{"id":"osm:node:1395882135","latitude":52.6289587,"longitude":1.2946241,"name":"Castle Street near London Street","properties":{"access":"unknown","bicycle_pa":"stands","capacity":4,"covered":"no","fee":"","operator":"Norwich City Council","nameSource":"junction"},"sourceId":"osm"},{"id":"osm:node:1395882136","latitude":52.6330922,"longitude":1.2971874,"name":"Fishergate near Fye Bridge Street","properties":{"access":"unknown","bicycle_pa":"stands","capacity":4,"covered":"no","fee":"","operator":"Norwich City Council","nameSource":"junction"},"sourceId":"osm"},{"id":"osm:node:1395882137","latitude":52.6284548,"longitude":1.2942661,"name":"Davey Place near Castle Street","properties":{"access":"unknown","bicycle_pa":"stands","capacity":6,"covered":"no","fee":"","operator":"Norwich City Council","nameSource":"junction"},"sourceId":"osm"},{"id":"osm:node:1395882138","latitude":52.6315658,"longitude":1.2987382,"name":"Tombland Alley near Princes Street","properties":{"access":"unknown","bicycle_pa":"stands","capacity":4,"covered":"no","fee":"","operator":"Norwich City Council","nameSource":"junction"},"sourceId":"osm"},{"id":"osm:node:1395882139","latitude":52.6284906,"longitude":1.2935473,"name":"Davey Place near Gentlemans Walk","properties":{"access":"unknown","bicycle_pa":"stands","capacity":8,"covered":"no","fee":"","operator":"Norwich City Council","nameSource":"junction"},"sourceId":"osm"},{"id":"osm:node:1395882142","latitude":52.6227595,"longitude":1.2988527,"name":"Ber Street near Jolly Butcher's Yard","properties":{"access":"unknown","bicycle_pa":"stands","capacity":4,"covered":"no","fee":"","operator":"Norwich City Council","nameSource":"junction"},"sourceId":"osm"},{"id":"osm:node:1395882146","latitude":52.6328243,"longitude":1.2926514,"name":"Duke Street near Colegate","properties":{"access":"unknown","bicycle_pa":"stands","capacity":4,"covered":"no","fee":"","operator":"Norwich City Council","nameSource":"junction"},"sourceId":"osm"},{"id":"osm:node:1395882147","latitude":52.6278516,"longitude":1.2931812,"name":"Gentlemans Walk near Haymarket","properties":{"access":"unknown","bicycle_pa":"stands","capacity":4,"covered":"no","fee":"","operator":"Norwich City Council","nameSource":"junction"},"sourceId":"osm"},{"id":"osm:node:1395884042","latitude":52.6265029,"longitude":1.3053963,"name":"Riverside near Wherry Road","properties":{"access":"unknown","bicycle_pa":"stands","capacity":16,"covered":"no","fee":"","operator":"Norwich City Council","nameSource":"junction"},"sourceId":"osm"},{"id":"osm:node:1395884043","latitude":52.6263394,"longitude":1.304949,"name":"Wherry Road near Riverside","properties":{"access":"unknown","bicycle_pa":"stands","capacity":8,"covered":"no","fee":"","operator":"X Leisure","nameSource":"junction"},"sourceId":"osm"},{"id":"osm:node:1395884044","latitude":52.6316758,"longitude":1.3013592,"name":"The Close by Labyrinth","properties":{"access":"unknown","bicycle_pa":"stands","capacity":8,"covered":"no","fee":"","operator":"Cathedral","nameSource":"landmark"},"sourceId":"osm"},{"id":"osm:node:1395884045","latitude":52.6318345,"longitude":1.2998719,"name":"The Close near Tombland","properties":{"access":"unknown","bicycle_pa":"stands","capacity":4,"covered":"no","fee":"","operator":"Cathedral","nameSource":"junction"},"sourceId":"osm"},{"id":"osm:node:14008103420","latitude":52.6268244,"longitude":1.3016687,"name":"Mountergate near Saint Johns Street","properties":{"access":"unknown","bicycle_pa":"stands","capacity":6,"covered":"no","fee":"no","operator":"","nameSource":"junction"},"sourceId":"osm"},{"id":"osm:node:1423281760","latitude":52.6107953,"longitude":1.2906301,"name":"Hall Road near Lakenham Road","properties":{"access":"unknown","bicycle_pa":"stands","capacity":20,"covered":"no","fee":"","operator":"","nameSource":"junction"},"sourceId":"osm"},{"id":"osm:node:1445642830","latitude":52.6085223,"longitude":1.2833351,"name":"Tuckswood Centre near Maid Marian Road","properties":{"access":"unknown","bicycle_pa":"stands","capacity":4,"covered":"no","fee":"","operator":"","nameSource":"junction"},"sourceId":"osm"},{"id":"osm:node:1451810350","latitude":52.6211858,"longitude":1.241217,"name":"The Street near The Square","properties":{"access":"unknown","bicycle_pa":"stands","capacity":80,"covered":"no","fee":"","operator":"University of East Anglia","nameSource":"junction"},"sourceId":"osm"},{"id":"osm:node:1452378607","latitude":52.6220457,"longitude":1.3066197,"name":"Wherry Road near Koblenz Avenue","properties":{"access":"unknown","bicycle_pa":"stands","capacity":30,"covered":"no","fee":"","operator":"","nameSource":"junction"},"sourceId":"osm"},{"id":"osm:node:1490381136","latitude":52.6339036,"longitude":1.2783897,"name":"Old Palace Road near Portway Place","properties":{"access":"unknown","bicycle_pa":"stands","capacity":4,"covered":"no","fee":"","operator":"","nameSource":"junction"},"sourceId":"osm"},{"id":"osm:node:1490381143","latitude":52.6339385,"longitude":1.2784423,"name":"Old Palace Road near Portway Place","properties":{"access":"unknown","bicycle_pa":"stands","capacity":8,"covered":"no","fee":"","operator":"","nameSource":"junction"},"sourceId":"osm"},{"id":"osm:node:1490388427","latitude":52.6326466,"longitude":1.2816528,"name":"Distillery Square near Douro Place","properties":{"access":"unknown","bicycle_pa":"stands","capacity":12,"covered":"no","fee":"","operator":"","nameSource":"junction"},"sourceId":"osm"},{"id":"osm:node:1490388429","latitude":52.6329304,"longitude":1.281321,"name":"Dereham Road near Mancroft Street","properties":{"access":"unknown","bicycle_pa":"stands","capacity":12,"covered":"no","fee":"","operator":"","nameSource":"junction"},"sourceId":"osm"},{"id":"osm:node:1495265494","latitude":52.6240486,"longitude":1.3053667,"name":"Wherry Road cycle parking","properties":{"access":"private","bicycle_pa":"","capacity":12,"covered":"yes","fee":"","operator":"NRM","nameSource":"street"},"sourceId":"osm"},{"id":"osm:node:1495285090","latitude":52.6236563,"longitude":1.3055341,"name":"Wherry Road near Albion Way","properties":{"access":"private","bicycle_pa":"","capacity":12,"covered":"yes","fee":"","operator":"NRM","nameSource":"junction"},"sourceId":"osm"},{"id":"osm:node:1501831991","latitude":52.6244625,"longitude":1.2935332,"name":"Surrey Street by The Free School Norwich","properties":{"access":"private","bicycle_pa":"","capacity":0,"covered":"yes","fee":"","operator":"","nameSource":"landmark"},"sourceId":"osm"},{"id":"osm:node:1538008774","latitude":52.621712,"longitude":1.242748,"name":"Drama Studio","properties":{"access":"unknown","bicycle_pa":"stands","capacity":42,"covered":"no","fee":"","operator":"University of East Anglia","nameSource":"source"},"sourceId":"osm"},{"id":"osm:node:1717827002","latitude":52.6310805,"longitude":1.291453,"name":"Westwick Street near Charing Cross","properties":{"access":"unknown","bicycle_pa":"stands","capacity":8,"covered":"no","fee":"","operator":"","nameSource":"junction"},"sourceId":"osm"},{"id":"osm:node:1800632421","latitude":52.6248516,"longitude":1.2828663,"name":"Rupert Street near Essex Street","properties":{"access":"unknown","bicycle_pa":"stands","capacity":6,"covered":"no","fee":"","operator":"","nameSource":"junction"},"sourceId":"osm"},{"id":"osm:node:1800632459","latitude":52.6251188,"longitude":1.2831214,"name":"Norfolk Street near Rupert Street","properties":{"access":"unknown","bicycle_pa":"stands","capacity":6,"covered":"no","fee":"","operator":"","nameSource":"junction"},"sourceId":"osm"},{"id":"osm:node:1801878200","latitude":52.6251248,"longitude":1.2784943,"name":"Trinity Street near Unthank Road","properties":{"access":"unknown","bicycle_pa":"stands","capacity":8,"covered":"no","fee":"","operator":"","nameSource":"junction"},"sourceId":"osm"},{"id":"osm:node:1880600315","latitude":52.603726,"longitude":1.2658734,"name":"Marston Lane cycle parking","properties":{"access":"unknown","bicycle_pa":"stands","capacity":4,"covered":"no","fee":"","operator":"","nameSource":"street"},"sourceId":"osm"},{"id":"osm:node:2100221908","latitude":52.6214076,"longitude":1.3111386,"name":"Canaryfields near Carrow Road","properties":{"access":"unknown","bicycle_pa":"stands","capacity":16,"covered":"no","fee":"","operator":"","nameSource":"junction"},"sourceId":"osm"},{"id":"osm:node:2480881599","latitude":52.6028405,"longitude":1.2741807,"name":"Marston Lane cycle parking","properties":{"access":"unknown","bicycle_pa":"stands","capacity":4,"covered":"no","fee":"","operator":"","nameSource":"street"},"sourceId":"osm"},{"id":"osm:node:2585934493","latitude":52.6296026,"longitude":1.2476184,"name":"Earlham Green Lane by Fiveways Post Office","properties":{"access":"unknown","bicycle_pa":"","capacity":4,"covered":"","fee":"","operator":"","nameSource":"landmark"},"sourceId":"osm"},{"id":"osm:node:3125407055","latitude":52.6292752,"longitude":1.2854481,"name":"Upper Saint Giles Street near Cock Yard","properties":{"access":"unknown","bicycle_pa":"","capacity":2,"covered":"no","fee":"","operator":"","nameSource":"junction"},"sourceId":"osm"},{"id":"osm:node:3251055459","latitude":52.605044,"longitude":1.2378049,"name":"Willowcroft Way near Freesia Way","properties":{"access":"unknown","bicycle_pa":"stands","capacity":8,"covered":"yes","fee":"","operator":"","nameSource":"junction"},"sourceId":"osm"},{"id":"osm:node:3251055525","latitude":52.6051673,"longitude":1.2362489,"name":"Viola Close near Willowcroft Way","properties":{"access":"unknown","bicycle_pa":"stands","capacity":8,"covered":"yes","fee":"","operator":"","nameSource":"junction"},"sourceId":"osm"},{"id":"osm:node:3251056199","latitude":52.6064034,"longitude":1.2361304,"name":"Willowcroft Way by AtoBetter","properties":{"access":"unknown","bicycle_pa":"stands","capacity":5,"covered":"no","fee":"no","operator":"","nameSource":"landmark"},"sourceId":"osm"},{"id":"osm:node:3302450926","latitude":52.6213406,"longitude":1.2366637,"name":"Chancellors Drive cycle parking","properties":{"access":"unknown","bicycle_pa":"stands","capacity":40,"covered":"yes","fee":"","operator":"","nameSource":"street"},"sourceId":"osm"},{"id":"osm:node:3397283704","latitude":52.6255309,"longitude":1.3013712,"name":"King Street near Saint Ann Lane","properties":{"access":"unknown","bicycle_pa":"stands","capacity":6,"covered":"no","fee":"no","operator":"","nameSource":"junction"},"sourceId":"osm"},{"id":"osm:node:339834793","latitude":52.6217286,"longitude":1.2600069,"name":"North Park Avenue near Fairfax Road","properties":{"access":"unknown","bicycle_pa":"stands","capacity":4,"covered":"no","fee":"","operator":"","nameSource":"junction"},"sourceId":"osm"},{"id":"osm:node:339834813","latitude":52.621652,"longitude":1.2568876,"name":"De Hague Road near North Park Avenue","properties":{"access":"unknown","bicycle_pa":"stands","capacity":5,"covered":"no","fee":"","operator":"","nameSource":"junction"},"sourceId":"osm"},{"id":"osm:node:3720260096","latitude":52.6331733,"longitude":1.2565544,"name":"Apsley Court by Ivy Court Care Home","properties":{"access":"unknown","bicycle_pa":"stands","capacity":6,"covered":"no","fee":"","operator":"","nameSource":"landmark"},"sourceId":"osm"},{"id":"osm:node:3720260119","latitude":52.6333266,"longitude":1.2569418,"name":"Apsley Court cycle parking","properties":{"access":"unknown","bicycle_pa":"stands","capacity":10,"covered":"yes","fee":"","operator":"","nameSource":"street"},"sourceId":"osm"},{"id":"osm:node:3780773012","latitude":52.6069322,"longitude":1.280726,"name":"Robin Hood Road cycle parking","properties":{"access":"unknown","bicycle_pa":"stands","capacity":4,"covered":"no","fee":"","operator":"","nameSource":"street"},"sourceId":"osm"},{"id":"osm:node:3865076057","latitude":52.6241279,"longitude":1.2465587,"name":"Cow Drive by Barton House","properties":{"access":"unknown","bicycle_pa":"stands","capacity":64,"covered":"yes","fee":"","operator":"","nameSource":"landmark"},"sourceId":"osm"},{"id":"osm:node:3907237894","latitude":52.6058999,"longitude":1.2890869,"name":"Bessemer Road by Sound Sleep","properties":{"access":"unknown","bicycle_pa":"stands","capacity":4,"covered":"no","fee":"","operator":"","nameSource":"landmark"},"sourceId":"osm"},{"id":"osm:node:3907237897","latitude":52.6060447,"longitude":1.2892237,"name":"Bessemer Road cycle parking","properties":{"access":"unknown","bicycle_pa":"stands","capacity":4,"covered":"no","fee":"","operator":"","nameSource":"street"},"sourceId":"osm"},{"id":"osm:node:3907237899","latitude":52.6061668,"longitude":1.2893874,"name":"Bessemer Road by MOT Test Centre","properties":{"access":"unknown","bicycle_pa":"stands","capacity":7,"covered":"yes","fee":"","operator":"","nameSource":"landmark"},"sourceId":"osm"},{"id":"osm:node:3907237910","latitude":52.6064331,"longitude":1.289589,"name":"Bessemer Road by MOT Test Centre","properties":{"access":"unknown","bicycle_pa":"stands","capacity":8,"covered":"no","fee":"","operator":"","nameSource":"landmark"},"sourceId":"osm"},{"id":"osm:node:3907237933","latitude":52.6067047,"longitude":1.2879626,"name":"Hall Road by Costa","properties":{"access":"unknown","bicycle_pa":"stands","capacity":24,"covered":"yes","fee":"","operator":"","nameSource":"landmark"},"sourceId":"osm"},{"id":"osm:node:3907240059","latitude":52.6068993,"longitude":1.2878393,"name":"Hall Road by SCHMIDT Kitchens Norwich","properties":{"access":"unknown","bicycle_pa":"stands","capacity":12,"covered":"yes","fee":"","operator":"","nameSource":"landmark"},"sourceId":"osm"},{"id":"osm:node:3907240086","latitude":52.607289,"longitude":1.2882001,"name":"Hall Road by Harford Community Centre","properties":{"access":"unknown","bicycle_pa":"stands","capacity":12,"covered":"no","fee":"","operator":"","nameSource":"landmark"},"sourceId":"osm"},{"id":"osm:node:4207862291","latitude":52.6282155,"longitude":1.3031179,"name":"Mountergate near Eastbourne Place","properties":{"access":"unknown","bicycle_pa":"high_capacity","capacity":36,"covered":"yes","fee":"","operator":"","nameSource":"junction"},"sourceId":"osm"},{"id":"osm:node:4212784471","latitude":52.6281071,"longitude":1.3028773,"name":"Mountergate near Eastbourne Place","properties":{"access":"unknown","bicycle_pa":"stands","capacity":20,"covered":"yes","fee":"","operator":"","nameSource":"junction"},"sourceId":"osm"},{"id":"osm:node:4367056190","latitude":52.6212846,"longitude":1.2386821,"name":"Norfolk Road cycle parking","properties":{"access":"unknown","bicycle_pa":"","capacity":0,"covered":"","fee":"","operator":"","nameSource":"street"},"sourceId":"osm"},{"id":"osm:node:4619212610","latitude":52.6210634,"longitude":1.2912712,"name":"Grove Road near Southwell Road","properties":{"access":"unknown","bicycle_pa":"stands","capacity":6,"covered":"no","fee":"","operator":"","nameSource":"junction"},"sourceId":"osm"},{"id":"osm:node:4627999475","latitude":52.6271517,"longitude":1.3069762,"name":"Station Approach by Norwich Railway Station Taxi Rank","properties":{"access":"unknown","bicycle_pa":"two-tier","capacity":24,"covered":"yes","fee":"","operator":"","nameSource":"landmark"},"sourceId":"osm"},{"id":"osm:node:4627999476","latitude":52.6271164,"longitude":1.3070247,"name":"Station Approach by WHSmith","properties":{"access":"unknown","bicycle_pa":"two-tier","capacity":48,"covered":"yes","fee":"","operator":"","nameSource":"landmark"},"sourceId":"osm"},{"id":"osm:node:4628002227","latitude":52.627085,"longitude":1.3070698,"name":"Station Approach by WHSmith","properties":{"access":"unknown","bicycle_pa":"two-tier","capacity":48,"covered":"yes","fee":"","operator":"","nameSource":"landmark"},"sourceId":"osm"},{"id":"osm:node:4680124675","latitude":52.6258552,"longitude":1.295193,"name":"Westlegate near All Saints Green","properties":{"access":"unknown","bicycle_pa":"wide_stands","capacity":4,"covered":"no","fee":"","operator":"Norwich City Council","nameSource":"junction"},"sourceId":"osm"},{"id":"osm:node:4680124677","latitude":52.625821,"longitude":1.2950789,"name":"Westlegate near All Saints Green","properties":{"access":"unknown","bicycle_pa":"wide_stands","capacity":4,"covered":"no","fee":"","operator":"Norwich City Council","nameSource":"junction"},"sourceId":"osm"},{"id":"osm:node:4697844907","latitude":52.6328833,"longitude":1.2999565,"name":"Palace Street near Bedding Lane","properties":{"access":"private","bicycle_pa":"","capacity":6,"covered":"no","fee":"","operator":"","nameSource":"junction"},"sourceId":"osm"},{"id":"osm:node:494211498","latitude":52.629447,"longitude":1.296459,"name":"Opie Street near Castle Meadow","properties":{"access":"unknown","bicycle_pa":"stands","capacity":16,"covered":"no","fee":"","operator":"Norwich City Council","nameSource":"junction"},"sourceId":"osm"},{"id":"osm:node:494211502","latitude":52.630526,"longitude":1.2955752,"name":"Saint Andrews Hill near Saint Andrews Street","properties":{"access":"unknown","bicycle_pa":"stands","capacity":4,"covered":"no","fee":"","operator":"","nameSource":"junction"},"sourceId":"osm"},{"id":"osm:node:494211504","latitude":52.6319572,"longitude":1.2947111,"name":"Saint Georges Street near Riverside Walk","properties":{"access":"unknown","bicycle_pa":"stands","capacity":10,"covered":"no","fee":"","operator":"Norwich City Council","nameSource":"junction"},"sourceId":"osm"},{"id":"osm:node:501813911","latitude":52.6217023,"longitude":1.2358909,"name":"Queen's 1","properties":{"access":"unknown","bicycle_pa":"stands","capacity":24,"covered":"no","fee":"","operator":"University of East Anglia","nameSource":"source"},"sourceId":"osm"},{"id":"osm:node:5069200797","latitude":52.6341796,"longitude":1.2988745,"name":"Hansard Lane near Fishergate","properties":{"access":"unknown","bicycle_pa":"stands","capacity":6,"covered":"","fee":"","operator":"","nameSource":"junction"},"sourceId":"osm"},{"id":"osm:node:5236781038","latitude":52.6262297,"longitude":1.2951743,"name":"Lion and Castle Yard near Timberhill","properties":{"access":"yes","bicycle_pa":"stands","capacity":10,"covered":"no","fee":"no","operator":"","nameSource":"junction"},"sourceId":"osm"},{"id":"osm:node:5288214993","latitude":52.620121,"longitude":1.3081442,"name":"Paper Mill Yard cycle parking","properties":{"access":"unknown","bicycle_pa":"stands","capacity":10,"covered":"no","fee":"","operator":"","nameSource":"street"},"sourceId":"osm"},{"id":"osm:node:5451528508","latitude":52.6213951,"longitude":1.2933692,"name":"Brazen Gate by Argos","properties":{"access":"unknown","bicycle_pa":"stands","capacity":6,"covered":"no","fee":"","operator":"","nameSource":"landmark"},"sourceId":"osm"},{"id":"osm:node:5520241020","latitude":52.6211057,"longitude":1.2366512,"name":"Norfolk Road cycle parking","properties":{"access":"unknown","bicycle_pa":"stands","capacity":20,"covered":"yes","fee":"","operator":"","nameSource":"street"},"sourceId":"osm"},{"id":"osm:node:5520242921","latitude":52.6213695,"longitude":1.236666,"name":"Chancellors Drive cycle parking","properties":{"access":"unknown","bicycle_pa":"stands","capacity":12,"covered":"no","fee":"","operator":"","nameSource":"street"},"sourceId":"osm"},{"id":"osm:node:5626841722","latitude":52.6429503,"longitude":1.2450787,"name":"Gunton Lane near Hellesdon Road","properties":{"access":"unknown","bicycle_pa":"stands","capacity":0,"covered":"","fee":"","operator":"","nameSource":"junction"},"sourceId":"osm"},{"id":"osm:node:5626841723","latitude":52.6429235,"longitude":1.2452383,"name":"Gunton Lane near Hellesdon Road","properties":{"access":"unknown","bicycle_pa":"stands","capacity":0,"covered":"","fee":"","operator":"","nameSource":"junction"},"sourceId":"osm"},{"id":"osm:node:562729168","latitude":52.6248691,"longitude":1.2915966,"name":"Stop BS","properties":{"access":"unknown","bicycle_pa":"stands","capacity":6,"covered":"no","fee":"","operator":"","nameSource":"source"},"sourceId":"osm"},{"id":"osm:node:5735053721","latitude":52.6141788,"longitude":1.2945862,"name":"Hall Road near Saint Johns Close","properties":{"access":"unknown","bicycle_pa":"stands","capacity":4,"covered":"no","fee":"","operator":"","nameSource":"junction"},"sourceId":"osm"},{"id":"osm:node:587668112","latitude":52.6218164,"longitude":1.2387173,"name":"Norfolk Road near Chancellors Drive","properties":{"access":"unknown","bicycle_pa":"stands","capacity":22,"covered":"no","fee":"","operator":"University of East Anglia","nameSource":"junction"},"sourceId":"osm"},{"id":"osm:node:5926595686","latitude":52.6259343,"longitude":1.2398827,"name":"University Drive cycle parking","properties":{"access":"unknown","bicycle_pa":"stands","capacity":64,"covered":"yes","fee":"","operator":"","nameSource":"street"},"sourceId":"osm"},{"id":"osm:node:596163829","latitude":52.6253699,"longitude":1.2955048,"name":"All Saints Green near All Saints Street","properties":{"access":"unknown","bicycle_pa":"stands","capacity":14,"covered":"no","fee":"","operator":"Norwich City Council","nameSource":"junction"},"sourceId":"osm"},{"id":"osm:node:596362267","latitude":52.6241735,"longitude":1.2975764,"name":"Ber Street near Chapel Loke","properties":{"access":"unknown","bicycle_pa":"stands","capacity":10,"covered":"no","fee":"","operator":"Norwich City Council","nameSource":"junction"},"sourceId":"osm"},{"id":"osm:node:596362284","latitude":52.6279875,"longitude":1.2886672,"name":"Chapelfield North near Little Bethel Street","properties":{"access":"unknown","bicycle_pa":"stands","capacity":12,"covered":"no","fee":"","operator":"","nameSource":"junction"},"sourceId":"osm"},{"id":"osm:node:596362286","latitude":52.62824,"longitude":1.2894009,"name":"Bethel Street near Little Bethel Street","properties":{"access":"unknown","bicycle_pa":"stands","capacity":16,"covered":"no","fee":"","operator":"","nameSource":"junction"},"sourceId":"osm"},{"id":"osm:node:596362290","latitude":52.6281299,"longitude":1.2900462,"name":"Bethel Street near Little Bethel Street","properties":{"access":"unknown","bicycle_pa":"stands","capacity":8,"covered":"no","fee":"","operator":"","nameSource":"junction"},"sourceId":"osm"},{"id":"osm:node:596362300","latitude":52.6294431,"longitude":1.2894123,"name":"Fishers Lane by SGH Restaurant and bar","properties":{"access":"unknown","bicycle_pa":"","capacity":6,"covered":"","fee":"","operator":"","nameSource":"landmark"},"sourceId":"osm"},{"id":"osm:node:596362306","latitude":52.6262525,"longitude":1.2935048,"name":"Rampant Horse Street near Red Lion Street","properties":{"access":"unknown","bicycle_pa":"","capacity":12,"covered":"no","fee":"","operator":"Norwich City Council","nameSource":"junction"},"sourceId":"osm"},{"id":"osm:node:596362313","latitude":52.6266022,"longitude":1.2931516,"name":"Brigg Street near Rampant Horse Street","properties":{"access":"unknown","bicycle_pa":"stands","capacity":16,"covered":"no","fee":"","operator":"Norwich City Council","nameSource":"junction"},"sourceId":"osm"},{"id":"osm:node:596362315","latitude":52.6262162,"longitude":1.2956412,"name":"Timberhill near Lion and Castle Yard","properties":{"access":"unknown","bicycle_pa":"stands","capacity":8,"covered":"no","fee":"","operator":"Norwich City Council","nameSource":"junction"},"sourceId":"osm"},{"id":"osm:node:596362325","latitude":52.625917,"longitude":1.2960564,"name":"Timberhill near All Saints Street","properties":{"access":"unknown","bicycle_pa":"stands","capacity":6,"covered":"no","fee":"","operator":"Norwich City Council","nameSource":"junction"},"sourceId":"osm"},{"id":"osm:node:596362327","latitude":52.6280529,"longitude":1.292168,"name":"Bethel Street Pedestrian zone near Pudding Lane","properties":{"access":"unknown","bicycle_pa":"stands","capacity":12,"covered":"no","fee":"","operator":"Norwich City Council","nameSource":"junction"},"sourceId":"osm"},{"id":"osm:node:596362343","latitude":52.6284759,"longitude":1.291954,"name":"Bethel Street Pedestrian zone near Pudding Lane","properties":{"access":"unknown","bicycle_pa":"stands","capacity":8,"covered":"no","fee":"","operator":"","nameSource":"junction"},"sourceId":"osm"},{"id":"osm:node:596362347","latitude":52.6290121,"longitude":1.2916181,"name":"St Giles Street near Upper Goat Lane","properties":{"access":"unknown","bicycle_pa":"stands","capacity":8,"covered":"no","fee":"","operator":"Norwich City Council","nameSource":"junction"},"sourceId":"osm"},{"id":"osm:node:596362351","latitude":52.6286947,"longitude":1.2919772,"name":"St Peters Street near Gaol Hill","properties":{"access":"unknown","bicycle_pa":"stands","capacity":8,"covered":"no","fee":"","operator":"","nameSource":"junction"},"sourceId":"osm"},{"id":"osm:node:596362354","latitude":52.6298679,"longitude":1.2920449,"name":"Pottergate near Lower Goat Lane","properties":{"access":"unknown","bicycle_pa":"stands","capacity":4,"covered":"no","fee":"","operator":"","nameSource":"junction"},"sourceId":"osm"},{"id":"osm:node:596362357","latitude":52.6299341,"longitude":1.2917823,"name":"Pottergate near Lower Goat Lane","properties":{"access":"unknown","bicycle_pa":"stands","capacity":16,"covered":"no","fee":"","operator":"Norwich City Council","nameSource":"junction"},"sourceId":"osm"},{"id":"osm:node:596362365","latitude":52.6289993,"longitude":1.2926989,"name":"Gaol Hill near Guildhall Hill","properties":{"access":"unknown","bicycle_pa":"stands","capacity":36,"covered":"no","fee":"","operator":"Norwich City Council","nameSource":"junction"},"sourceId":"osm"},{"id":"osm:node:596362370","latitude":52.6293968,"longitude":1.2941173,"name":"Little London Street near London Street","properties":{"access":"unknown","bicycle_pa":"stands","capacity":20,"covered":"no","fee":"","operator":"Norwich City Council","nameSource":"junction"},"sourceId":"osm"},{"id":"osm:node:596627849","latitude":52.6282925,"longitude":1.2952416,"name":"Castle Meadow near Arcade Street","properties":{"access":"unknown","bicycle_pa":"","capacity":6,"covered":"no","fee":"","operator":"Norwich City Council","nameSource":"junction"},"sourceId":"osm"},{"id":"osm:node:596627852","latitude":52.6316544,"longitude":1.2905404,"name":"Coslany Square near Coslany Street","properties":{"access":"unknown","bicycle_pa":"stands","capacity":6,"covered":"no","fee":"","operator":"Norwich City Council","nameSource":"junction"},"sourceId":"osm"},{"id":"osm:node:596627877","latitude":52.6356148,"longitude":1.2962979,"name":"Saint Crispins Road by Anglia Square Mobility Hub","properties":{"access":"unknown","bicycle_pa":"","capacity":4,"covered":"no","fee":"","operator":"Norwich City Council","nameSource":"landmark"},"sourceId":"osm"},{"id":"osm:node:596627880","latitude":52.626646,"longitude":1.3062729,"name":"Station Approach near Koblenz Avenue","properties":{"access":"unknown","bicycle_pa":"","capacity":44,"covered":"no","fee":"","operator":"Norwich City Council","nameSource":"junction"},"sourceId":"osm"},{"id":"osm:node:596627883","latitude":52.6275122,"longitude":1.30612,"name":"Station Approach by The Canoe Man","properties":{"access":"unknown","bicycle_pa":"stands","capacity":6,"covered":"no","fee":"","operator":"Norwich City Council","nameSource":"landmark"},"sourceId":"osm"},{"id":"osm:node:596627886","latitude":52.6275401,"longitude":1.3063681,"name":"Station Approach by No.8","properties":{"access":"unknown","bicycle_pa":"stands","capacity":6,"covered":"no","fee":"","operator":"Norwich City Council","nameSource":"landmark"},"sourceId":"osm"},{"id":"osm:node:596627889","latitude":52.6274172,"longitude":1.3069942,"name":"Station Approach by Norwich Railway Station Taxi Rank","properties":{"access":"unknown","bicycle_pa":"","capacity":114,"covered":"","fee":"","operator":"Norwich City Council","nameSource":"landmark"},"sourceId":"osm"},{"id":"osm:node:596627892","latitude":52.6302631,"longitude":1.2973316,"name":"Queen Street near Bank Plain","properties":{"access":"unknown","bicycle_pa":"stands","capacity":12,"covered":"no","fee":"","operator":"Norwich City Council","nameSource":"junction"},"sourceId":"osm"},{"id":"osm:node:596627897","latitude":52.6310271,"longitude":1.298586,"name":"Tombland near Princes Street","properties":{"access":"unknown","bicycle_pa":"stands","capacity":12,"covered":"no","fee":"","operator":"Norwich City Council","nameSource":"junction"},"sourceId":"osm"},{"id":"osm:node:596627902","latitude":52.6333458,"longitude":1.2967563,"name":"Fye Bridge Street near Colegate","properties":{"access":"unknown","bicycle_pa":"stands","capacity":6,"covered":"no","fee":"","operator":"Norwich City Council","nameSource":"junction"},"sourceId":"osm"},{"id":"osm:node:596627906","latitude":52.636605,"longitude":1.2966221,"name":"Magdalen Street near Cowgate","properties":{"access":"unknown","bicycle_pa":"","capacity":4,"covered":"no","fee":"","operator":"Norwich City Council","nameSource":"junction"},"sourceId":"osm"},{"id":"osm:node:598902535","latitude":52.6275355,"longitude":1.29237,"name":"Hay Hill near Millennium Plain","properties":{"access":"unknown","bicycle_pa":"stands","capacity":30,"covered":"no","fee":"","operator":"Norwich City Council","nameSource":"junction"},"sourceId":"osm"},{"id":"osm:node:600394538","latitude":52.6270161,"longitude":1.2948015,"name":"Orford Hill near Orford Street","properties":{"access":"unknown","bicycle_pa":"stands","capacity":10,"covered":"no","fee":"","operator":"Norwich City Council","nameSource":"junction"},"sourceId":"osm"},{"id":"osm:node:603766348","latitude":52.6295118,"longitude":1.2999456,"name":"Prince of Wales Road near Upper King Street","properties":{"access":"unknown","bicycle_pa":"stands","capacity":6,"covered":"no","fee":"","operator":"Norwich City Council","nameSource":"junction"},"sourceId":"osm"},{"id":"osm:node:603766445","latitude":52.6291408,"longitude":1.3020155,"name":"Prince of Wales Road near Saint Vedast Street","properties":{"access":"unknown","bicycle_pa":"","capacity":6,"covered":"no","fee":"","operator":"Norwich City Council","nameSource":"junction"},"sourceId":"osm"},{"id":"osm:node:603766447","latitude":52.6290317,"longitude":1.3023517,"name":"Saint Vedast Street near Prince of Wales Road","properties":{"access":"unknown","bicycle_pa":"","capacity":6,"covered":"no","fee":"","operator":"Norwich City Council","nameSource":"junction"},"sourceId":"osm"},{"id":"osm:node:603766448","latitude":52.6288355,"longitude":1.3031704,"name":"Prince of Wales Road near Saint Faiths Lane","properties":{"access":"unknown","bicycle_pa":"stands","capacity":10,"covered":"no","fee":"","operator":"Norwich City Council","nameSource":"junction"},"sourceId":"osm"},{"id":"osm:node:603766450","latitude":52.6290293,"longitude":1.3026361,"name":"Prince of Wales Road near Cathedral Street","properties":{"access":"unknown","bicycle_pa":"","capacity":4,"covered":"no","fee":"","operator":"Norwich City Council","nameSource":"junction"},"sourceId":"osm"},{"id":"osm:node:6081024601","latitude":52.6190566,"longitude":1.3077324,"name":"Governers Court near King Street","properties":{"access":"unknown","bicycle_pa":"stands","capacity":0,"covered":"yes","fee":"","operator":"","nameSource":"junction"},"sourceId":"osm"},{"id":"osm:node:616712508","latitude":52.6261615,"longitude":1.2685705,"name":"The Avenues cycle parking","properties":{"access":"unknown","bicycle_pa":"stands","capacity":10,"covered":"no","fee":"","operator":"","nameSource":"street"},"sourceId":"osm"},{"id":"osm:node:631808967","latitude":52.6247487,"longitude":1.2911206,"name":"St Stephens Street near St Stephens Roundabout","properties":{"access":"unknown","bicycle_pa":"stands","capacity":14,"covered":"no","fee":"","operator":"Norwich City Council","nameSource":"junction"},"sourceId":"osm"},{"id":"osm:node:631808977","latitude":52.6251135,"longitude":1.2917793,"name":"St Stephens Street near One Post Alley","properties":{"access":"unknown","bicycle_pa":"stands","capacity":4,"covered":"no","fee":"","operator":"Norwich City Council","nameSource":"junction"},"sourceId":"osm"},{"id":"osm:node:631808978","latitude":52.6250347,"longitude":1.2916088,"name":"St Stephens Street near One Post Alley","properties":{"access":"unknown","bicycle_pa":"stands","capacity":2,"covered":"no","fee":"","operator":"Norwich City Council","nameSource":"junction"},"sourceId":"osm"},{"id":"osm:node:631808982","latitude":52.6252025,"longitude":1.2918611,"name":"St Stephens Street near One Post Alley","properties":{"access":"unknown","bicycle_pa":"stands","capacity":10,"covered":"no","fee":"","operator":"Norwich City Council","nameSource":"junction"},"sourceId":"osm"},{"id":"osm:node:631808991","latitude":52.6255279,"longitude":1.2926145,"name":"St Stephens Street near One Post Alley","properties":{"access":"unknown","bicycle_pa":"stands","capacity":8,"covered":"no","fee":"","operator":"Norwich City Council","nameSource":"junction"},"sourceId":"osm"},{"id":"osm:node:631809000","latitude":52.6256604,"longitude":1.2929293,"name":"St Stephens Street near Barwells Court","properties":{"access":"unknown","bicycle_pa":"stands","capacity":4,"covered":"no","fee":"","operator":"Norwich City Council","nameSource":"junction"},"sourceId":"osm"},{"id":"osm:node:631809016","latitude":52.625813,"longitude":1.2933305,"name":"St Stephens Street near Barwells Court","properties":{"access":"unknown","bicycle_pa":"stands","capacity":18,"covered":"no","fee":"","operator":"Norwich City Council","nameSource":"junction"},"sourceId":"osm"},{"id":"osm:node:631809033","latitude":52.6266884,"longitude":1.2941596,"name":"Red Lion Street near Orford Yard","properties":{"access":"unknown","bicycle_pa":"stands","capacity":4,"covered":"no","fee":"","operator":"Norwich City Council","nameSource":"junction"},"sourceId":"osm"},{"id":"osm:node:6462418007","latitude":52.6252134,"longitude":1.2400952,"name":"University Drive cycle parking","properties":{"access":"unknown","bicycle_pa":"stands","capacity":18,"covered":"yes","fee":"","operator":"","nameSource":"street"},"sourceId":"osm"},{"id":"osm:node:6481413012","latitude":52.6284891,"longitude":1.3013019,"name":"Rose Lane near Maidstone Road","properties":{"access":"unknown","bicycle_pa":"stands","capacity":4,"covered":"no","fee":"no","operator":"","nameSource":"junction"},"sourceId":"osm"},{"id":"osm:node:6481470990","latitude":52.6274224,"longitude":1.2954096,"name":"Farmers Avenue near Orford Street","properties":{"access":"unknown","bicycle_pa":"stands","capacity":0,"covered":"no","fee":"no","operator":"","nameSource":"junction"},"sourceId":"osm"},{"id":"osm:node:6482686818","latitude":52.6286595,"longitude":1.3017162,"name":"Rose Lane near Saint Vedast Street","properties":{"access":"unknown","bicycle_pa":"stands","capacity":10,"covered":"no","fee":"no","operator":"","nameSource":"junction"},"sourceId":"osm"},{"id":"osm:node:649218198","latitude":52.6224856,"longitude":1.293324,"name":"Brazen Gate near Queens Road","properties":{"access":"unknown","bicycle_pa":"stands","capacity":10,"covered":"yes","fee":"","operator":"Sainsbury's","nameSource":"junction"},"sourceId":"osm"},{"id":"osm:node:649218393","latitude":52.62361,"longitude":1.2922949,"name":"Queens Road near Bull Lane","properties":{"access":"unknown","bicycle_pa":"stands","capacity":8,"covered":"no","fee":"","operator":"Norwich City Council","nameSource":"junction"},"sourceId":"osm"},{"id":"osm:node:649218486","latitude":52.6234758,"longitude":1.2927518,"name":"Bull Lane near Queens Road","properties":{"access":"unknown","bicycle_pa":"stands","capacity":6,"covered":"no","fee":"","operator":"Norwich City Council","nameSource":"junction"},"sourceId":"osm"},{"id":"osm:node:649218604","latitude":52.6243756,"longitude":1.293509,"name":"Surrey Street by Norwich Bus Station","properties":{"access":"unknown","bicycle_pa":"","capacity":4,"covered":"no","fee":"","operator":"Norwich City Council","nameSource":"landmark"},"sourceId":"osm"},{"id":"osm:node:649219243","latitude":52.6286069,"longitude":1.2932665,"name":"Gentlemans Walk near Davey Place","properties":{"access":"unknown","bicycle_pa":"stands","capacity":22,"covered":"no","fee":"","operator":"Norwich City Council","nameSource":"junction"},"sourceId":"osm"},{"id":"osm:node:6494818662","latitude":52.6289387,"longitude":1.2991986,"name":"King Street near Greyfriars Road","properties":{"access":"unknown","bicycle_pa":"stands","capacity":4,"covered":"no","fee":"no","operator":"","nameSource":"junction"},"sourceId":"osm"},{"id":"osm:node:6494818663","latitude":52.6289819,"longitude":1.2991784,"name":"King Street near Greyfriars Road","properties":{"access":"unknown","bicycle_pa":"stands","capacity":4,"covered":"no","fee":"no","operator":"","nameSource":"junction"},"sourceId":"osm"},{"id":"osm:node:6554658581","latitude":52.6086836,"longitude":1.2831821,"name":"Maid Marian Road near Tuckswood Centre","properties":{"access":"unknown","bicycle_pa":"stands","capacity":4,"covered":"no","fee":"","operator":"","nameSource":"junction"},"sourceId":"osm"},{"id":"osm:node:656189339","latitude":52.6368672,"longitude":1.2966461,"name":"Edward Street near Magdalen Street","properties":{"access":"unknown","bicycle_pa":"","capacity":8,"covered":"no","fee":"","operator":"Norwich City Council","nameSource":"junction"},"sourceId":"osm"},{"id":"osm:node:673373696","latitude":52.607679,"longitude":1.25083,"name":"Eaton Street cycle parking","properties":{"access":"unknown","bicycle_pa":"stands","capacity":20,"covered":"no","fee":"","operator":"Waitrose","nameSource":"street"},"sourceId":"osm"},{"id":"osm:node:6776461329","latitude":52.6217878,"longitude":1.2323461,"name":"Chancellors Drive near Norfolk Road","properties":{"access":"unknown","bicycle_pa":"stands","capacity":22,"covered":"no","fee":"","operator":"University of East Anglia","nameSource":"junction"},"sourceId":"osm"},{"id":"osm:node:6776461330","latitude":52.6217042,"longitude":1.2323493,"name":"Chancellors Drive near Norfolk Road","properties":{"access":"unknown","bicycle_pa":"stands","capacity":8,"covered":"no","fee":"","operator":"University of East Anglia","nameSource":"junction"},"sourceId":"osm"},{"id":"osm:node:6776461334","latitude":52.621747,"longitude":1.2327809,"name":"Chancellors Drive near Norfolk Road","properties":{"access":"unknown","bicycle_pa":"stands","capacity":10,"covered":"no","fee":"","operator":"University of East Anglia","nameSource":"junction"},"sourceId":"osm"},{"id":"osm:node:679037091","latitude":52.623826,"longitude":1.2407057,"name":"University Drive by Sports Park","properties":{"access":"unknown","bicycle_pa":"stands","capacity":76,"covered":"yes","fee":"","operator":"Sports Park","nameSource":"landmark"},"sourceId":"osm"},{"id":"osm:node:679037097","latitude":52.6244959,"longitude":1.2406017,"name":"University Drive by Sportscafé","properties":{"access":"unknown","bicycle_pa":"stands","capacity":34,"covered":"yes","fee":"","operator":"Sports Park","nameSource":"landmark"},"sourceId":"osm"},{"id":"osm:node:679037102","latitude":52.6275092,"longitude":1.2901845,"name":"Theatre Street by Prelude","properties":{"access":"unknown","bicycle_pa":"stands","capacity":10,"covered":"no","fee":"","operator":"Norwich City Council","nameSource":"landmark"},"sourceId":"osm"},{"id":"osm:node:679037105","latitude":52.6273224,"longitude":1.2903815,"name":"Theatre Street near The Chantry","properties":{"access":"unknown","bicycle_pa":"stands","capacity":4,"covered":"no","fee":"","operator":"Theatre Royal","nameSource":"junction"},"sourceId":"osm"},{"id":"osm:node:683159658","latitude":52.628693,"longitude":1.302026,"name":"Saint Vedast Street near Rose Lane","properties":{"access":"unknown","bicycle_pa":"","capacity":4,"covered":"no","fee":"","operator":"Norwich City Council","nameSource":"junction"},"sourceId":"osm"},{"id":"osm:node:6847574894","latitude":52.6344618,"longitude":1.2467046,"name":"Earlham Grove by NR5 Community Hub","properties":{"access":"unknown","bicycle_pa":"rack","capacity":10,"covered":"no","fee":"no","operator":"","nameSource":"landmark"},"sourceId":"osm"},{"id":"osm:node:705405779","latitude":52.6029927,"longitude":1.2359433,"name":"Cantley Lane near Honywood Place","properties":{"access":"unknown","bicycle_pa":"stands","capacity":8,"covered":"no","fee":"","operator":"","nameSource":"junction"},"sourceId":"osm"},{"id":"osm:node:7069237508","latitude":52.6265623,"longitude":1.2932619,"name":"Brigg Street near Rampant Horse Street","properties":{"access":"unknown","bicycle_pa":"stands","capacity":8,"covered":"no","fee":"","operator":"","nameSource":"junction"},"sourceId":"osm"},{"id":"osm:node:7193609885","latitude":52.6230527,"longitude":1.2762252,"name":"Unthank Road near Dover Street","properties":{"access":"unknown","bicycle_pa":"stands","capacity":4,"covered":"no","fee":"","operator":"","nameSource":"junction"},"sourceId":"osm"},{"id":"osm:node:7453169292","latitude":52.6111531,"longitude":1.2314786,"name":"Round House Way cycle parking","properties":{"access":"private","bicycle_pa":"","capacity":0,"covered":"yes","fee":"no","operator":"","nameSource":"street"},"sourceId":"osm"},{"id":"osm:node:7845755493","latitude":52.6046366,"longitude":1.2313036,"name":"Round House Way near Newmarket Road","properties":{"access":"unknown","bicycle_pa":"stands","capacity":10,"covered":"no","fee":"","operator":"","nameSource":"junction"},"sourceId":"osm"},{"id":"osm:node:795816686","latitude":52.6143108,"longitude":1.2509976,"name":"Chalfont Walk near Leng Crescent","properties":{"access":"unknown","bicycle_pa":"","capacity":4,"covered":"","fee":"","operator":"","nameSource":"junction"},"sourceId":"osm"},{"id":"osm:node:796066780","latitude":52.6139643,"longitude":1.2510116,"name":"Chalfont Walk near Norvic Drive","properties":{"access":"unknown","bicycle_pa":"","capacity":4,"covered":"","fee":"","operator":"","nameSource":"junction"},"sourceId":"osm"},{"id":"osm:node:7968412454","latitude":52.6378107,"longitude":1.2920596,"name":"Sussex Street near Saint Augustines Street","properties":{"access":"unknown","bicycle_pa":"stands","capacity":6,"covered":"no","fee":"","operator":"","nameSource":"junction"},"sourceId":"osm"},{"id":"osm:node:850633772","latitude":52.6341953,"longitude":1.2636672,"name":"Bowthorpe Road by Norwich Community Hospital","properties":{"access":"unknown","bicycle_pa":"","capacity":14,"covered":"no","fee":"","operator":"","nameSource":"landmark"},"sourceId":"osm"},{"id":"osm:node:850633773","latitude":52.6341374,"longitude":1.2632692,"name":"Bowthorpe Road by Norwich Community Hospital","properties":{"access":"unknown","bicycle_pa":"","capacity":6,"covered":"no","fee":"","operator":"","nameSource":"landmark"},"sourceId":"osm"},{"id":"osm:node:8875674417","latitude":52.6192064,"longitude":1.2535105,"name":"Eaton Park Community Centre cycle parking","properties":{"access":"unknown","bicycle_pa":"stands","capacity":12,"covered":"no","fee":"","operator":"","nameSource":"landmark"},"sourceId":"osm"},{"id":"osm:node:889250432","latitude":52.6207208,"longitude":1.2347853,"name":"Sainsbury's Centre 2","properties":{"access":"unknown","bicycle_pa":"stands","capacity":6,"covered":"no","fee":"","operator":"","nameSource":"source"},"sourceId":"osm"},{"id":"osm:node:889250442","latitude":52.6203758,"longitude":1.2353721,"name":"Sainsbury's Centre 3","properties":{"access":"unknown","bicycle_pa":"stands","capacity":6,"covered":"no","fee":"","operator":"","nameSource":"source"},"sourceId":"osm"},{"id":"osm:node:889250461","latitude":52.6202753,"longitude":1.2355632,"name":"Sainsbury's Centre 4","properties":{"access":"unknown","bicycle_pa":"stands","capacity":6,"covered":"no","fee":"","operator":"","nameSource":"source"},"sourceId":"osm"},{"id":"osm:node:889250491","latitude":52.62081,"longitude":1.2346133,"name":"Sainsbury's Centre 1","properties":{"access":"unknown","bicycle_pa":"stands","capacity":6,"covered":"no","fee":"","operator":"","nameSource":"source"},"sourceId":"osm"},{"id":"osm:node:8990904504","latitude":52.6256873,"longitude":1.3021957,"name":"Saint Ann Lane near King Street","properties":{"access":"unknown","bicycle_pa":"post_hoop","capacity":6,"covered":"no","fee":"","operator":"","nameSource":"junction"},"sourceId":"osm"},{"id":"osm:node:8990904505","latitude":52.6256327,"longitude":1.3020206,"name":"Saint Ann Lane near King Street","properties":{"access":"unknown","bicycle_pa":"post_hoop","capacity":6,"covered":"no","fee":"","operator":"","nameSource":"junction"},"sourceId":"osm"},{"id":"osm:node:9111802047","latitude":52.6189014,"longitude":1.2591023,"name":"South Park Avenue cycle parking","properties":{"access":"unknown","bicycle_pa":"stands","capacity":8,"covered":"no","fee":"","operator":"","nameSource":"street"},"sourceId":"osm"},{"id":"osm:node:9111802048","latitude":52.6201254,"longitude":1.2577711,"name":"Eaton Park Café cycle parking","properties":{"access":"unknown","bicycle_pa":"stands","capacity":14,"covered":"no","fee":"","operator":"","nameSource":"landmark"},"sourceId":"osm"},{"id":"osm:node:9219910081","latitude":52.6206511,"longitude":1.3122116,"name":"Geoffrey Watling Way cycle parking","properties":{"access":"private","bicycle_pa":"building","capacity":0,"covered":"yes","fee":"","operator":"","nameSource":"street"},"sourceId":"osm"},{"id":"osm:node:9219910082","latitude":52.6203866,"longitude":1.3128751,"name":"Hardy Road cycle parking","properties":{"access":"private","bicycle_pa":"building","capacity":0,"covered":"yes","fee":"","operator":"","nameSource":"street"},"sourceId":"osm"},{"id":"osm:node:9219910083","latitude":52.6205508,"longitude":1.3133017,"name":"Hardy Road cycle parking","properties":{"access":"private","bicycle_pa":"building","capacity":0,"covered":"yes","fee":"","operator":"","nameSource":"street"},"sourceId":"osm"},{"id":"osm:node:930055161","latitude":52.6312439,"longitude":1.2933209,"name":"Norwich Cycle Park (secure cage within St Andrews multi storey car park access from Duke Street)","properties":{"access":"yes","bicycle_pa":"building","capacity":26,"covered":"yes","fee":"no","operator":"Norwich City Council","nameSource":"source"},"sourceId":"osm"},{"id":"osm:node:936411209","latitude":52.624883,"longitude":1.240621,"name":"University Drive cycle parking","properties":{"access":"unknown","bicycle_pa":"","capacity":0,"covered":"","fee":"","operator":"Sportspark","nameSource":"street"},"sourceId":"osm"},{"id":"osm:node:9514326735","latitude":52.608374,"longitude":1.2344449,"name":"Juniper Close near Dragonfly Lane","properties":{"access":"unknown","bicycle_pa":"stands","capacity":15,"covered":"no","fee":"no","operator":"","nameSource":"junction"},"sourceId":"osm"},{"id":"osm:node:954714528","latitude":52.622,"longitude":1.2366982,"name":"Chancellors Drive cycle parking","properties":{"access":"unknown","bicycle_pa":"stands","capacity":30,"covered":"yes","fee":"","operator":"University of East Anglia","nameSource":"street"},"sourceId":"osm"},{"id":"osm:node:9674228136","latitude":52.6309522,"longitude":1.2990044,"name":"Tombland near Princes Street","properties":{"access":"unknown","bicycle_pa":"stands","capacity":6,"covered":"no","fee":"","operator":"","nameSource":"junction"},"sourceId":"osm"},{"id":"osm:node:970461693","latitude":52.6242291,"longitude":1.2936563,"name":"Secure cycle parking","properties":{"access":"unknown","bicycle_pa":"","capacity":0,"covered":"","fee":"","operator":"","nameSource":"source"},"sourceId":"osm"},{"id":"osm:node:9742375543","latitude":52.6272915,"longitude":1.2946361,"name":"Orford Hill near White Lion Street","properties":{"access":"unknown","bicycle_pa":"stands","capacity":4,"covered":"no","fee":"","operator":"","nameSource":"junction"},"sourceId":"osm"},{"id":"osm:node:9742877299","latitude":52.6215647,"longitude":1.3077274,"name":"Geoffrey Watling Way near Carrow Road","properties":{"access":"unknown","bicycle_pa":"","capacity":0,"covered":"","fee":"","operator":"","nameSource":"junction"},"sourceId":"osm"},{"id":"osm:node:9742877300","latitude":52.6212649,"longitude":1.3082037,"name":"Geoffrey Watling Way by Match Day Betting","properties":{"access":"unknown","bicycle_pa":"","capacity":0,"covered":"","fee":"","operator":"","nameSource":"landmark"},"sourceId":"osm"},{"id":"osm:node:9742877301","latitude":52.621401,"longitude":1.3079854,"name":"Geoffrey Watling Way near Carrow Road","properties":{"access":"unknown","bicycle_pa":"","capacity":0,"covered":"","fee":"","operator":"","nameSource":"junction"},"sourceId":"osm"},{"id":"osm:node:9742887758","latitude":52.6225425,"longitude":1.3106,"name":"Carrow Road near Canaryfields","properties":{"access":"unknown","bicycle_pa":"loops","capacity":0,"covered":"","fee":"","operator":"","nameSource":"junction"},"sourceId":"osm"},{"id":"osm:node:9914120395","latitude":52.6218336,"longitude":1.2629322,"name":"The Parade near Colman Road","properties":{"access":"unknown","bicycle_pa":"stands","capacity":4,"covered":"no","fee":"","operator":"","nameSource":"junction"},"sourceId":"osm"},{"id":"osm:node:9952442832","latitude":52.6254289,"longitude":1.2598248,"name":"The Avenues near Bunnett Square","properties":{"access":"unknown","bicycle_pa":"stands","capacity":4,"covered":"","fee":"","operator":"","nameSource":"junction"},"sourceId":"osm"},{"id":"osm:way:107046099","latitude":52.627682528571434,"longitude":1.2948487714285715,"name":"Castle Meadow near Farmers Avenue","properties":{"access":"unknown","bicycle_pa":"","capacity":0,"covered":"yes","fee":"","operator":"","nameSource":"junction"},"sourceId":"osm"},{"id":"osm:way:117011813","latitude":52.638947359999996,"longitude":1.27385304,"name":"Blazer Court near Northumberland Street","properties":{"access":"unknown","bicycle_pa":"","capacity":0,"covered":"yes","fee":"","operator":"","nameSource":"junction"},"sourceId":"osm"},{"id":"osm:way:234568360","latitude":52.6142263,"longitude":1.28974408,"name":"Cecil Road cycle parking","properties":{"access":"private","bicycle_pa":"shed","capacity":0,"covered":"yes","fee":"","operator":"The Hewett School","nameSource":"street"},"sourceId":"osm"},{"id":"osm:way:234568361","latitude":52.6132651,"longitude":1.2909178333333333,"name":"Sports Centre cycle parking","properties":{"access":"private","bicycle_pa":"shed","capacity":0,"covered":"yes","fee":"","operator":"The Hewett School","nameSource":"landmark"},"sourceId":"osm"},{"id":"osm:way:544365781","latitude":52.62477554000001,"longitude":1.2947744399999999,"name":"All Saints Green by All Saints Green","properties":{"access":"private","bicycle_pa":"","capacity":0,"covered":"yes","fee":"","operator":"","nameSource":"landmark"},"sourceId":"osm"},{"id":"osm:way:647539472","latitude":52.615465719999996,"longitude":1.3061857,"name":"Norfolk County Council cycle parking","properties":{"access":"unknown","bicycle_pa":"stands","capacity":0,"covered":"yes","fee":"","operator":"","nameSource":"landmark"},"sourceId":"osm"},{"id":"osm:way:647539473","latitude":52.61583484285715,"longitude":1.3079041285714286,"name":"Norfolk Coroner's Court cycle parking","properties":{"access":"unknown","bicycle_pa":"stands","capacity":0,"covered":"yes","fee":"","operator":"","nameSource":"landmark"},"sourceId":"osm"},