{"key":"12/2062/1354","points":[{"id":"osm:node:13428605714","latitude":51.9420587,"longitude":1.2596908,"name":"Mariners Way by Burger King","properties":{"access":"unknown","bicycle_pa":"stands","capacity":12,"covered":"no","fee":"no","operator":"","nameSource":"landmark"},"sourceId":"osm"},{"id":"osm:node:1802900559","latitude":51.9376013,"longitude":1.2853219,"name":"Cafe In The Park cycle parking","properties":{"access":"unknown","bicycle_pa":"stands","capacity":8,"covered":"no","fee":"","operator":"","nameSource":"landmark"},"sourceId":"osm"},{"id":"osm:node:2400601807","latitude":51.943493,"longitude":1.2905719,"name":"Harbour Crescent by Maritime Museum","properties":{"access":"unknown","bicycle_pa":"stands","capacity":8,"covered":"no","fee":"","operator":"","nameSource":"landmark"},"sourceId":"osm"},{"id":"osm:node:343319389","latitude":51.9386969,"longitude":1.2802714,"name":"Station Lane near East Street","properties":{"access":"unknown","bicycle_pa":"","capacity":10,"covered":"","fee":"","operator":"","nameSource":"junction"},"sourceId":"osm"},{"id":"osm:node:3576630993","latitude":51.9389459,"longitude":1.257666,"name":"A120 by The Mayflower","properties":{"access":"unknown","bicycle_pa":"","capacity":10,"covered":"","fee":"","operator":"","nameSource":"landmark"},"sourceId":"osm"},{"id":"osm:node:3654582218","latitude":51.9413747,"longitude":1.2587344,"name":"Freshfields Road by Home Bargains","properties":{"access":"unknown","bicycle_pa":"stands","capacity":8,"covered":"no","fee":"","operator":"","nameSource":"landmark"},"sourceId":"osm"},{"id":"osm:node:3654582219","latitude":51.941588,"longitude":1.2581767,"name":"Freshfields Road by Home Bargains","properties":{"access":"unknown","bicycle_pa":"stands","capacity":10,"covered":"no","fee":"","operator":"","nameSource":"landmark"},"sourceId":"osm"},{"id":"osm:node:417284348","latitude":51.9269664,"longitude":1.2705443,"name":"Promenade by Dovercourt Bay Lifestyles","properties":{"access":"unknown","bicycle_pa":"stands","capacity":36,"covered":"no","fee":"","operator":"","nameSource":"landmark"},"sourceId":"osm"},{"id":"osm:node:4549281126","latitude":51.9365306,"longitude":1.2813119,"name":"Kingsway near Milton Road","properties":{"access":"unknown","bicycle_pa":"","capacity":10,"covered":"","fee":"","operator":"","nameSource":"junction"},"sourceId":"osm"},{"id":"osm:node:5003598177","latitude":51.9340299,"longitude":1.2618425,"name":"Rebecca Close cycle parking","properties":{"access":"unknown","bicycle_pa":"stands","capacity":18,"covered":"no","fee":"","operator":"","nameSource":"street"},"sourceId":"osm"},{"id":"osm:node:5630046996","latitude":51.9344204,"longitude":1.2632207,"name":"Main Road near Manor Road","properties":{"access":"private","bicycle_pa":"stands","capacity":10,"covered":"yes","fee":"","operator":"","nameSource":"junction"},"sourceId":"osm"},{"id":"osm:node:5630046997","latitude":51.9341261,"longitude":1.2633092,"name":"Main Road by The Temple of Light Christian Spiritualist Church & Healing Sanctuary","properties":{"access":"private","bicycle_pa":"stands","capacity":10,"covered":"yes","fee":"","operator":"","nameSource":"landmark"},"sourceId":"osm"},{"id":"osm:node:6391608909","latitude":51.9391504,"longitude":1.2602053,"name":"Williamsburg Avenue by McDonald's","properties":{"access":"unknown","bicycle_pa":"stands","capacity":8,"covered":"","fee":"","operator":"","nameSource":"landmark"},"sourceId":"osm"},{"id":"osm:node:6391608916","latitude":51.9392352,"longitude":1.2607417,"name":"Williamsburg Avenue by Costa","properties":{"access":"unknown","bicycle_pa":"stands","capacity":4,"covered":"","fee":"","operator":"","nameSource":"landmark"},"sourceId":"osm"},{"id":"osm:node:6391632825","latitude":51.9390486,"longitude":1.2587079,"name":"A120 by Lidl","properties":{"access":"unknown","bicycle_pa":"stands","capacity":10,"covered":"no","fee":"no","operator":"","nameSource":"landmark"},"sourceId":"osm"}],"schemaVersion":2}
