{"key":"12/2062/1356","points":[{"id":"osm:node:1793973797","latitude":51.8340091,"longitude":1.2449539,"name":"Queen's Road near Connaught Avenue","properties":{"access":"unknown","bicycle_pa":"","capacity":8,"covered":"","fee":"","operator":"","nameSource":"junction"},"sourceId":"osm"},{"id":"osm:node:1793973798","latitude":51.833961,"longitude":1.2447393,"name":"Connaught Avenue near Queen's Road","properties":{"access":"unknown","bicycle_pa":"","capacity":8,"covered":"","fee":"","operator":"","nameSource":"junction"},"sourceId":"osm"},{"id":"osm:node:1802829162","latitude":51.8343962,"longitude":1.2446935,"name":"Connaught Avenue near Old Road","properties":{"access":"unknown","bicycle_pa":"","capacity":6,"covered":"","fee":"","operator":"","nameSource":"junction"},"sourceId":"osm"},{"id":"osm:node:2088384643","latitude":51.8309667,"longitude":1.2455158,"name":"Connaught Avenue by Pier One Fish and Chips","properties":{"access":"unknown","bicycle_pa":"","capacity":2,"covered":"","fee":"","operator":"","nameSource":"landmark"},"sourceId":"osm"},{"id":"osm:node:2088384644","latitude":51.8315385,"longitude":1.2453926,"name":"Connaught Avenue by Premier Express","properties":{"access":"unknown","bicycle_pa":"","capacity":2,"covered":"","fee":"","operator":"","nameSource":"landmark"},"sourceId":"osm"},{"id":"osm:node:2088384645","latitude":51.8315459,"longitude":1.2455241,"name":"Connaught Avenue by The Hungry Bedouin","properties":{"access":"unknown","bicycle_pa":"","capacity":2,"covered":"","fee":"","operator":"","nameSource":"landmark"},"sourceId":"osm"},{"id":"osm:node:312191578","latitude":51.8340662,"longitude":1.244781,"name":"Connaught Avenue near Queen's Road","properties":{"access":"unknown","bicycle_pa":"","capacity":8,"covered":"","fee":"","operator":"","nameSource":"junction"},"sourceId":"osm"}],"schemaVersion":2}
