{"key":"12/2062/1365","points":[{"id":"osm:node:2019611487","latitude":51.3435237,"longitude":1.3159045,"name":"Canterbury Road West cycle parking","properties":{"access":"unknown","bicycle_pa":"stands","capacity":14,"covered":"no","fee":"","operator":"","nameSource":"street"},"sourceId":"osm"},{"id":"osm:node:2019614917","latitude":51.3425441,"longitude":1.3170323,"name":"Laundry Road near Tothill Street","properties":{"access":"unknown","bicycle_pa":"stands","capacity":16,"covered":"yes","fee":"","operator":"","nameSource":"junction"},"sourceId":"osm"},{"id":"osm:node:29779602","latitude":51.3292874,"longitude":1.317181,"name":"Cheesemans Close near Conyngham Road","properties":{"access":"unknown","bicycle_pa":"stands","capacity":8,"covered":"no","fee":"","operator":"","nameSource":"junction"},"sourceId":"osm"},{"id":"osm:node:29779612","latitude":51.3309571,"longitude":1.3156401,"name":"Church Street near High Street","properties":{"access":"unknown","bicycle_pa":"stands","capacity":2,"covered":"no","fee":"","operator":"","nameSource":"junction"},"sourceId":"osm"},{"id":"osm:node:29779764","latitude":51.3315093,"longitude":1.3152189,"name":"High Street near Church Street","properties":{"access":"unknown","bicycle_pa":"stands","capacity":2,"covered":"no","fee":"","operator":"","nameSource":"junction"},"sourceId":"osm"},{"id":"osm:node:29779848","latitude":51.3341645,"longitude":1.314847,"name":"High Street near Norton Drive","properties":{"access":"unknown","bicycle_pa":"stands","capacity":2,"covered":"no","fee":"","operator":"","nameSource":"junction"},"sourceId":"osm"},{"id":"osm:node:29779849","latitude":51.3339427,"longitude":1.3149489,"name":"Norton Drive near High Street","properties":{"access":"unknown","bicycle_pa":"stands","capacity":2,"covered":"no","fee":"","operator":"","nameSource":"junction"},"sourceId":"osm"},{"id":"osm:node:29779944","latitude":51.3347608,"longitude":1.3145311,"name":"Tothill Street near High Street","properties":{"access":"unknown","bicycle_pa":"stands","capacity":4,"covered":"no","fee":"","operator":"","nameSource":"junction"},"sourceId":"osm"},{"id":"osm:node:29781649","latitude":51.3347341,"longitude":1.3137878,"name":"Monkton Road near High Street","properties":{"access":"unknown","bicycle_pa":"stands","capacity":6,"covered":"no","fee":"","operator":"","nameSource":"junction"},"sourceId":"osm"},{"id":"osm:node:29782158","latitude":51.3348254,"longitude":1.3104223,"name":"Monkton Road near Freeman's Road","properties":{"access":"unknown","bicycle_pa":"stands","capacity":2,"covered":"no","fee":"","operator":"","nameSource":"junction"},"sourceId":"osm"},{"id":"osm:node:29950215","latitude":51.323797,"longitude":1.2549716,"name":"Plucks Gutter by Dog and Duck","properties":{"access":"unknown","bicycle_pa":"stands","capacity":8,"covered":"no","fee":"","operator":"","nameSource":"landmark"},"sourceId":"osm"},{"id":"osm:node:959292723","latitude":51.3316646,"longitude":1.3152065,"name":"High Street near Church Street","properties":{"access":"unknown","bicycle_pa":"stands","capacity":2,"covered":"no","fee":"","operator":"","nameSource":"junction"},"sourceId":"osm"}],"schemaVersion":2}
