{"key":"12/2062/1533","points":[{"id":"osm:node:10767314624","latitude":41.1196429,"longitude":1.261001,"name":"Passeig de Torroja near Carrer de Johann Sebastian Bach","properties":{"access":"unknown","bicycle_pa":"","capacity":0,"covered":"","fee":"","operator":"","nameSource":"junction"},"sourceId":"osm"},{"id":"osm:node:11346998937","latitude":41.1182865,"longitude":1.2416217,"name":"Avinguda de Roma by Belle Woman","properties":{"access":"yes","bicycle_pa":"stands","capacity":18,"covered":"no","fee":"no","operator":"","nameSource":"landmark"},"sourceId":"osm"},{"id":"osm:node:12165329944","latitude":41.1133509,"longitude":1.2578148,"name":"Passeig Marítim de Rafael Casanova cycle parking","properties":{"access":"unknown","bicycle_pa":"stands","capacity":6,"covered":"no","fee":"","operator":"","nameSource":"street"},"sourceId":"osm"},{"id":"osm:node:12165329950","latitude":41.1126643,"longitude":1.2564927,"name":"Passeig Marítim de Rafael Casanova cycle parking","properties":{"access":"unknown","bicycle_pa":"stands","capacity":6,"covered":"no","fee":"","operator":"","nameSource":"street"},"sourceId":"osm"},{"id":"osm:node:12176203894","latitude":41.1183707,"longitude":1.2608442,"name":"Passeig Sant Antoni near Arc de Sant Antoni","properties":{"access":"yes","bicycle_pa":"","capacity":8,"covered":"no","fee":"no","operator":"","nameSource":"junction"},"sourceId":"osm"},{"id":"osm:node:12557203055","latitude":41.1186198,"longitude":1.2485513,"name":"Carrer Pin i Soler near Avinguda d'Estanislau Figueres","properties":{"access":"unknown","bicycle_pa":"stands","capacity":10,"covered":"no","fee":"","operator":"","nameSource":"junction"},"sourceId":"osm"},{"id":"osm:node:12798343192","latitude":41.119525,"longitude":1.2513372,"name":"Carrer Cronista Sessé near Carrer Hernández Sanahuja","properties":{"access":"unknown","bicycle_pa":"stands","capacity":20,"covered":"no","fee":"no","operator":"","nameSource":"junction"},"sourceId":"osm"},{"id":"osm:node:12798343194","latitude":41.1190078,"longitude":1.250622,"name":"Carrer Rovira i Virgili near Carrer Baró de les IV Torres","properties":{"access":"unknown","bicycle_pa":"stands","capacity":12,"covered":"no","fee":"no","operator":"","nameSource":"junction"},"sourceId":"osm"},{"id":"osm:node:12883982759","latitude":41.1160714,"longitude":1.248936,"name":"Carrer de Cobos near Carrer del Governador González","properties":{"access":"unknown","bicycle_pa":"stands","capacity":10,"covered":"no","fee":"","operator":"","nameSource":"junction"},"sourceId":"osm"},{"id":"osm:node:12883982760","latitude":41.1166377,"longitude":1.2487787,"name":"Carrer Cristòfor Colom near Carrer del Governador González","properties":{"access":"yes","bicycle_pa":"stands","capacity":10,"covered":"no","fee":"no","operator":"","nameSource":"junction"},"sourceId":"osm"},{"id":"osm:node:12896389297","latitude":41.1225592,"longitude":1.2348614,"name":"Zona Eixample cycle parking","properties":{"access":"unknown","bicycle_pa":"","capacity":0,"covered":"no","fee":"","operator":"","nameSource":"place"},"sourceId":"osm"},{"id":"osm:node:12896389298","latitude":41.1241912,"longitude":1.2344527,"name":"Carrer Josep Maria Tarrassa cycle parking","properties":{"access":"unknown","bicycle_pa":"","capacity":0,"covered":"","fee":"","operator":"","nameSource":"street"},"sourceId":"osm"},{"id":"osm:node:13050452436","latitude":41.1222616,"longitude":1.2737845,"name":"Carrer de Josep Carner near Carrer Llorenç de Vilallonga","properties":{"access":"unknown","bicycle_pa":"stands","capacity":0,"covered":"no","fee":"","operator":"","nameSource":"junction"},"sourceId":"osm"},{"id":"osm:node:13050452437","latitude":41.1224847,"longitude":1.2736017,"name":"Carrer Llorenç de Vilallonga near Carrer de Josep Carner","properties":{"access":"unknown","bicycle_pa":"stands","capacity":0,"covered":"","fee":"","operator":"","nameSource":"junction"},"sourceId":"osm"},{"id":"osm:node:13285852899","latitude":41.1154846,"longitude":1.244034,"name":"Carrer Pere Martell near Avinguda Ramón y Cajal","properties":{"access":"unknown","bicycle_pa":"stands","capacity":13,"covered":"no","fee":"no","operator":"","nameSource":"junction"},"sourceId":"osm"},{"id":"osm:node:13740460323","latitude":41.114072,"longitude":1.2560995,"name":"Rambla Nova by Firmo's","properties":{"access":"unknown","bicycle_pa":"stands","capacity":20,"covered":"","fee":"","operator":"","nameSource":"landmark"},"sourceId":"osm"},{"id":"osm:node:13980434478","latitude":41.1197888,"longitude":1.2758263,"name":"Passeig Marítim de Rafael Casanova cycle parking","properties":{"access":"unknown","bicycle_pa":"stands","capacity":6,"covered":"no","fee":"","operator":"","nameSource":"street"},"sourceId":"osm"},{"id":"osm:node:9253316634","latitude":41.1186769,"longitude":1.2449752,"name":"Plaça Imperial Tarraco near Carrer Pere Martell","properties":{"access":"unknown","bicycle_pa":"stands","capacity":0,"covered":"no","fee":"","operator":"","nameSource":"junction"},"sourceId":"osm"},{"id":"osm:node:966816930","latitude":41.122403,"longitude":1.2496225,"name":"Avinguda de Catalunya near Carrer Santa Joaquima de Vedruna","properties":{"access":"unknown","bicycle_pa":"wall_loops","capacity":20,"covered":"no","fee":"","operator":"","nameSource":"junction"},"sourceId":"osm"},{"id":"osm:way:916931363","latitude":41.121528266666665,"longitude":1.2516707666666667,"name":"Parking bicicletas","properties":{"access":"yes","bicycle_pa":"bollard","capacity":20,"covered":"no","fee":"no","operator":"","nameSource":"source"},"sourceId":"osm"}],"schemaVersion":2}
