{"key":"12/2062/1534","points":[{"id":"osm:node:10836611287","latitude":41.1103972,"longitude":1.250381,"name":"Plaça dels Carros near Carrer Anselm Clavé","properties":{"access":"unknown","bicycle_pa":"stands","capacity":0,"covered":"no","fee":"","operator":"","nameSource":"junction"},"sourceId":"osm"},{"id":"osm:node:10836618514","latitude":41.1116318,"longitude":1.2529802,"name":"Carrer del Comerç near Carrer Orosi","properties":{"access":"unknown","bicycle_pa":"stands","capacity":8,"covered":"no","fee":"","operator":"","nameSource":"junction"},"sourceId":"osm"},{"id":"osm:node:11363702427","latitude":41.1116804,"longitude":1.2532342,"name":"Carrer del Comerç near Carrer Orosi","properties":{"access":"yes","bicycle_pa":"stands","capacity":20,"covered":"no","fee":"no","operator":"","nameSource":"junction"},"sourceId":"osm"},{"id":"osm:node:12165311082","latitude":41.1109312,"longitude":1.2537199,"name":"Passeig Marítim de Rafael Casanova by Tarragona","properties":{"access":"unknown","bicycle_pa":"stands","capacity":8,"covered":"no","fee":"","operator":"","nameSource":"landmark"},"sourceId":"osm"},{"id":"osm:node:12165311084","latitude":41.108923,"longitude":1.2514415,"name":"Carrer Dic de Llevant by Brisa","properties":{"access":"unknown","bicycle_pa":"stands","capacity":14,"covered":"no","fee":"no","operator":"","nameSource":"landmark"},"sourceId":"osm"},{"id":"osm:node:12165311088","latitude":41.1081861,"longitude":1.2508551,"name":"Carrer Dic de Llevant cycle parking","properties":{"access":"unknown","bicycle_pa":"stands","capacity":12,"covered":"no","fee":"no","operator":"","nameSource":"street"},"sourceId":"osm"},{"id":"osm:node:12165311091","latitude":41.1088762,"longitude":1.2514021,"name":"Carrer Dic de Llevant by Brisa","properties":{"access":"unknown","bicycle_pa":"stands","capacity":14,"covered":"no","fee":"no","operator":"","nameSource":"landmark"},"sourceId":"osm"},{"id":"osm:node:5434920900","latitude":41.11169,"longitude":1.2528776,"name":"Pbici2","properties":{"access":"unknown","bicycle_pa":"stands","capacity":4,"covered":"no","fee":"","operator":"","nameSource":"source"},"sourceId":"osm"},{"id":"osm:node:8951964250","latitude":41.109972,"longitude":1.2495817,"name":"Plaça dels Carros near Carrer Mar","properties":{"access":"unknown","bicycle_pa":"stands","capacity":8,"covered":"no","fee":"","operator":"","nameSource":"junction"},"sourceId":"osm"}],"schemaVersion":2}
