{"key":"12/1939/1319","points":[{"id":"osm:node:10695425291","latitude":53.7993377,"longitude":-9.5244214,"name":"Shop Street near James Street","properties":{"access":"unknown","bicycle_pa":"stands","capacity":4,"covered":"no","fee":"","operator":"","nameSource":"junction"},"sourceId":"osm"},{"id":"osm:node:10699051560","latitude":53.7989934,"longitude":-9.5244119,"name":"N59 near Shop Street","properties":{"access":"unknown","bicycle_pa":"","capacity":0,"covered":"","fee":"","operator":"","nameSource":"junction"},"sourceId":"osm"},{"id":"osm:node:10699885860","latitude":53.8000862,"longitude":-9.5235375,"name":"James Street by Marlene's Chocolate Haven","properties":{"access":"unknown","bicycle_pa":"","capacity":0,"covered":"","fee":"","operator":"","nameSource":"landmark"},"sourceId":"osm"},{"id":"osm:node:2173875376","latitude":53.7993914,"longitude":-9.5223697,"name":"Bridge Street near Neill O'Neill Lane","properties":{"access":"unknown","bicycle_pa":"stands","capacity":2,"covered":"no","fee":"","operator":"","nameSource":"junction"},"sourceId":"osm"},{"id":"osm:node:2180474205","latitude":53.7955643,"longitude":-9.5290027,"name":"Railway Walk cycle parking","properties":{"access":"unknown","bicycle_pa":"stands","capacity":4,"covered":"no","fee":"","operator":"","nameSource":"street"},"sourceId":"osm"},{"id":"osm:node:4441800780","latitude":53.7993693,"longitude":-9.5222675,"name":"Bridge Street near Neill O'Neill Lane","properties":{"access":"unknown","bicycle_pa":"stands","capacity":3,"covered":"no","fee":"","operator":"","nameSource":"junction"},"sourceId":"osm"},{"id":"osm:node:4463342690","latitude":53.7999517,"longitude":-9.549675,"name":"The Quay near L1801","properties":{"access":"unknown","bicycle_pa":"stands","capacity":8,"covered":"no","fee":"","operator":"","nameSource":"junction"},"sourceId":"osm"},{"id":"osm:node:4463342691","latitude":53.800136,"longitude":-9.5489922,"name":"The Quay by EasyGo Fast Charger","properties":{"access":"unknown","bicycle_pa":"stands","capacity":12,"covered":"no","fee":"","operator":"","nameSource":"landmark"},"sourceId":"osm"},{"id":"osm:node:4463342692","latitude":53.8004766,"longitude":-9.5480681,"name":"The Quay by The Helm Restaurant","properties":{"access":"unknown","bicycle_pa":"stands","capacity":12,"covered":"no","fee":"","operator":"","nameSource":"landmark"},"sourceId":"osm"},{"id":"osm:node:4463342693","latitude":53.8006318,"longitude":-9.5251438,"name":"St Mary's Crescent cycle parking","properties":{"access":"unknown","bicycle_pa":"stands","capacity":8,"covered":"yes","fee":"","operator":"","nameSource":"street"},"sourceId":"osm"},{"id":"osm:node:5319191897","latitude":53.8000398,"longitude":-9.5235787,"name":"James Street by Marlene's Chocolate Haven","properties":{"access":"unknown","bicycle_pa":"stands","capacity":6,"covered":"no","fee":"","operator":"","nameSource":"landmark"},"sourceId":"osm"},{"id":"osm:node:5319198595","latitude":53.798835,"longitude":-9.520577,"name":"Mill Street near Grove Park","properties":{"access":"unknown","bicycle_pa":"stands","capacity":10,"covered":"no","fee":"","operator":"","nameSource":"junction"},"sourceId":"osm"},{"id":"osm:way:1330909580","latitude":53.79623425,"longitude":-9.510353733333334,"name":"Altamont Street by Westport","properties":{"access":"yes","bicycle_pa":"stands","capacity":12,"covered":"yes","fee":"","operator":"","nameSource":"landmark"},"sourceId":"osm"},{"id":"osm:way:449206733","latitude":53.7961823,"longitude":-9.50935752,"name":"Altamont Street cycle parking","properties":{"access":"unknown","bicycle_pa":"lockers","capacity":6,"covered":"","fee":"","operator":"","nameSource":"street"},"sourceId":"osm"},{"id":"osm:way:520852550","latitude":53.79953132000001,"longitude":-9.520976999999998,"name":"Market Lane cycle parking","properties":{"access":"private","bicycle_pa":"lockers","capacity":5,"covered":"yes","fee":"no","operator":"Mayo County Council","nameSource":"street"},"sourceId":"osm"}],"schemaVersion":2}
