{"key":"12/1979/1588","points":[{"categories":["hire"],"id":"osm:node:10016118718","latitude":37.3889056,"longitude":-5.9956309,"name":"Cycle hire","properties":{},"sourceId":"osm"},{"categories":["hire"],"id":"osm:node:10016123118","latitude":37.3888671,"longitude":-5.9961347,"name":"Cycle hire","properties":{},"sourceId":"osm"},{"categories":["hire"],"id":"osm:node:10016238117","latitude":37.3815906,"longitude":-5.9892334,"name":"Cycle hire","properties":{},"sourceId":"osm"},{"categories":["hire"],"id":"osm:node:10690422505","latitude":37.3854596,"longitude":-6.0043498,"name":"Spain Cycling Tours","properties":{"operator":"Spain Cycling Tours","serviceRental":"yes"},"sourceId":"osm"},{"categories":["hire"],"id":"osm:node:10926462974","latitude":37.3925531,"longitude":-5.9878988,"name":"Bunny bike","properties":{},"sourceId":"osm"},{"categories":["hire"],"id":"osm:node:11070953885","latitude":37.4112153,"longitude":-5.9773022,"name":"JCDecaux","properties":{"brand":"Sevici","fee":"yes","network":"Sevici","operator":"JCDecaux"},"sourceId":"osm"},{"categories":["shop","repair"],"id":"osm:node:1133003359","latitude":37.3890838,"longitude":-6.0025599,"name":"Suraventura Bicycles","properties":{"openingHours":"Mo-Fr 10:00-14:00,17:00-20:30; Sa 10:00-14:00","serviceRepair":"yes","website":"http://suraventurabikes.es/"},"sourceId":"osm"},{"categories":["hire"],"id":"osm:node:12181685445","latitude":37.3868622,"longitude":-5.9844781,"name":"Cycle hire","properties":{},"sourceId":"osm"},{"categories":["shop","repair","hire"],"id":"osm:node:12579080949","latitude":37.3909043,"longitude":-5.9896917,"name":"Centerbici","properties":{"openingHours":"10:00-18:00","serviceRental":"yes","serviceRepair":"yes","website":"https://centerbici.com/"},"sourceId":"osm"},{"categories":["hire"],"id":"osm:node:12587143948","latitude":37.3929755,"longitude":-5.999176,"name":"Naturanda Tourism Information","properties":{"openingHours":"Mo-Su 08:00-20:00","operator":"Naturanda Turismo Ambiental","website":"https://naturanda.com/"},"sourceId":"osm"},{"categories":["hire"],"id":"osm:node:12587149031","latitude":37.3942792,"longitude":-5.9952324,"name":"Naturanda Tourism Information","properties":{"openingHours":"Mo-Su 08:00-20:00","operator":"Naturanda Turismo Ambiental","website":"https://naturanda.com/"},"sourceId":"osm"},{"categories":["shop","repair"],"id":"osm:node:12900245679","latitude":37.4003762,"longitude":-5.9767037,"name":"Rodar Sports","properties":{"openingHours":"Lu-Vi 09:30-13:30 y 16:30-20:30 Sa 10:30-14:00","serviceRepair":"yes","serviceTools":"yes","website":"https://www.rodarsports.com/"},"sourceId":"osm"},{"categories":["shop"],"id":"osm:node:1290619742","latitude":37.4015711,"longitude":-5.994001,"name":"Jose Gomez del Moral","properties":{"servicePump":"no"},"sourceId":"osm"},{"categories":["hire"],"id":"osm:node:1311751768","latitude":37.3881429,"longitude":-5.9938475,"name":"075 Plaza San Francisco","properties":{"brand":"Sevici","network":"Sevici","operator":"JCDecaux"},"sourceId":"osm"},{"categories":["hire"],"id":"osm:node:1312257115","latitude":37.392217,"longitude":-5.9898939,"name":"057 Plaza Cristo de Burgos","properties":{"network":"Sevici","operator":"JCDecaux"},"sourceId":"osm"},{"categories":["hire"],"id":"osm:node:1313229294","latitude":37.3971581,"longitude":-6.0062384,"name":"086 Camino de los Descubrimientos","properties":{"network":"Sevici","operator":"JCDecaux"},"sourceId":"osm"},{"categories":["hire"],"id":"osm:node:1313569427","latitude":37.3964777,"longitude":-5.9873931,"name":"047 Calle Hiniesta","properties":{"brand":"Sevici","network":"Sevici","operator":"JCDecaux"},"sourceId":"osm"},{"categories":["hire"],"id":"osm:node:1343636301","latitude":37.3790534,"longitude":-5.9899085,"name":"120 Glorieta San Diego","properties":{"network":"Sevici","operator":"JCDecaux"},"sourceId":"osm"},{"categories":["hire"],"id":"osm:node:1360288717","latitude":37.3929973,"longitude":-5.9868947,"name":"056 Plaza Jerónimo de Córdoba","properties":{"brand":"Sevici","network":"Sevici","operator":"JCDecaux"},"sourceId":"osm"},{"categories":["hire"],"id":"osm:node:1362113434","latitude":37.4041941,"longitude":-6.0073507,"name":"067 Calle Leonardo Da Vinci","properties":{"network":"Sevici","operator":"JCDecaux"},"sourceId":"osm"},{"categories":["hire"],"id":"osm:node:1362113441","latitude":37.3975151,"longitude":-6.0105843,"name":"099 Calle Américo Vespucio","properties":{"brand":"Sevici","network":"Sevici","operator":"JCDecaux"},"sourceId":"osm"},{"categories":["hire"],"id":"osm:node:1362113466","latitude":37.409433,"longitude":-6.0069599,"name":"088 Calle Américo Vespucio","properties":{"brand":"Sevici","network":"Sevici","operator":"JCDecaux"},"sourceId":"osm"},{"categories":["hire"],"id":"osm:node:1362113472","latitude":37.4122217,"longitude":-6.0063862,"name":"095 Calle Américo Vespucio","properties":{"brand":"Sevici","network":"Sevici","operator":"JCDecaux"},"sourceId":"osm"},{"categories":["hire"],"id":"osm:node:1362163658","latitude":37.4158701,"longitude":-6.0057752,"name":"123 Estadio Olímpico","properties":{"network":"Sevici","operator":"JCDecaux"},"sourceId":"osm"},{"categories":["hire"],"id":"osm:node:1368695262","latitude":37.3827512,"longitude":-5.9836676,"name":"102 Calle Juan de Mata Carriazo","properties":{"brand":"Sevici","network":"Sevici","operator":"JCDecaux"},"sourceId":"osm"},{"categories":["hire"],"id":"osm:node:1368695286","latitude":37.3874214,"longitude":-5.9829997,"name":"084 Calle José María Moreno Galván","properties":{"brand":"Sevici","network":"Sevici","operator":"JCDecaux"},"sourceId":"osm"},{"categories":["shop"],"id":"osm:node:13711241201","latitude":37.3920821,"longitude":-5.9842761,"name":"Taller de Bicicletas","properties":{"openingHours":"Mo-Fr 09:00-14:00, 17:00-21:00; Sa 09:00-14:00","website":"https://www.tallerdebicicletas.com/"},"sourceId":"osm"},{"categories":["hire"],"id":"osm:node:1380563765","latitude":37.4134313,"longitude":-5.9824322,"name":"181 Ronda Urbana Norte - Aprox. C/ Doctor Fedriani","properties":{"network":"Sevici","operator":"JCDecaux","website":"https://www.sevici.es/"},"sourceId":"osm"},{"categories":["hire"],"id":"osm:node:1487793047","latitude":37.3996367,"longitude":-5.9777243,"name":"045 Carretera de Carmona","properties":{"brand":"Sevici","network":"Sevici","operator":"JCDecaux"},"sourceId":"osm"},{"categories":["hire"],"id":"osm:node:1542614822","latitude":37.3932438,"longitude":-5.9838491,"name":"055 Calle de Maria Auxiliadora","properties":{"brand":"Sevici","network":"Sevici","operator":"JCDecaux"},"sourceId":"osm"},{"categories":["hire"],"id":"osm:node:1542614837","latitude":37.390463,"longitude":-5.9980113,"name":"063 Calle San Pablo","properties":{"network":"Sevici","operator":"JCDecaux","website":"https://www.sevici.es/"},"sourceId":"osm"},{"categories":["shop"],"id":"osm:node:1545527324","latitude":37.388121,"longitude":-5.9850533,"name":"Bike Life","properties":{"openingHours":"Mo-Fr 10:00-14:00,17:00-21:00; Sa 10:00-14:00"},"sourceId":"osm"},{"categories":["hire"],"id":"osm:node:1750991853","latitude":37.3851694,"longitude":-6.0036808,"name":"218 Plaza del Altozano","properties":{"brand":"Sevici","network":"Sevici","operator":"JCDecaux"},"sourceId":"osm"},{"categories":["hire"],"id":"osm:node:1751007318","latitude":37.3833998,"longitude":-6.0082126,"name":"094 Plaza del Zurraque","properties":{"brand":"Sevici","network":"Sevici","operator":"JCDecaux"},"sourceId":"osm"},{"categories":["hire"],"id":"osm:node:1751007333","latitude":37.3869518,"longitude":-6.0076608,"name":"091 Calle Procurador","properties":{"brand":"Sevici","network":"Sevici","operator":"JCDecaux"},"sourceId":"osm"},{"categories":["hire"],"id":"osm:node:1883917292","latitude":37.3841827,"longitude":-5.9798343,"name":"104 Avenida Eduardo Dato","properties":{"brand":"Sevici","network":"Sevici","operator":"JCDecaux"},"sourceId":"osm"},{"categories":["hire"],"id":"osm:node:1883917305","latitude":37.3845228,"longitude":-5.9824398,"name":"103 Avenida Eduardo Dato","properties":{"brand":"Sevici","network":"Sevici","operator":"JCDecaux"},"sourceId":"osm"},{"categories":["hire"],"id":"osm:node:1905508092","latitude":37.3937233,"longitude":-5.9818532,"name":"066 Calle Arroyo","properties":{"brand":"Sevici","network":"Sevici","operator":"JCDecaux"},"sourceId":"osm"},{"categories":["hire"],"id":"osm:node:1960312763","latitude":37.3807308,"longitude":-6.0092094,"name":"113 Plaza San Martín de Porres","properties":{"brand":"Sevici","network":"Sevici","operator":"JCDecaux"},"sourceId":"osm"},{"categories":["hire"],"id":"osm:node:2059734836","latitude":37.3801273,"longitude":-5.9971188,"name":"118 Plaza de Cuba","properties":{"brand":"Sevici","network":"Sevici","operator":"JCDecaux"},"sourceId":"osm"},{"categories":["hire"],"id":"osm:node:2316134212","latitude":37.3806956,"longitude":-5.9869575,"name":"110 Ciudad de Ronda","properties":{"brand":"Sevici","network":"Sevici","operator":"JCDecaux","website":"https://www.sevici.es/"},"sourceId":"osm"},{"categories":["hire"],"id":"osm:node:2362825420","latitude":37.3813994,"longitude":-5.9867247,"name":"101 Prado de San Sebastián","properties":{"brand":"Sevici","network":"Sevici","operator":"JCDecaux","website":"https://www.sevici.es/"},"sourceId":"osm"},{"categories":["hire"],"id":"osm:node:2414366811","latitude":37.3740394,"longitude":-6.0041982,"name":"133 Avenida Santa Fe","properties":{"network":"Sevici","operator":"JCDecaux"},"sourceId":"osm"},{"categories":["hire"],"id":"osm:node:2414370957","latitude":37.3747704,"longitude":-5.9985362,"name":"134 Calle Virgen de Luján","properties":{"brand":"Sevici","network":"Sevici","operator":"JCDecaux"},"sourceId":"osm"},{"categories":["hire"],"id":"osm:node:2414376127","latitude":37.3745382,"longitude":-5.9947455,"name":"135 Calle Virgen de Luján","properties":{"brand":"Sevici","network":"Sevici","operator":"JCDecaux"},"sourceId":"osm"},{"categories":["hire"],"id":"osm:node:2414378485","latitude":37.3731194,"longitude":-5.9976102,"name":"136 Calle Asunción","properties":{"brand":"Sevici","network":"Sevici","operator":"JCDecaux"},"sourceId":"osm"},{"categories":["hire"],"id":"osm:node:2414386515","latitude":37.3736779,"longitude":-5.9854767,"name":"137 Avenida de la Borbolla","properties":{"network":"Sevici","operator":"JCDecaux"},"sourceId":"osm"},{"categories":["hire"],"id":"osm:node:2414393131","latitude":37.3760219,"longitude":-5.9790768,"name":"138 Calle Ramón Carande","properties":{"brand":"Sevici","network":"Sevici","operator":"JCDecaux"},"sourceId":"osm"},{"categories":["hire"],"id":"osm:node:2414396532","latitude":37.3723704,"longitude":-5.9773621,"name":"140 Calle Felipe II","properties":{"network":"Sevici","operator":"JCDecaux"},"sourceId":"osm"},{"categories":["hire"],"id":"osm:node:2414399021","latitude":37.371606,"longitude":-5.9818494,"name":"141 Calle Felipe II","properties":{"network":"Sevici","operator":"JCDecaux"},"sourceId":"osm"},{"categories":["hire"],"id":"osm:node:2414400806","latitude":37.3716758,"longitude":-5.9975514,"name":"142 Calle Ramón de Carranza","properties":{"brand":"Sevici","network":"Sevici","operator":"JCDecaux"},"sourceId":"osm"},{"categories":["hire"],"id":"osm:node:2414401888","latitude":37.3715555,"longitude":-6.0032632,"name":"143 Calle Ramón de Carranza","properties":{"network":"Sevici","operator":"JCDecaux"},"sourceId":"osm"},{"categories":["hire"],"id":"osm:node:2414415016","latitude":37.3967485,"longitude":-5.9786342,"name":"150 Calle San Juan Bosco","properties":{"network":"Sevici","operator":"JCDecaux"},"sourceId":"osm"},{"categories":["shop","repair"],"id":"osm:node:2419749421","latitude":37.410794,"longitude":-5.9843843,"name":"Bicicletas Astolfi","properties":{"serviceRental":"no","serviceRepair":"yes"},"sourceId":"osm"},{"categories":["hire"],"id":"osm:node:2420239421","latitude":37.4004879,"longitude":-5.9983869,"name":"036 Calle San Vicente","properties":{"network":"Sevici","operator":"JCDecaux"},"sourceId":"osm"},{"categories":["hire"],"id":"osm:node:2420239422","latitude":37.3988128,"longitude":-5.9895069,"name":"042 Plaza Cronista","properties":{"brand":"Sevici","network":"Sevici","operator":"JCDecaux"},"sourceId":"osm"},{"categories":["hire"],"id":"osm:node:2420239423","latitude":37.3712795,"longitude":-5.9891934,"name":"059 Avenida de la Palmera","properties":{"network":"Sevici","operator":"JCDecaux"},"sourceId":"osm"},{"categories":["hire"],"id":"osm:node:2420239424","latitude":37.3912974,"longitude":-5.9881754,"name":"065 Calle Alhóndiga","properties":{"brand":"Sevici","network":"Sevici","operator":"JCDecaux"},"sourceId":"osm"},{"categories":["hire"],"id":"osm:node:2420239425","latitude":37.3907943,"longitude":-5.982764,"name":"072 Calle Amador de los Ríos","properties":{"brand":"Sevici","network":"Sevici","operator":"JCDecaux"},"sourceId":"osm"},{"categories":["hire"],"id":"osm:node:2420239426","latitude":37.3812308,"longitude":-5.9935552,"name":"090 Calle Roma","properties":{"brand":"Sevici","network":"Sevici","operator":"JCDecaux"},"sourceId":"osm"},{"categories":["hire"],"id":"osm:node:2420239427","latitude":37.3854144,"longitude":-6.0111606,"name":"092 Ronda de Triana","properties":{"network":"Sevici","operator":"JCDecaux"},"sourceId":"osm"},{"categories":["hire"],"id":"osm:node:2420239428","latitude":37.3831234,"longitude":-6.0108763,"name":"093 Ronda de Triana","properties":{"brand":"Sevici","network":"Sevici","operator":"JCDecaux"},"sourceId":"osm"},{"categories":["hire"],"id":"osm:node:2420239429","latitude":37.3815146,"longitude":-5.9955663,"name":"097 Paseo de Cristóbal Colón","properties":{"brand":"Sevici","network":"Sevici","operator":"JCDecaux"},"sourceId":"osm"},{"categories":["hire"],"id":"osm:node:2420239430","latitude":37.3817511,"longitude":-5.9933071,"name":"098 Avenida de Roma","properties":{"brand":"Sevici","network":"Sevici","operator":"JCDecaux"},"sourceId":"osm"},{"categories":["hire"],"id":"osm:node:2420239432","latitude":37.3801188,"longitude":-6.0043502,"name":"112 Avenida Esperanza de Triana","properties":{"brand":"Sevici","network":"Sevici","operator":"JCDecaux"},"sourceId":"osm"},{"categories":["hire"],"id":"osm:node:2420239434","latitude":37.3777579,"longitude":-6.0070758,"name":"115 Calle López de Gomara","properties":{"network":"Sevici","operator":"JCDecaux"},"sourceId":"osm"},{"categories":["hire"],"id":"osm:node:2420239436","latitude":37.3773761,"longitude":-5.9918804,"name":"119 Avenida de Chile","properties":{"brand":"Sevici","network":"Sevici","operator":"JCDecaux"},"sourceId":"osm"},{"categories":["hire"],"id":"osm:node:2420239437","latitude":37.3785777,"longitude":-5.9784022,"name":"122 Calle Enramadilla","properties":{"network":"Sevici","operator":"JCDecaux"},"sourceId":"osm"},{"categories":["hire"],"id":"osm:node:2420239438","latitude":37.3777516,"longitude":-5.9773319,"name":"124 Calle Enramadilla","properties":{"brand":"Sevici","network":"Sevici","operator":"JCDecaux"},"sourceId":"osm"},{"categories":["hire"],"id":"osm:node:2490808701","latitude":37.3946087,"longitude":-5.9799727,"name":"151 Calle Urquiza","properties":{"brand":"Sevici","network":"Sevici","operator":"JCDecaux"},"sourceId":"osm"},{"categories":["shop"],"id":"osm:node:2526791434","latitude":37.399167,"longitude":-5.9920492,"name":"Rebiciclate","properties":{},"sourceId":"osm"},{"categories":["hire"],"id":"osm:node:2784083449","latitude":37.3741964,"longitude":-6.0088305,"name":"191 Glorieta Carlos Cano","properties":{"network":"Sevici","operator":"servici"},"sourceId":"osm"},{"categories":["hire"],"id":"osm:node:2784083452","latitude":37.3783344,"longitude":-6.0115563,"name":"192 Avenida de Alvar Núñez","properties":{"brand":"Sevici","network":"Sevici","operator":"JCDecaux"},"sourceId":"osm"},{"categories":["hire"],"id":"osm:node:2784083454","latitude":37.3811114,"longitude":-6.0120053,"name":"193 Avenida de Coria","properties":{"network":"Sevici","operator":"servici"},"sourceId":"osm"},{"categories":["hire"],"id":"osm:node:2940324169","latitude":37.3888532,"longitude":-5.9962357,"name":"241 Plaza Nueva","properties":{"brand":"Sevici","network":"Sevici","operator":"JCDecaux"},"sourceId":"osm"},{"categories":["hire"],"id":"osm:node:2940324170","latitude":37.38889,"longitude":-5.9962396,"name":"242 Plaza Nueva","properties":{"network":"Sevici","operator":"JCDecaux"},"sourceId":"osm"},{"categories":["hire"],"id":"osm:node:2940331473","latitude":37.4247584,"longitude":-5.9848237,"name":"249 Calle Navarra","properties":{"network":"Sevici","operator":"JCDecaux"},"sourceId":"osm"},{"categories":["hire"],"id":"osm:node:2940720305","latitude":37.3902925,"longitude":-5.9799642,"name":"068 Calle Juan Antonio Cabestany","properties":{"brand":"Sevici","network":"Sevici","operator":"JCDecaux"},"sourceId":"osm"},{"categories":["hire"],"id":"osm:node:308961227","latitude":37.3978439,"longitude":-5.9984791,"name":"039 Plaza San Antonio de Padua","properties":{"network":"Sevici","operator":"JCDecaux"},"sourceId":"osm"},{"categories":["hire"],"id":"osm:node:308965974","latitude":37.3975405,"longitude":-5.9966186,"name":"050 Calle de Hernán Cortés","properties":{"network":"Sevici","operator":"JCDecaux"},"sourceId":"osm"},{"categories":["hire"],"id":"osm:node:308973765","latitude":37.3968977,"longitude":-5.993847,"name":"049 Alameda de Hercúles","properties":{"network":"Sevici","operator":"JCDecaux"},"sourceId":"osm"},{"categories":["hire"],"id":"osm:node:308974864","latitude":37.40079,"longitude":-5.9938002,"name":"035 Alameda de Hercúles","properties":{"network":"Sevici","operator":"JCDecaux"},"sourceId":"osm"},{"categories":["hire"],"id":"osm:node:309251162","latitude":37.3994884,"longitude":-5.9909861,"name":"041 Plaza Calderón de la Barca","properties":{"network":"Sevici","operator":"JCDecaux"},"sourceId":"osm"},{"categories":["hire"],"id":"osm:node:309251164","latitude":37.4031482,"longitude":-5.9918576,"name":"013 Calle Feria","properties":{"network":"Sevici","operator":"JCDecaux"},"sourceId":"osm"},{"categories":["hire"],"id":"osm:node:309258459","latitude":37.4033474,"longitude":-5.9890824,"name":"019 Parlamento","properties":{"network":"Sevici","operator":"JCDecaux"},"sourceId":"osm"},{"categories":["hire"],"id":"osm:node:309258460","latitude":37.4033446,"longitude":-5.9880344,"name":"023 Parlamento","properties":{"network":"Sevici","operator":"JCDecaux"},"sourceId":"osm"},{"categories":["hire"],"id":"osm:node:309258464","latitude":37.3952732,"longitude":-6.0101435,"name":"052 Calle del Inca Garcilaso","properties":{"network":"Sevici","operator":"JCDecaux"},"sourceId":"osm"},{"categories":["hire"],"id":"osm:node:309271022","latitude":37.3921055,"longitude":-6.0110319,"name":"038 Calle de Inca Garcilaso","properties":{"network":"Sevici","operator":"JCDecaux"},"sourceId":"osm"},{"categories":["hire"],"id":"osm:node:311107598","latitude":37.4025275,"longitude":-5.977637,"name":"026 Avenida de Miraflores","properties":{"network":"Sevici","operator":"JCDecaux"},"sourceId":"osm"},{"categories":["hire"],"id":"osm:node:311109075","latitude":37.4008477,"longitude":-5.9794025,"name":"031 Avenida de Miraflores","properties":{"network":"Sevici","operator":"JCDecaux"},"sourceId":"osm"},{"categories":["hire"],"id":"osm:node:311109382","latitude":37.3983746,"longitude":-5.981755,"name":"044 Ronda Capuchinos","properties":{"brand":"Sevici","network":"Sevici","operator":"JCDecaux"},"sourceId":"osm"},{"categories":["hire"],"id":"osm:node:311109553","latitude":37.3976114,"longitude":-5.9839284,"name":"046 Plaza del Pelícano","properties":{"network":"Sevici","operator":"JCDecaux"},"sourceId":"osm"},{"categories":["hire"],"id":"osm:node:311580351","latitude":37.4038881,"longitude":-5.9949143,"name":"012 Plaza Duquesa de Alba","properties":{"network":"Sevici","operator":"JCDecaux"},"sourceId":"osm"},{"categories":["hire"],"id":"osm:node:311591470","latitude":37.4020564,"longitude":-5.986329,"name":"032 Calle Muñoz León","properties":{"network":"Sevici","operator":"JCDecaux"},"sourceId":"osm"},{"categories":["hire"],"id":"osm:node:311593552","latitude":37.3996998,"longitude":-5.9839458,"name":"043 Ronda Capuchinos","properties":{"network":"Sevici","operator":"JCDecaux"},"sourceId":"osm"},{"categories":["shop"],"id":"osm:node:3154906073","latitude":37.3917673,"longitude":-5.9842288,"name":"electric city motor","properties":{"openingHours":"Mo-Fr 10:00-14:00,17:00-20:30;Sa 10:00-14:00"},"sourceId":"osm"},{"categories":["shop"],"id":"osm:node:3209677963","latitude":37.3885153,"longitude":-6.0007831,"name":"Labor","properties":{"openingHours":"Mo-Fr 09:00-13:30,16:30-20:00"},"sourceId":"osm"},{"categories":["hire"],"id":"osm:node:348071288","latitude":37.389754,"longitude":-5.9870267,"name":"074 Plaza Pilatos","properties":{"brand":"Sevici","network":"Sevici","operator":"JCDecaux"},"sourceId":"osm"},{"categories":["hire"],"id":"osm:node:348074447","latitude":37.3895946,"longitude":-5.9845523,"name":"073 Plaza San Agustín","properties":{"network":"Sevici","operator":"JCDecaux"},"sourceId":"osm"},{"categories":["hire"],"id":"osm:node:348081254","latitude":37.3853038,"longitude":-5.986738,"name":"085 Paseo Catalina Ribera","properties":{"network":"Sevici","operator":"JCDecaux"},"sourceId":"osm"},{"categories":["hire"],"id":"osm:node:348081313","latitude":37.3815369,"longitude":-5.9892332,"name":"100 Paseo Catalina Ribera","properties":{"brand":"Sevici","network":"Sevici","operator":"JCDecaux"},"sourceId":"osm"},{"categories":["hire"],"id":"osm:node:348086495","latitude":37.3883808,"longitude":-5.9869733,"name":"079 Plaza de las Mercedarias","properties":{"network":"Sevici","operator":"JCDecaux"},"sourceId":"osm"},{"categories":["hire"],"id":"osm:node:348136799","latitude":37.3837304,"longitude":-6.0000313,"name":"096 Calle Betis","properties":{"brand":"Sevici","network":"Sevici","operator":"JCDecaux"},"sourceId":"osm"},{"categories":["hire"],"id":"osm:node:348150851","latitude":37.3757089,"longitude":-6.0056255,"name":"130 Glorieta República Dominicana","properties":{"brand":"Sevici","network":"Sevici","operator":"JCDecaux"},"sourceId":"osm"},{"categories":["hire"],"id":"osm:node:348150894","latitude":37.3747244,"longitude":-6.0023834,"name":"129 Calle Virgen de Luján","properties":{"brand":"Sevici","network":"Sevici","operator":"JCDecaux"},"sourceId":"osm"},{"categories":["hire"],"id":"osm:node:348609396","latitude":37.3812765,"longitude":-6.0010318,"name":"111 Plaza Farmacéutico Murillo Herrera","properties":{"brand":"Sevici","network":"Sevici","operator":"JCDecaux"},"sourceId":"osm"},{"categories":["hire"],"id":"osm:node:348610023","latitude":37.3776619,"longitude":-6.0025472,"name":"117 Avenida Esperanza de Triana","properties":{"brand":"Sevici","network":"Sevici","operator":"JCDecaux"},"sourceId":"osm"},{"categories":["hire"],"id":"osm:node:348699878","latitude":37.3864641,"longitude":-5.9975646,"name":"089 Calle Adriano","properties":{"brand":"Sevici","network":"Sevici","operator":"JCDecaux"},"sourceId":"osm"},{"categories":["hire"],"id":"osm:node:365516103","latitude":37.3911108,"longitude":-6.0031603,"name":"062 Plaza de Armas","properties":{"network":"Sevici","operator":"JCDecaux"},"sourceId":"osm"},{"categories":["hire"],"id":"osm:node:366535211","latitude":37.3929261,"longitude":-5.9993175,"name":"061 Plaza del Museo","properties":{"network":"Sevici","operator":"JCDecaux"},"sourceId":"osm"},{"categories":["hire"],"id":"osm:node:367154598","latitude":37.3889438,"longitude":-5.9952601,"name":"087 Plaza Nueva","properties":{"brand":"Sevici","network":"Sevici","operator":"JCDecaux"},"sourceId":"osm"},{"categories":["hire"],"id":"osm:node:367156515","latitude":37.3889073,"longitude":-5.9955824,"name":"076 Plaza Nueva","properties":{"network":"Sevici","operator":"JCDecaux"},"sourceId":"osm"},{"categories":["shop","repair"],"id":"osm:node:3838640863","latitude":37.3744575,"longitude":-5.9830368,"name":"Bicicletas El Porvenir","properties":{"openingHours":"Mo-Tu 10:30-14:00,16:00-20:00; Fr 10:00-14:30","serviceRepair":"yes"},"sourceId":"osm"},{"categories":["hire"],"id":"osm:node:422714571","latitude":37.4071954,"longitude":-5.9789081,"name":"017 Calle de Madreselva","properties":{"network":"Sevici","operator":"JCDecaux"},"sourceId":"osm"},{"categories":["hire"],"id":"osm:node:440258931","latitude":37.3898408,"longitude":-5.9911886,"name":"064 Calle Cuesta de Rosario","properties":{"network":"Sevici","operator":"JCDecaux"},"sourceId":"osm"},{"categories":["hire"],"id":"osm:node:493228462","latitude":37.4096545,"longitude":-5.9842555,"name":"180 Calle Doctor Jaime Marcos","properties":{"network":"Sevici","operator":"JCDecaux"},"sourceId":"osm"},{"categories":["hire"],"id":"osm:node:493228463","latitude":37.4129322,"longitude":-5.9848934,"name":"179 Ronda Urbana Norte","properties":{"network":"Sevici","operator":"servici"},"sourceId":"osm"},{"categories":["shop","repair","hire"],"id":"osm:node:5137347622","latitude":37.4033478,"longitude":-5.9912544,"name":"Paseo Bici","properties":{"openingHours":"Mo-Su 10:00-14:00,18:00-22:00","serviceRental":"yes","serviceRepair":"yes"},"sourceId":"osm"},{"categories":["shop","repair"],"id":"osm:node:5242845368","latitude":37.3946557,"longitude":-5.9862307,"name":"Reparación de bicicletas","properties":{"openingHours":"Mo-Fr 12:00-15:00, 17:00-21:00; Sa 12:00-15:00","serviceRepair":"yes"},"sourceId":"osm"},{"categories":["shop"],"id":"osm:node:5347944406","latitude":37.3960829,"longitude":-5.9875355,"name":"El Buje","properties":{},"sourceId":"osm"},{"categories":["hire"],"id":"osm:node:5587757035","latitude":37.3757344,"longitude":-5.9991689,"name":"(128) Calle Virgen de Loreto","properties":{"brand":"Sevici","network":"Sevici","operator":"JCDecaux"},"sourceId":"osm"},{"categories":["shop"],"id":"osm:node:5836090179","latitude":37.3843529,"longitude":-6.0016684,"name":"Ciclo Triana","properties":{"openingHours":"Mo-Th 09:30-14:00,16:00-19:30; Fr 09:30-14:00","website":"https://ciclotriana.com/"},"sourceId":"osm"},{"categories":["hire"],"id":"osm:node:622489393","latitude":37.3886194,"longitude":-6.010298,"name":"078 Calle Alfarería","properties":{"network":"Sevici","operator":"JCDecaux"},"sourceId":"osm"},{"categories":["hire"],"id":"osm:node:622496292","latitude":37.3895726,"longitude":-6.0076755,"name":"077 Plaza Chapina","properties":{"brand":"Sevici","network":"Sevici","operator":"JCDecaux"},"sourceId":"osm"},{"categories":["shop"],"id":"osm:node:627296224","latitude":37.4034976,"longitude":-5.9924955,"name":"Auto Sport Sevilla","properties":{},"sourceId":"osm"},{"categories":["shop"],"id":"osm:node:6284793092","latitude":37.4007549,"longitude":-5.9928779,"name":"Bici4city","properties":{},"sourceId":"osm"},{"categories":["hire"],"id":"osm:node:6316717175","latitude":37.3896128,"longitude":-5.9857063,"name":"información tourística","properties":{},"sourceId":"osm"},{"categories":["shop","repair"],"id":"osm:node:6617495492","latitude":37.37742,"longitude":-6.0009823,"name":"Sobre ruedas","properties":{"serviceRepair":"yes"},"sourceId":"osm"},{"categories":["shop"],"id":"osm:node:6665537103","latitude":37.3832805,"longitude":-6.0042943,"name":"Biciclos","properties":{},"sourceId":"osm"},{"categories":["shop","repair"],"id":"osm:node:6958322645","latitude":37.3839131,"longitude":-6.0112425,"name":"Bicycle shop","properties":{"serviceRepair":"yes"},"sourceId":"osm"},{"categories":["hire"],"id":"osm:node:708992103","latitude":37.3951765,"longitude":-5.9908929,"name":"054 Plaza San Juan de la Palma","properties":{"network":"Sevici","operator":"JCDecaux"},"sourceId":"osm"},{"categories":["hire"],"id":"osm:node:708992264","latitude":37.3942887,"longitude":-5.9917052,"name":"058 Calle Regina","properties":{"brand":"Sevici","network":"Sevici","operator":"JCDecaux","website":"https://www.sevici.es/"},"sourceId":"osm"},{"categories":["hire"],"id":"osm:node:7367073526","latitude":37.4131441,"longitude":-5.9853665,"name":"Cycle hire","properties":{},"sourceId":"osm"},{"categories":["shop"],"id":"osm:node:7367073527","latitude":37.4136721,"longitude":-5.9841635,"name":"Bicycle shop","properties":{},"sourceId":"osm"},{"categories":["hire"],"id":"osm:node:748477304","latitude":37.3920955,"longitude":-5.9785982,"name":"069 Calle Jose Laguillo","properties":{"network":"Sevici","operator":"JCDecaux"},"sourceId":"osm"},{"categories":["shop"],"id":"osm:node:7496980685","latitude":37.4072854,"longitude":-5.9921129,"name":"Ciclos Mateos","properties":{},"sourceId":"osm"},{"categories":["hire"],"id":"osm:node:750031553","latitude":37.3988222,"longitude":-5.9936337,"name":"037 Alameda de Hércules","properties":{"network":"Sevici","operator":"JCDecaux"},"sourceId":"osm"},{"categories":["hire"],"id":"osm:node:794741886","latitude":37.3966427,"longitude":-5.9898701,"name":"048 Calle Churruca","properties":{"network":"Sevici","operator":"JCDecaux"},"sourceId":"osm"},{"categories":["hire"],"id":"osm:node:819727080","latitude":37.4034791,"longitude":-5.9812041,"name":"025 Avenida de la Cruz Roja","properties":{"network":"Sevici","operator":"JCDecaux"},"sourceId":"osm"},{"categories":["hire"],"id":"osm:node:824429147","latitude":37.3955925,"longitude":-6.0024431,"name":"051 Avenida Torneo","properties":{"network":"Sevici","operator":"JCDecaux"},"sourceId":"osm"},{"categories":["hire"],"id":"osm:node:824430481","latitude":37.393964,"longitude":-5.9968487,"name":"060 Plaza de la Concordia","properties":{"network":"Sevici","operator":"JCDecaux"},"sourceId":"osm"},{"categories":["hire"],"id":"osm:node:829576855","latitude":37.4219153,"longitude":-5.9830562,"name":"248 Glorieta de los Ferroviarios","properties":{"network":"Sevici","operator":"JCDecaux"},"sourceId":"osm"},{"categories":["hire"],"id":"osm:node:829576859","latitude":37.4219455,"longitude":-5.9853727,"name":"250 Calle de Salvador Allende","properties":{"network":"Sevici","operator":"JCDecaux"},"sourceId":"osm"},{"categories":["hire"],"id":"osm:node:830197266","latitude":37.4129286,"longitude":-5.9889886,"name":"001 Glorieta Olímpica","properties":{"network":"Sevici","operator":"JCDecaux"},"sourceId":"osm"},{"categories":["shop"],"id":"osm:node:8305720496","latitude":37.3751429,"longitude":-6.0531369,"name":"Purabici","properties":{},"sourceId":"osm"},{"categories":["hire"],"id":"osm:node:837160633","latitude":37.3771415,"longitude":-5.9818645,"name":"121 Calle Doctor Pedro de Castro","properties":{"brand":"Sevici","network":"Sevici","operator":"JCDecaux"},"sourceId":"osm"},{"categories":["hire"],"id":"osm:node:837160639","latitude":37.3837427,"longitude":-5.977445,"name":"106 Avenida Eduardo Dato","properties":{"brand":"Sevici","network":"Sevici","operator":"Cyclocity"},"sourceId":"osm"},{"categories":["hire"],"id":"osm:node:837182438","latitude":37.386976,"longitude":-5.9780512,"name":"083 Avenida la Buhaira","properties":{"brand":"Sevici","network":"Sevici","operator":"JCDecaux"},"sourceId":"osm"},{"categories":["hire"],"id":"osm:node:837182439","latitude":37.3876182,"longitude":-5.9809322,"name":"080 Calle Luis Montoto","properties":{"network":"Sevici","operator":"JCDecaux"},"sourceId":"osm"},{"categories":["hire"],"id":"osm:node:842633327","latitude":37.3783729,"longitude":-5.9794929,"name":"247 Avenida Ramón y Cajal","properties":{"brand":"Sevici","network":"Sevici","operator":"JCDecaux","website":"https://www.sevici.es/"},"sourceId":"osm"},{"categories":["hire"],"id":"osm:node:844175463","latitude":37.3767898,"longitude":-5.9978311,"name":"127 Calle Virgen de la Victoria","properties":{"brand":"Sevici","network":"Sevici","operator":"JCDecaux"},"sourceId":"osm"},{"categories":["hire"],"id":"osm:node:844175569","latitude":37.3870633,"longitude":-6.0012385,"name":"160 Calle Arjona","properties":{"brand":"Sevici","network":"Sevici","operator":"JCDecaux"},"sourceId":"osm"},{"categories":["repair"],"id":"osm:node:8479252085","latitude":37.4176906,"longitude":-5.9938199,"name":"Bicycle repair station","properties":{},"sourceId":"osm"},{"categories":["repair"],"id":"osm:node:8479393970","latitude":37.4211371,"longitude":-5.9959834,"name":"Bicycle repair station","properties":{},"sourceId":"osm"},{"categories":["hire"],"id":"osm:node:857590750","latitude":37.4056509,"longitude":-5.9984993,"name":"003 Puerta de la Barqueta","properties":{"network":"Sevici","operator":"JCDecaux"},"sourceId":"osm"},{"categories":["hire"],"id":"osm:node:857590780","latitude":37.4070889,"longitude":-6.0029652,"name":"006 Camino de los Descubrimientos","properties":{"brand":"Sevici","network":"Sevici","operator":"JCDecaux"},"sourceId":"osm"},{"categories":["hire"],"id":"osm:node:857590795","latitude":37.411072,"longitude":-6.0019106,"name":"005 Camino de los Descubrimientos","properties":{"brand":"Sevici","network":"Sevici","operator":"JCDecaux"},"sourceId":"osm"},{"categories":["hire"],"id":"osm:node:857590803","latitude":37.4075399,"longitude":-6.0074235,"name":"007 Calle Américo Vespucio","properties":{"brand":"Sevici","network":"Sevici","operator":"JCDecaux"},"sourceId":"osm"},{"categories":["hire"],"id":"osm:node:857590814","latitude":37.4101736,"longitude":-6.0056507,"name":"004 Calle Leonardo Da Vinci","properties":{"brand":"Sevici","network":"Sevici","operator":"JCDecaux"},"sourceId":"osm"},{"categories":["hire"],"id":"osm:node:857590817","latitude":37.4028157,"longitude":-6.0040768,"name":"009 Camino de los Descubrimientos","properties":{"network":"Sevici","operator":"JCDecaux"},"sourceId":"osm"},{"categories":["hire"],"id":"osm:node:857590828","latitude":37.4014414,"longitude":-6.0090248,"name":"008 Calle Américo Vespucio","properties":{"network":"Sevici","operator":"JCDecaux"},"sourceId":"osm"},{"categories":["hire"],"id":"osm:node:869594384","latitude":37.4072386,"longitude":-5.9853451,"name":"015 Calle Dr Marañón","properties":{"brand":"Sevici","network":"Sevici","operator":"JCDecaux"},"sourceId":"osm"},{"categories":["hire"],"id":"osm:node:869594388","latitude":37.4066763,"longitude":-5.9930831,"name":"011 Calle Avicena","properties":{"network":"Sevici","operator":"JCDecaux"},"sourceId":"osm"},{"categories":["hire"],"id":"osm:node:869594391","latitude":37.4090933,"longitude":-5.9909552,"name":"010 Calle José Díaz","properties":{"network":"Sevici","operator":"JCDecaux"},"sourceId":"osm"},{"categories":["hire"],"id":"osm:node:869594396","latitude":37.4068864,"longitude":-5.9891263,"name":"014 Avenida Sánchez Pizjuán","properties":{"network":"Sevici","operator":"JCDecaux"},"sourceId":"osm"},{"categories":["hire"],"id":"osm:node:869594399","latitude":37.4047516,"longitude":-5.9866992,"name":"020 Calle San Juan de Ribera","properties":{"network":"Sevici","operator":"JCDecaux"},"sourceId":"osm"},{"categories":["hire"],"id":"osm:node:869594406","latitude":37.4070186,"longitude":-5.9826416,"name":"016 Calle de Manuel Villalobos","properties":{"network":"Sevici","operator":"JCDecaux"},"sourceId":"osm"},{"categories":["hire"],"id":"osm:node:876193970","latitude":37.4040388,"longitude":-5.9845664,"name":"024 Calle León XIII","properties":{"brand":"Sevici","network":"Sevici","operator":"JCDecaux"},"sourceId":"osm"},{"categories":["hire"],"id":"osm:node:876193985","latitude":37.4055781,"longitude":-5.9814785,"name":"021 Calle Manuel Villalobos","properties":{"brand":"Sevici","network":"Sevici","operator":"JCDecaux"},"sourceId":"osm"},{"categories":["hire"],"id":"osm:node:877460579","latitude":37.4009895,"longitude":-5.9884718,"name":"034 Plaza Pumarejo","properties":{"network":"Sevici","operator":"JCDecaux"},"sourceId":"osm"},{"categories":["hire"],"id":"osm:node:877460606","latitude":37.4016053,"longitude":-5.9837102,"name":"033 Calle León XIII","properties":{"network":"Sevici","operator":"JCDecaux"},"sourceId":"osm"},{"categories":["hire"],"id":"osm:node:911709185","latitude":37.389342,"longitude":-5.9995125,"name":"053 Calle Reyes Católicos","properties":{"brand":"Sevici","network":"Sevici","operator":"JCDecaux"},"sourceId":"osm"},{"categories":["shop","repair","hire"],"id":"osm:way:120225586","latitude":37.38275535555555,"longitude":-5.9878998,"name":"Bike Center Sevilla","properties":{"servicePump":"yes","serviceRental":"yes","serviceRepair":"yes"},"sourceId":"osm"},{"categories":["repair"],"id":"osm:way:77490684","latitude":37.391978159999994,"longitude":-6.02868288,"name":"Decathlon","properties":{"brand":"Decathlon","openingHours":"Mo-Sa 10:00-22:00","serviceRepair":"yes","website":"https://www.decathlon.es/"},"sourceId":"osm"}],"schemaVersion":2}
