{"key":"12/1979/1589","points":[{"categories":["shop","repair"],"id":"osm:node:10027531720","latitude":37.3694161,"longitude":-5.9795917,"name":"Home Cycle Sevilla","properties":{"openingHours":"Mo-Fr 10:00-15:00,16:00-20:00; Sa 10:00-14:00","serviceRepair":"yes"},"sourceId":"osm"},{"categories":["hire"],"id":"osm:node:11411890969","latitude":37.3583986,"longitude":-5.9864347,"name":"126 Avenida Reina Mercedes","properties":{"brand":"Sevici","network":"Sevici","operator":"JCDecaux"},"sourceId":"osm"},{"categories":["hire"],"id":"osm:node:11411890973","latitude":37.3583986,"longitude":-5.9864347,"name":"126 Avenida Reina Mercedes","properties":{"brand":"Sevici","network":"Sevici","operator":"JCDecaux"},"sourceId":"osm"},{"categories":["hire"],"id":"osm:node:11411891082","latitude":37.3583986,"longitude":-5.9864347,"name":"126 Avenida Reina Mercedes","properties":{"brand":"Sevici","network":"Sevici","operator":"JCDecaux"},"sourceId":"osm"},{"categories":["hire"],"id":"osm:node:11411891177","latitude":37.3583986,"longitude":-5.9864347,"name":"126 Avenida Reina Mercedes","properties":{"brand":"Sevici","network":"Sevici","operator":"JCDecaux"},"sourceId":"osm"},{"categories":["hire"],"id":"osm:node:11411891180","latitude":37.3583986,"longitude":-5.9864347,"name":"126 Avenida Reina Mercedes","properties":{"brand":"Sevici","network":"Sevici","operator":"JCDecaux"},"sourceId":"osm"},{"categories":["hire"],"id":"osm:node:11411891370","latitude":37.3583986,"longitude":-5.9864347,"name":"126 Avenida Reina Mercedes","properties":{"brand":"Sevici","network":"Sevici","operator":"JCDecaux"},"sourceId":"osm"},{"categories":["hire"],"id":"osm:node:11826391839","latitude":37.3565606,"longitude":-5.986633,"name":"Cycle hire","properties":{},"sourceId":"osm"},{"categories":["hire"],"id":"osm:node:1800201559","latitude":37.3688783,"longitude":-5.9813853,"name":"158 Avenida Cardenal Bueno Monreal","properties":{"network":"Sevici","operator":"JCDecaux"},"sourceId":"osm"},{"categories":["hire"],"id":"osm:node:1925647394","latitude":37.3647499,"longitude":-5.9814522,"name":"131 Calle Tabladilla","properties":{"network":"Sevici","operator":"JCDecaux"},"sourceId":"osm"},{"categories":["hire"],"id":"osm:node:2414365404","latitude":37.3636194,"longitude":-5.9847852,"name":"132 Calle Paez de Rivera","properties":{"network":"Sevici","operator":"JCDecaux"},"sourceId":"osm"},{"categories":["hire"],"id":"osm:node:2414402577","latitude":37.369057,"longitude":-5.9879693,"name":"144 Avenida de la Palmera","properties":{"network":"Sevici","operator":"JCDecaux"},"sourceId":"osm"},{"categories":["hire"],"id":"osm:node:2414405508","latitude":37.3602332,"longitude":-5.9863182,"name":"145 Avenida Reina Mercedes","properties":{"brand":"Sevici","network":"Sevici","operator":"JCDecaux"},"sourceId":"osm"},{"categories":["hire"],"id":"osm:node:2414405509","latitude":37.3601006,"longitude":-5.986313,"name":"146 Avenida Reina Mercedes","properties":{"brand":"Sevici","network":"Sevici","operator":"JCDecaux"},"sourceId":"osm"},{"categories":["hire"],"id":"osm:node:2420239431","latitude":37.3589104,"longitude":-5.9806202,"name":"105 Calle Francisco Murillo","properties":{"brand":"Sevici","network":"Sevici","operator":"JCDecaux"},"sourceId":"osm"},{"categories":["hire"],"id":"osm:node:2420239433","latitude":37.3563724,"longitude":-5.9792621,"name":"114 Glorieta Plus Ultra","properties":{"network":"Sevici","operator":"JCDecaux"},"sourceId":"osm"},{"categories":["hire"],"id":"osm:node:2420239435","latitude":37.3614304,"longitude":-5.9816032,"name":"116 Calle Manuel Siurot","properties":{"brand":"Sevici","network":"Sevici","operator":"JCDecaux"},"sourceId":"osm"},{"categories":["hire"],"id":"osm:node:2490850936","latitude":37.3629714,"longitude":-5.9862622,"name":"153 Avenida Reina Mercedes","properties":{"network":"Sevici","operator":"JCDecaux"},"sourceId":"osm"},{"categories":["hire"],"id":"osm:node:2491178905","latitude":37.3697994,"longitude":-5.9781947,"name":"157 Avenida Cardenal Bueno Monreal","properties":{"network":"Sevici","operator":"JCDecaux"},"sourceId":"osm"},{"categories":["hire"],"id":"osm:node:2923812630","latitude":37.3506563,"longitude":-5.9841902,"name":"208 Avenida de Grecia","properties":{"network":"Sevici","operator":"JCDecaux"},"sourceId":"osm"},{"categories":["shop","repair"],"id":"osm:node:7002802374","latitude":37.3415495,"longitude":-6.0592449,"name":"Floresbike","properties":{"openingHours":"Mo-Fr 09:30-13:30,17:30-20:30; Sa 10:00-14:00","serviceRepair":"yes"},"sourceId":"osm"},{"categories":["hire"],"id":"osm:node:846565236","latitude":37.3480861,"longitude":-5.9800675,"name":"210 Paseo de Europa","properties":{"network":"Sevici","operator":"JCDecaux"},"sourceId":"osm"},{"categories":["hire"],"id":"osm:node:846565308","latitude":37.3453325,"longitude":-5.9825487,"name":"209 Avenida de Alemania","properties":{"network":"Sevici","operator":"JCDecaux"},"sourceId":"osm"},{"categories":["hire"],"id":"osm:node:847056638","latitude":37.3565934,"longitude":-5.9865444,"name":"040 Avenida Reina Mercedes","properties":{"network":"Sevici","operator":"JCDecaux"},"sourceId":"osm"},{"categories":["hire"],"id":"osm:node:847056704","latitude":37.3512902,"longitude":-5.9778116,"name":"212 Avenida Reino Unido","properties":{"network":"Sevici","operator":"JCDecaux"},"sourceId":"osm"},{"categories":["hire"],"id":"osm:node:847056713","latitude":37.3549598,"longitude":-5.9826372,"name":"207 Calle IFNI","properties":{"network":"Sevici","operator":"JCDecaux"},"sourceId":"osm"},{"categories":["hire"],"id":"osm:node:847056780","latitude":37.3583986,"longitude":-5.9864347,"name":"126 Avenida Reina Mercedes","properties":{"brand":"Sevici","network":"Sevici","operator":"JCDecaux"},"sourceId":"osm"},{"categories":["hire"],"id":"osm:node:847280697","latitude":37.3681002,"longitude":-5.9846888,"name":"159 Avenida Cardenal Bueno Monreal","properties":{"network":"Sevici","operator":"JCDecaux"},"sourceId":"osm"},{"categories":["hire"],"id":"osm:node:876193973","latitude":37.3602749,"longitude":-5.976717,"name":"028 Calle Rafael Salgado","properties":{"network":"Sevici","operator":"JCDecaux"},"sourceId":"osm"},{"categories":["shop"],"id":"osm:node:914511775","latitude":37.354905,"longitude":-6.0375623,"name":"Bicicletas Aljarafe","properties":{},"sourceId":"osm"},{"categories":["shop"],"id":"osm:node:9605783538","latitude":37.348696,"longitude":-5.977457,"name":"Arcas Bicis - Tienda y Taller","properties":{"brand":"peugeot"},"sourceId":"osm"},{"categories":["hire"],"id":"osm:way:55495074","latitude":37.353940673333334,"longitude":-5.9801512599999995,"name":"Hotel Silken Al-Andalus Palace","properties":{"serviceRental":"yes"},"sourceId":"osm"}],"schemaVersion":2}
