{"key":"12/2007/1545","points":[{"categories":["hire"],"id":"osm:node:10976011975","latitude":40.3561884,"longitude":-3.5244888,"name":"27 - Bellavista","properties":{"fee":"yes","network":"BicinRivas","operator":"Ayuntamiento de Rivas Vaciamadrid"},"sourceId":"osm"},{"categories":["hire"],"id":"osm:node:11494218441","latitude":40.3519355,"longitude":-3.5439794,"name":"33 - Marcelino Camacho","properties":{"fee":"yes","network":"BicinRivas","operator":"Ayuntamiento de Rivas Vaciamadrid"},"sourceId":"osm"},{"categories":["hire"],"id":"osm:node:11494218449","latitude":40.3787396,"longitude":-3.5332027,"name":"23 - Ocho de Marzo","properties":{"fee":"yes","network":"BicinRivas","operator":"Ayuntamiento de Rivas Vaciamadrid"},"sourceId":"osm"},{"categories":["hire"],"id":"osm:node:11494218451","latitude":40.3740475,"longitude":-3.5465476,"name":"21 - La Fortuna","properties":{"fee":"yes","network":"BicinRivas","operator":"Ayuntamiento de Rivas Vaciamadrid"},"sourceId":"osm"},{"categories":["hire"],"id":"osm:node:11494218452","latitude":40.3570281,"longitude":-3.5179269,"name":"07 - Pilar Miró","properties":{"fee":"yes","network":"BicinRivas","operator":"Ayuntamiento de Rivas Vaciamadrid"},"sourceId":"osm"},{"categories":["hire"],"id":"osm:node:11494218456","latitude":40.3564998,"longitude":-3.5397786,"name":"16 - Jose Hierro","properties":{"fee":"yes","network":"BicinRivas","operator":"Ayuntamiento de Rivas Vaciamadrid"},"sourceId":"osm"},{"categories":["hire"],"id":"osm:node:11494218463","latitude":40.3536692,"longitude":-3.5158133,"name":"28 - Fernando Trueba","properties":{"fee":"yes","network":"BicinRivas","operator":"Ayuntamiento de Rivas Vaciamadrid"},"sourceId":"osm"},{"categories":["hire"],"id":"osm:node:11494439469","latitude":40.3493052,"longitude":-3.5265513,"name":"12 - Biblioteca Gloria Fuertes","properties":{"fee":"yes","network":"BicinRivas","operator":"Ayuntamiento de Rivas Vaciamadrid"},"sourceId":"osm"},{"categories":["hire"],"id":"osm:node:11494439478","latitude":40.3543163,"longitude":-3.5340827,"name":"13 - José Saramago","properties":{"fee":"yes","network":"BicinRivas","openingHours":"24/7","operator":"Ayuntamiento de Rivas Vaciamadrid"},"sourceId":"osm"},{"categories":["hire"],"id":"osm:node:11494439495","latitude":40.3772462,"longitude":-3.5397266,"name":"10 - Barrio de la Luna","properties":{"fee":"yes","network":"BicinRivas","operator":"Ayuntamiento de Rivas Vaciamadrid"},"sourceId":"osm"},{"categories":["hire"],"id":"osm:node:11494439496","latitude":40.3570224,"longitude":-3.5469404,"name":"17 - Polideportivo Cerro del Aire","properties":{"fee":"yes","network":"BicinRivas","operator":"Ayuntamiento de Rivas Vaciamadrid"},"sourceId":"osm"},{"categories":["hire"],"id":"osm:node:11494439506","latitude":40.3669987,"longitude":-3.5480254,"name":"05 - Metro Rivas Urbanizaciones","properties":{"fee":"yes","network":"BicinRivas","operator":"Ayuntamiento de Rivas Vaciamadrid"},"sourceId":"osm"},{"categories":["hire"],"id":"osm:node:11494439511","latitude":40.3736343,"longitude":-3.52733,"name":"24 - Cerpa","properties":{"fee":"yes","network":"BicinRivas","operator":"Ayuntamiento de Rivas Vaciamadrid"},"sourceId":"osm"},{"categories":["hire"],"id":"osm:node:11494439512","latitude":40.3720601,"longitude":-3.5318324,"name":"09 - Almendros","properties":{"fee":"yes","network":"BicinRivas","operator":"Ayuntamiento de Rivas Vaciamadrid"},"sourceId":"osm"},{"categories":["hire"],"id":"osm:node:11494439513","latitude":40.3603943,"longitude":-3.5331491,"name":"06 - Santa Mónica","properties":{"fee":"yes","network":"BicinRivas","operator":"Ayuntamiento de Rivas Vaciamadrid"},"sourceId":"osm"},{"categories":["hire"],"id":"osm:node:11494439515","latitude":40.3742887,"longitude":-3.5393597,"name":"22 - Tierra","properties":{"fee":"yes","network":"BicinRivas","operator":"Ayuntamiento de Rivas Vaciamadrid"},"sourceId":"osm"},{"categories":["hire"],"id":"osm:node:11494460108","latitude":40.3596348,"longitude":-3.5499176,"name":"18 - Parque del Encuentro","properties":{"fee":"yes","network":"BicinRivas","operator":"Ayuntamiento de Rivas Vaciamadrid"},"sourceId":"osm"},{"categories":["hire"],"id":"osm:node:11494460110","latitude":40.3681092,"longitude":-3.5257064,"name":"25 - Enebro","properties":{"fee":"yes","network":"BicinRivas","operator":"Ayuntamiento de Rivas Vaciamadrid"},"sourceId":"osm"},{"categories":["hire"],"id":"osm:node:11494460112","latitude":40.3499303,"longitude":-3.5204135,"name":"29 - Ángel Saavedra","properties":{"fee":"yes","network":"BicinRivas","operator":"Ayuntamiento de Rivas Vaciamadrid"},"sourceId":"osm"},{"categories":["hire"],"id":"osm:node:11494460115","latitude":40.344481,"longitude":-3.533267,"name":"34 - CFOR","properties":{"fee":"yes","network":"BicinRivas","operator":"Ayuntamiento de Rivas Vaciamadrid"},"sourceId":"osm"},{"categories":["hire"],"id":"osm:node:11494460119","latitude":40.3379721,"longitude":-3.5212686,"name":"15 - Velázquez","properties":{"fee":"yes","network":"BicinRivas","operator":"Ayuntamiento de Rivas Vaciamadrid"},"sourceId":"osm"},{"categories":["hire"],"id":"osm:node:11494460120","latitude":40.3622267,"longitude":-3.5483983,"name":"19 - Gabriel García Márquez","properties":{"fee":"yes","network":"BicinRivas","operator":"Ayuntamiento de Rivas Vaciamadrid"},"sourceId":"osm"},{"categories":["hire"],"id":"osm:node:11494460125","latitude":40.3644401,"longitude":-3.5518017,"name":"20 - Covibar","properties":{"fee":"yes","network":"BicinRivas","operator":"Ayuntamiento de Rivas Vaciamadrid"},"sourceId":"osm"},{"categories":["hire"],"id":"osm:node:11494460126","latitude":40.3667196,"longitude":-3.53664,"name":"26 - Chopera","properties":{"fee":"yes","network":"BicinRivas","operator":"Ayuntamiento de Rivas Vaciamadrid"},"sourceId":"osm"},{"categories":["hire"],"id":"osm:node:12207219414","latitude":40.363199,"longitude":-3.5990706,"name":"Bicimad","properties":{"brand":"BiciMAD","network":"BiciMAD","operator":"Empresa Municipal de Transportes de Madrid"},"sourceId":"osm"},{"categories":["shop"],"id":"osm:node:12532383162","latitude":40.3751654,"longitude":-3.5339386,"name":"Salgado Bike","properties":{},"sourceId":"osm"},{"categories":["hire"],"id":"osm:node:12540352607","latitude":40.3636781,"longitude":-3.5502563,"name":"Ayuntamiento de Rivas Vaciamadrid","properties":{"fee":"yes","network":"BicinRivas","operator":"Ayuntamiento de Rivas Vaciamadrid"},"sourceId":"osm"},{"categories":["hire"],"id":"osm:node:2732381523","latitude":40.3415762,"longitude":-3.5245567,"name":"02 - Metro Rivas Futura","properties":{"fee":"yes","network":"BicinRivas","operator":"Ayuntamiento de Rivas Vaciamadrid"},"sourceId":"osm"},{"categories":["hire"],"id":"osm:node:2732390151","latitude":40.3496727,"longitude":-3.5343206,"name":"13 - Edificio Atrio","properties":{"fee":"yes","network":"BicinRivas","operator":"Ayuntamiento de Rivas Vaciamadrid"},"sourceId":"osm"},{"categories":["hire"],"id":"osm:node:2732434362","latitude":40.328449,"longitude":-3.5197993,"name":"01 - Metro Rivas Vaciamadrid","properties":{"fee":"yes","network":"BicinRivas","operator":"Ayuntamiento de Rivas Vaciamadrid"},"sourceId":"osm"},{"categories":["hire"],"id":"osm:node:2732480690","latitude":40.3550351,"longitude":-3.5475279,"name":"04 - Ayuntamiento","properties":{"fee":"yes","network":"BicinRivas","operator":"Ayuntamiento de Rivas Vaciamadrid"},"sourceId":"osm"},{"categories":["shop"],"id":"osm:node:6936816975","latitude":40.3538324,"longitude":-3.5457455,"name":"Búho Bike","properties":{},"sourceId":"osm"},{"categories":["shop"],"id":"osm:node:8906916417","latitude":40.3416886,"longitude":-3.5200043,"name":"EsmiBike","properties":{"openingHours":"Mo-Fr 10:00-14:00, 17:00-20:30; Sa-Su off"},"sourceId":"osm"}],"schemaVersion":2}
