{"key":"12/2007/1597","points":[{"categories":["shop"],"id":"osm:node:11457602426","latitude":36.7429961,"longitude":-3.5203718,"name":"Encris","properties":{"openingHours":"Mo-Fr 10:00-13:30, 17:00-20:30"},"sourceId":"osm"},{"categories":["shop","repair"],"id":"osm:node:12390069287","latitude":36.7422098,"longitude":-3.5237718,"name":"Miranda Bike Shop","properties":{"openingHours":"Mo-Fr 10:00-14:00, 17:00-20:30; Sa 10:00-13:30","serviceRepair":"yes"},"sourceId":"osm"},{"categories":["shop","repair"],"id":"osm:node:12825714801","latitude":36.7445361,"longitude":-3.5195651,"name":"Taller Maxscooter","properties":{"openingHours":"Mo-Fr 09:30-14:00, 16:00-21:00; Sa 09:30-16:00","serviceRepair":"yes"},"sourceId":"osm"},{"categories":["shop","repair"],"id":"osm:node:12825758956","latitude":36.743238,"longitude":-3.5294379,"name":"Bull Bikes","properties":{"openingHours":"Mo-Fr 10:00-13:30, 17:00-20:30","serviceRepair":"yes"},"sourceId":"osm"},{"categories":["shop","repair"],"id":"osm:node:13185489616","latitude":36.7444011,"longitude":-3.5211259,"name":"El Taller de Mingorance","properties":{"openingHours":"Mo-Fr 09:00-12:30, 17:00-20:30","serviceRepair":"yes"},"sourceId":"osm"},{"categories":["shop","repair","hire"],"id":"osm:node:13390845422","latitude":36.7404461,"longitude":-3.5846,"name":"TrujBike","properties":{"openingHours":"Mo-Fr 10:00-14:00,17:00-20:00; Sa 10:00-13:00","serviceRental":"yes","serviceRepair":"yes"},"sourceId":"osm"}],"schemaVersion":2}
