{"key":"12/2027/1318","points":[{"categories":["shop"],"id":"osm:node:11257537793","latitude":53.8347869,"longitude":-1.7778525,"name":"Ellis Briggs","properties":{},"sourceId":"osm"},{"categories":["shop"],"id":"osm:node:11257537807","latitude":53.8343245,"longitude":-1.7782771,"name":"MCF Bikery","properties":{},"sourceId":"osm"},{"categories":["shop"],"id":"osm:node:269423211","latitude":53.8354109,"longitude":-1.7750903,"name":"Ellis-Briggs","properties":{},"sourceId":"osm"},{"categories":["shop"],"id":"osm:node:301118169","latitude":53.8054111,"longitude":-1.7636725,"name":"Highfield Cycles","properties":{},"sourceId":"osm"},{"categories":["shop"],"id":"osm:node:332646757","latitude":53.8380201,"longitude":-1.7872772,"name":"All Terrain Cycles","properties":{"openingHours":"Mo-Sa 09:00-17:30; PH 10:00-16:00","website":"https://allterraincycles.co.uk/"},"sourceId":"osm"}],"schemaVersion":2}
