{"key":"12/2027/1376","points":[{"categories":["repair"],"id":"osm:node:6497348520","latitude":50.719142,"longitude":-1.7663175,"name":"Bicycle repair station","properties":{"fee":"no","servicePump":"no"},"sourceId":"osm"},{"categories":["hire"],"id":"osm:node:8381775958","latitude":50.7261581,"longitude":-1.812678,"name":"Pine Avenue","properties":{"fee":"yes","network":"Beryl - Bournemouth Poole Christchurch","operator":"Beryl"},"sourceId":"osm"},{"categories":["hire"],"id":"osm:node:8693691150","latitude":50.7193794,"longitude":-1.7684751,"name":"Hiker Cafe","properties":{"fee":"yes","network":"Beryl - Bournemouth Poole Christchurch","operator":"Beryl"},"sourceId":"osm"},{"categories":["hire"],"id":"osm:node:8693691152","latitude":50.7206193,"longitude":-1.83118,"name":"Boscombe Promenade","properties":{"fee":"yes","network":"Beryl - Bournemouth Poole Christchurch","operator":"Beryl"},"sourceId":"osm"},{"categories":["hire"],"id":"osm:node:8693691161","latitude":50.7339783,"longitude":-1.812301,"name":"Shelton Road","properties":{"fee":"yes","network":"Beryl - Bournemouth Poole Christchurch","operator":"Beryl"},"sourceId":"osm"},{"categories":["hire"],"id":"osm:node:8693691164","latitude":50.7310333,"longitude":-1.779633,"name":"Mayors Mead Car Park","properties":{"brand":"Beryl","fee":"yes","network":"Beryl","operator":"Beryl"},"sourceId":"osm"},{"categories":["hire"],"id":"osm:node:8693691169","latitude":50.7266083,"longitude":-1.826875,"name":"Parkwood Road","properties":{"fee":"yes","network":"Beryl - Bournemouth Poole Christchurch","operator":"Beryl"},"sourceId":"osm"},{"categories":["hire"],"id":"osm:node:8693691171","latitude":50.7356491,"longitude":-1.778084,"name":"Travelodge High Street","properties":{"brand":"Beryl","fee":"yes","network":"Beryl","operator":"Beryl"},"sourceId":"osm"},{"categories":["hire"],"id":"osm:node:8693691188","latitude":50.7350388,"longitude":-1.816039,"name":"Hambledon Road","properties":{"brand":"Beryl","fee":"yes","network":"Beryl - Bournemouth Poole Christchurch","operator":"Beryl"},"sourceId":"osm"},{"categories":["hire"],"id":"osm:node:8693691189","latitude":50.7191734,"longitude":-1.791558,"name":"Southbourne Beach","properties":{"fee":"yes","network":"Beryl - Bournemouth Poole Christchurch","operator":"Beryl"},"sourceId":"osm"},{"categories":["hire"],"id":"osm:node:8693691199","latitude":50.7324486,"longitude":-1.8051209,"name":"Cranleigh Rd","properties":{"fee":"yes","network":"Beryl - Bournemouth Poole Christchurch","operator":"Beryl"},"sourceId":"osm"},{"categories":["hire"],"id":"osm:node:8693691203","latitude":50.7358551,"longitude":-1.765726,"name":"Purewell","properties":{"brand":"Beryl","fee":"yes","network":"Beryl","operator":"Beryl"},"sourceId":"osm"},{"categories":["hire"],"id":"osm:node:8693691213","latitude":50.7275772,"longitude":-1.836748,"name":"Ashley Road","properties":{"brand":"Beryl","fee":"yes","network":"Beryl - Bournemouth Poole Christchurch","operator":"Beryl"},"sourceId":"osm"},{"categories":["hire"],"id":"osm:node:8693712435","latitude":50.7231865,"longitude":-1.794562,"name":"Twynham Road","properties":{"brand":"Beryl","fee":"yes","network":"Beryl","operator":"Beryl"},"sourceId":"osm"},{"categories":["hire"],"id":"osm:node:8693712438","latitude":50.7262383,"longitude":-1.815367,"name":"Southbourne Grove","properties":{"fee":"yes","network":"Beryl - Bournemouth Poole Christchurch","operator":"Beryl"},"sourceId":"osm"},{"categories":["hire"],"id":"osm:node:8693712439","latitude":50.7363968,"longitude":-1.813676,"name":"Warnford Road","properties":{"brand":"Beryl","fee":"yes","network":"Beryl - Bournemouth Poole Christchurch","operator":"Beryl"},"sourceId":"osm"},{"categories":["hire"],"id":"osm:node:8693712443","latitude":50.7195969,"longitude":-1.7926919,"name":"Warren Edge","properties":{"fee":"yes","network":"Beryl - Bournemouth Poole Christchurch","operator":"Beryl"},"sourceId":"osm"},{"categories":["hire"],"id":"osm:node:8693712448","latitude":50.7221107,"longitude":-1.780951,"name":"Harbour Road","properties":{"fee":"yes","network":"Beryl - Bournemouth Poole Christchurch","operator":"Beryl"},"sourceId":"osm"},{"categories":["hire"],"id":"osm:node:8693712463","latitude":50.7308197,"longitude":-1.8247761,"name":"Pokesdown Station","properties":{"fee":"yes","network":"Beryl - Bournemouth Poole Christchurch","operator":"Beryl"},"sourceId":"osm"},{"categories":["hire"],"id":"osm:node:8693712466","latitude":50.7198944,"longitude":-1.842598,"name":"Boscombe Pier","properties":{"fee":"yes","network":"Beryl - Bournemouth Poole Christchurch","operator":"Beryl"},"sourceId":"osm"},{"categories":["hire"],"id":"osm:node:8693712468","latitude":50.7187691,"longitude":-1.778796,"name":"Southborne Coast","properties":{"fee":"yes","network":"Beryl - Bournemouth Poole Christchurch","operator":"Beryl"},"sourceId":"osm"},{"categories":["hire"],"id":"osm:node:8693712469","latitude":50.7217774,"longitude":-1.8172869,"name":"Fishermans Walk","properties":{"fee":"yes","network":"Beryl - Bournemouth Poole Christchurch","operator":"Beryl"},"sourceId":"osm"},{"categories":["hire"],"id":"osm:node:8693712470","latitude":50.7332979,"longitude":-1.7676829,"name":"Two Riversmeet Leisure Centre","properties":{"fee":"yes","network":"Beryl - Bournemouth Poole Christchurch","operator":"Beryl"},"sourceId":"osm"},{"categories":["hire"],"id":"osm:node:8693712472","latitude":50.7331581,"longitude":-1.777146,"name":"Regent Way","properties":{"brand":"Beryl","fee":"yes","network":"Beryl","operator":"Beryl"},"sourceId":"osm"},{"categories":["hire"],"id":"osm:node:8693712476","latitude":50.7309799,"longitude":-1.801708,"name":"Seafield Road","properties":{"fee":"yes","network":"Beryl - Bournemouth Poole Christchurch","operator":"Beryl"},"sourceId":"osm"},{"categories":["hire"],"id":"osm:node:8693712490","latitude":50.7319031,"longitude":-1.822687,"name":"Christchurch Rd","properties":{"brand":"Beryl","fee":"yes","network":"Beryl - Bournemouth Poole Christchurch","operator":"Beryl"},"sourceId":"osm"},{"categories":["hire"],"id":"osm:node:8693712504","latitude":50.7286644,"longitude":-1.820852,"name":"Seaborne Road","properties":{"fee":"yes","network":"Beryl - Bournemouth Poole Christchurch","operator":"Beryl"},"sourceId":"osm"},{"categories":["hire"],"id":"osm:node:8693712510","latitude":50.7342987,"longitude":-1.817584,"name":"Waltham Road","properties":{"brand":"Beryl","fee":"yes","network":"Beryl - Bournemouth Poole Christchurch","operator":"Beryl"},"sourceId":"osm"},{"categories":["hire"],"id":"osm:node:8693712513","latitude":50.7307587,"longitude":-1.775297,"name":"Town Quay","properties":{"brand":"Beryl","fee":"yes","network":"Beryl","operator":"Beryl"},"sourceId":"osm"},{"categories":["hire"],"id":"osm:node:8693712525","latitude":50.7263908,"longitude":-1.841361,"name":"Palmerston Road","properties":{"brand":"Beryl","fee":"yes","network":"Beryl - Bournemouth Poole Christchurch","operator":"Beryl"},"sourceId":"osm"},{"categories":["hire"],"id":"osm:node:8693712532","latitude":50.7197304,"longitude":-1.7908469,"name":"Warren Edge Road","properties":{"brand":"Beryl","fee":"yes","network":"Beryl - Bournemouth Poole Christchurch","operator":"Beryl"},"sourceId":"osm"},{"categories":["hire"],"id":"osm:node:8693712537","latitude":50.7361221,"longitude":-1.7783102,"name":"Waitrose Christchurch","properties":{"brand":"Beryl","fee":"yes","network":"Beryl","operator":"Beryl"},"sourceId":"osm"},{"categories":["hire"],"id":"osm:node:8693712549","latitude":50.7228661,"longitude":-1.806308,"name":"Grange Road","properties":{"fee":"yes","network":"Beryl - Bournemouth Poole Christchurch","operator":"Beryl"},"sourceId":"osm"},{"categories":["hire"],"id":"osm:node:8693712555","latitude":50.7335968,"longitude":-1.8188159,"name":"Droxford Road","properties":{"brand":"Beryl","fee":"yes","network":"Beryl - Bournemouth Poole Christchurch","operator":"Beryl"},"sourceId":"osm"},{"categories":["hire"],"id":"osm:node:8693712558","latitude":50.7359314,"longitude":-1.75994,"name":"Purewell Roundabout","properties":{"brand":"Beryl","fee":"yes","network":"Beryl","operator":"Beryl"},"sourceId":"osm"},{"categories":["hire"],"id":"osm:node:8693712575","latitude":50.7348671,"longitude":-1.77774,"name":"Christchurch High Street","properties":{"brand":"Beryl","fee":"yes","network":"Beryl","operator":"Beryl"},"sourceId":"osm"},{"categories":["hire"],"id":"osm:node:8693712586","latitude":50.720932,"longitude":-1.8172072,"name":"The Prom Cafe","properties":{"fee":"yes","network":"Beryl - Bournemouth Poole Christchurch","operator":"Beryl"},"sourceId":"osm"},{"categories":["hire"],"id":"osm:node:8693712595","latitude":50.7343597,"longitude":-1.769853,"name":"BCP Council","properties":{"fee":"yes","network":"Beryl - Bournemouth Poole Christchurch","operator":"Beryl"},"sourceId":"osm"},{"categories":["hire"],"id":"osm:node:8693712600","latitude":50.7344017,"longitude":-1.778209,"name":"Druitt Hall","properties":{"brand":"Beryl","fee":"yes","network":"Beryl","operator":"Beryl"},"sourceId":"osm"},{"categories":["hire"],"id":"osm:node:8693712614","latitude":50.7284889,"longitude":-1.7930011,"name":"Tuckton Road","properties":{"brand":"Beryl","fee":"yes","network":"Beryl","operator":"Beryl"},"sourceId":"osm"},{"categories":["hire"],"id":"osm:node:8693712625","latitude":50.7269402,"longitude":-1.818342,"name":"Velo Domestique","properties":{"brand":"Beryl","fee":"yes","network":"Beryl","operator":"Beryl"},"sourceId":"osm"},{"categories":["hire"],"id":"osm:node:8693712641","latitude":50.7201538,"longitude":-1.843067,"name":"Boscombe Pier & Sea Road","properties":{"fee":"yes","network":"Beryl - Bournemouth Poole Christchurch","operator":"Beryl"},"sourceId":"osm"},{"categories":["hire"],"id":"osm:node:8693712651","latitude":50.7326088,"longitude":-1.787798,"name":"Stour Road/Fairway Drive","properties":{"brand":"Beryl","fee":"yes","network":"Beryl","operator":"Beryl"},"sourceId":"osm"},{"categories":["hire"],"id":"osm:node:8693712657","latitude":50.7216072,"longitude":-1.798015,"name":"Belle Vue Road","properties":{"fee":"yes","network":"Beryl - Bournemouth Poole Christchurch","operator":"Beryl"},"sourceId":"osm"},{"categories":["hire"],"id":"osm:node:8693712667","latitude":50.7312279,"longitude":-1.7823319,"name":"Willow Way Car Park","properties":{"brand":"Beryl","fee":"yes","network":"Beryl","operator":"Beryl"},"sourceId":"osm"},{"categories":["shop","repair"],"id":"osm:node:9431705107","latitude":50.7291943,"longitude":-1.8292338,"name":"Renovatio Bikes","properties":{"openingHours":"Mo-Sa 09:00-18:00","serviceRepair":"yes"},"sourceId":"osm"},{"categories":["hire"],"id":"osm:node:9613234131","latitude":50.7242203,"longitude":-1.800239,"name":"Seafield Gardens","properties":{"fee":"yes","network":"Beryl - Bournemouth Poole Christchurch","operator":"Beryl"},"sourceId":"osm"},{"categories":["hire"],"id":"osm:node:9613234132","latitude":50.7286987,"longitude":-1.79055,"name":"Tuckton Roundabout","properties":{"brand":"Beryl","fee":"yes","network":"Beryl","operator":"Beryl"},"sourceId":"osm"},{"categories":["hire"],"id":"osm:node:9931821330","latitude":50.733942,"longitude":-1.838514,"name":"Kings Park - Park and Ride","properties":{"fee":"yes","network":"Beryl - Bournemouth Poole Christchurch","operator":"Beryl"},"sourceId":"osm"},{"categories":["hire"],"id":"osm:node:9931821340","latitude":50.722399,"longitude":-1.781025,"name":"Broadway","properties":{"fee":"yes","network":"Beryl - Bournemouth Poole Christchurch","operator":"Beryl"},"sourceId":"osm"},{"categories":["hire"],"id":"osm:node:9931821345","latitude":50.733566,"longitude":-1.777314,"name":"Regent Centre","properties":{"brand":"Beryl","fee":"yes","network":"Beryl","operator":"Beryl"},"sourceId":"osm"},{"categories":["hire"],"id":"osm:node:9931821373","latitude":50.728405,"longitude":-1.832321,"name":"Woodland Walk","properties":{"fee":"yes","network":"Beryl - Bournemouth Poole Christchurch","operator":"Beryl"},"sourceId":"osm"},{"categories":["shop"],"id":"osm:way:769601709","latitude":50.72710320000001,"longitude":-1.81832745,"name":"Velo Domestique","properties":{"brand":"Omnium Cargo;Larry vs Harry","openingHours":"Mo,We-Sa 09:00-17:00; Su,Tu off"},"sourceId":"osm"}],"schemaVersion":2}
