{"key":"12/2056/1364","points":[{"id":"osm:node:11397887184","latitude":51.3509167,"longitude":0.7394555,"name":"Mill Way cycle parking","properties":{"access":"unknown","bicycle_pa":"stands","capacity":10,"covered":"no","fee":"","operator":"","nameSource":"street"},"sourceId":"osm"},{"id":"osm:node:11397914848","latitude":51.3535056,"longitude":0.7411386,"name":"Saffron Way near Mill Way","properties":{"access":"unknown","bicycle_pa":"stands","capacity":12,"covered":"no","fee":"","operator":"","nameSource":"junction"},"sourceId":"osm"},{"id":"osm:node:11397914849","latitude":51.353359,"longitude":0.741152,"name":"Saffron Way near Mill Way","properties":{"access":"unknown","bicycle_pa":"stands","capacity":8,"covered":"no","fee":"","operator":"","nameSource":"junction"},"sourceId":"osm"},{"id":"osm:node:1928052487","latitude":51.3502406,"longitude":0.7172078,"name":"Quartz Way near Diamond Close","properties":{"access":"unknown","bicycle_pa":"stands","capacity":12,"covered":"no","fee":"","operator":"","nameSource":"junction"},"sourceId":"osm"},{"id":"osm:node:4079902302","latitude":51.3471056,"longitude":0.7619445,"name":"Styles Close cycle parking","properties":{"access":"unknown","bicycle_pa":"stands","capacity":24,"covered":"yes","fee":"","operator":"","nameSource":"street"},"sourceId":"osm"},{"id":"osm:node:4081015149","latitude":51.3447647,"longitude":0.7352091,"name":"The Wall by Halfords","properties":{"access":"unknown","bicycle_pa":"stands","capacity":7,"covered":"no","fee":"","operator":"","nameSource":"landmark"},"sourceId":"osm"},{"id":"osm:node:677027270","latitude":51.3504868,"longitude":0.7167007,"name":"Helidor Walk near Quartz Way","properties":{"access":"unknown","bicycle_pa":"stands","capacity":12,"covered":"no","fee":"","operator":"","nameSource":"junction"},"sourceId":"osm"},{"id":"osm:node:745770786","latitude":51.3486864,"longitude":0.732368,"name":"Crown Road near Milton High Street","properties":{"access":"unknown","bicycle_pa":"stands","capacity":2,"covered":"no","fee":"","operator":"","nameSource":"junction"},"sourceId":"osm"}],"schemaVersion":2}
