{"key":"12/2056/1540","points":[{"id":"osm:node:10789894732","latitude":40.6567124,"longitude":0.7802312,"name":"TV-3405 near Carrer de l'Eucaliptus","properties":{"access":"unknown","bicycle_pa":"anchors","capacity":12,"covered":"no","fee":"","operator":"","nameSource":"junction"},"sourceId":"osm"},{"id":"osm:node:10789894733","latitude":40.6567364,"longitude":0.7799745,"name":"TV-3405 near Carrer de l'Eucaliptus","properties":{"access":"unknown","bicycle_pa":"anchors","capacity":8,"covered":"no","fee":"","operator":"","nameSource":"junction"},"sourceId":"osm"},{"id":"osm:node:10790027210","latitude":40.6570661,"longitude":0.7799537,"name":"TV-3405 near Carrer de l'Eucaliptus","properties":{"access":"unknown","bicycle_pa":"anchors","capacity":8,"covered":"no","fee":"","operator":"","nameSource":"junction"},"sourceId":"osm"},{"id":"osm:node:11283627947","latitude":40.7044399,"longitude":0.7865615,"name":"Carretera d'Amposta a Deltebre i Riumar cycle parking","properties":{"access":"yes","bicycle_pa":"wall_loops","capacity":10,"covered":"","fee":"","operator":"","nameSource":"street"},"sourceId":"osm"},{"id":"osm:node:12534169408","latitude":40.7055411,"longitude":0.719872,"name":"Carrer de Tarragona near Carrer de Joaquim Arqués","properties":{"access":"unknown","bicycle_pa":"","capacity":0,"covered":"","fee":"","operator":"","nameSource":"junction"},"sourceId":"osm"},{"id":"osm:node:12534169601","latitude":40.7060752,"longitude":0.7170878,"name":"Carrer de València near Carrer Major","properties":{"access":"unknown","bicycle_pa":"","capacity":0,"covered":"","fee":"","operator":"","nameSource":"junction"},"sourceId":"osm"},{"id":"osm:node:5525381440","latitude":40.6593724,"longitude":0.7748099,"name":"TV-3405 by Centre de visitants de la Reserva Natural de Riet Vell","properties":{"access":"unknown","bicycle_pa":"","capacity":10,"covered":"","fee":"","operator":"","nameSource":"landmark"},"sourceId":"osm"}],"schemaVersion":2}
