{"key":"12/2029/1318","points":[{"categories":["hire"],"id":"osm:node:11844153555","latitude":53.8161437,"longitude":-1.6015095,"name":"Beryl","properties":{"brand":"Beryl","network":"Beryl","operator":"Beryl"},"sourceId":"osm"},{"categories":["shop"],"id":"osm:node:12186247044","latitude":53.8066754,"longitude":-1.641723,"name":"Proper Bike Shop","properties":{},"sourceId":"osm"},{"categories":["shop"],"id":"osm:node:301022539","latitude":53.806734,"longitude":-1.5842288,"name":"Woodrup Cycles","properties":{},"sourceId":"osm"},{"categories":["shop","repair"],"id":"osm:node:9008287158","latitude":53.8169155,"longitude":-1.5992456,"name":"Freewheel Bicycle Repairs and Servicing","properties":{"openingHours":"Mo-Sa 10:00-18:00","operator":"Freewheel Bicycle Repairs and Servicing","serviceRepair":"yes","website":"https://freewheelrepairs.co.uk/"},"sourceId":"osm"},{"categories":["repair"],"id":"osm:node:9015407316","latitude":53.8272287,"longitude":-1.5911772,"name":"Leeds Beckett University","properties":{"fee":"no","openingHours":"24/7","operator":"Leeds Beckett University","servicePump":"no"},"sourceId":"osm"},{"categories":["shop","repair"],"id":"osm:node:9904412731","latitude":53.8183165,"longitude":-1.5967603,"name":"Leeds Bike Repairs","properties":{"serviceRepair":"yes"},"sourceId":"osm"},{"categories":["repair"],"id":"osm:way:152165032","latitude":53.815666571428565,"longitude":-1.6039997142857145,"name":"Halfords","properties":{"brand":"Halfords","serviceRepair":"yes","website":"https://www.halfords.com/locations/kirkstall-store/"},"sourceId":"osm"}],"schemaVersion":2}
