{"key":"12/1947/1514","points":[{"categories":["shop"],"id":"osm:node:12124862194","latitude":42.4014641,"longitude":-8.8062131,"name":"Tourmalet","properties":{},"sourceId":"osm"},{"categories":["hire"],"id":"osm:node:278996905","latitude":42.4032605,"longitude":-8.8092092,"name":"Cycle hire","properties":{},"sourceId":"osm"},{"categories":["shop"],"id":"osm:node:3689212318","latitude":42.4038469,"longitude":-8.8094155,"name":"Todo Bici","properties":{},"sourceId":"osm"},{"categories":["shop"],"id":"osm:node:6640484311","latitude":42.4029609,"longitude":-8.8129529,"name":"Mortirolo Cycling","properties":{},"sourceId":"osm"},{"categories":["shop"],"id":"osm:node:8932770446","latitude":42.3952575,"longitude":-8.8293333,"name":"New Bikes","properties":{},"sourceId":"osm"}],"schemaVersion":2}
