{"key":"12/2067/1530","points":[{"id":"osm:node:13935222927","latitude":41.3422124,"longitude":1.7016481,"name":"Avinguda de Vilanova i la Geltrú near Carrer del Comerç","properties":{"access":"unknown","bicycle_pa":"stands","capacity":10,"covered":"no","fee":"","operator":"","nameSource":"junction"},"sourceId":"osm"},{"id":"osm:node:13935715771","latitude":41.3447705,"longitude":1.7001636,"name":"Passatge d'Alcover near Carrer de Sant Joan","properties":{"access":"unknown","bicycle_pa":"stands","capacity":12,"covered":"no","fee":"","operator":"","nameSource":"junction"},"sourceId":"osm"},{"id":"osm:node:9789496754","latitude":41.3415167,"longitude":1.7017129,"name":"Carrer del Camp del Cellerot by Estació d'Autobusos de Vilafranca del Penedès","properties":{"access":"customers","bicycle_pa":"shed","capacity":10,"covered":"yes","fee":"yes","operator":"","nameSource":"landmark"},"sourceId":"osm"},{"id":"osm:node:9789496755","latitude":41.3550541,"longitude":1.703487,"name":"Carrer de Baltà de Cela near Carrer de Salvador Seguí","properties":{"access":"customers","bicycle_pa":"shed","capacity":10,"covered":"yes","fee":"","operator":"","nameSource":"junction"},"sourceId":"osm"},{"id":"osm:node:9789496756","latitude":41.3444636,"longitude":1.7030458,"name":"Passeig del Camp dels Rolls by Vilafranca del Penedès","properties":{"access":"customers","bicycle_pa":"shed","capacity":10,"covered":"yes","fee":"yes","operator":"","nameSource":"landmark"},"sourceId":"osm"}],"schemaVersion":2}
