{"key":"12/2027/1368","points":[{"id":"osm:node:13477277485","latitude":51.1722144,"longitude":-1.778796,"name":"The Centre near Smithfield Street","properties":{"access":"unknown","bicycle_pa":"stands","capacity":10,"covered":"no","fee":"","operator":"","nameSource":"junction"},"sourceId":"osm"},{"id":"osm:node:13477293027","latitude":51.172163,"longitude":-1.7797995,"name":"Salisbury Street near Flower Lane","properties":{"access":"unknown","bicycle_pa":"stands","capacity":8,"covered":"no","fee":"","operator":"","nameSource":"junction"},"sourceId":"osm"},{"id":"osm:node:2477105098","latitude":51.1716013,"longitude":-1.7787418,"name":"The Centre near Salisbury Road","properties":{"access":"unknown","bicycle_pa":"stands","capacity":8,"covered":"no","fee":"","operator":"","nameSource":"junction"},"sourceId":"osm"},{"id":"osm:node:2477105100","latitude":51.1716658,"longitude":-1.7790899,"name":"Salisbury Street near Salisbury Road","properties":{"access":"unknown","bicycle_pa":"stands","capacity":6,"covered":"no","fee":"","operator":"","nameSource":"junction"},"sourceId":"osm"},{"id":"osm:node:2477105101","latitude":51.1718003,"longitude":-1.7804473,"name":"Flower Lane near Salisbury Street","properties":{"access":"unknown","bicycle_pa":"stands","capacity":4,"covered":"no","fee":"","operator":"","nameSource":"junction"},"sourceId":"osm"},{"id":"osm:node:2477105105","latitude":51.1721611,"longitude":-1.7817022,"name":"Salisbury Street near Church Street","properties":{"access":"unknown","bicycle_pa":"stands","capacity":6,"covered":"no","fee":"","operator":"","nameSource":"junction"},"sourceId":"osm"}],"schemaVersion":2}
