{"key":"12/2027/1370","points":[{"id":"osm:node:1061804081","latitude":51.0687208,"longitude":-1.7970725,"name":"St Thomas's Square near Bridge Street","properties":{"access":"unknown","bicycle_pa":"stands","capacity":18,"covered":"no","fee":"","operator":"","nameSource":"junction"},"sourceId":"osm"},{"id":"osm:node:1064524011","latitude":51.0685967,"longitude":-1.7938339,"name":"Milford Street near Catherine Street","properties":{"access":"unknown","bicycle_pa":"stands","capacity":4,"covered":"no","fee":"","operator":"","nameSource":"junction"},"sourceId":"osm"},{"id":"osm:node:12113151939","latitude":51.0454748,"longitude":-1.7905594,"name":"Victoria Drive West by Salisbury District Hospital","properties":{"access":"yes","bicycle_pa":"stands","capacity":16,"covered":"yes","fee":"no","operator":"","nameSource":"landmark"},"sourceId":"osm"},{"id":"osm:node:12415409557","latitude":51.0645683,"longitude":-1.7810956,"name":"Avon Place cycle parking","properties":{"access":"private","bicycle_pa":"stands","capacity":8,"covered":"no","fee":"","operator":"","nameSource":"street"},"sourceId":"osm"},{"id":"osm:node:12415409558","latitude":51.0612065,"longitude":-1.7798807,"name":"B&Q cycle parking","properties":{"access":"customers","bicycle_pa":"","capacity":12,"covered":"no","fee":"","operator":"","nameSource":"landmark"},"sourceId":"osm"},{"id":"osm:node:12415409559","latitude":51.0624187,"longitude":-1.7784665,"name":"Dairy Meadow Lane by Pets at Home","properties":{"access":"unknown","bicycle_pa":"","capacity":6,"covered":"","fee":"","operator":"","nameSource":"landmark"},"sourceId":"osm"},{"id":"osm:node:12415593636","latitude":51.0633385,"longitude":-1.7759729,"name":"Hatches Lane by Wickes","properties":{"access":"unknown","bicycle_pa":"stands","capacity":40,"covered":"no","fee":"no","operator":"","nameSource":"landmark"},"sourceId":"osm"},{"id":"osm:node:12723620889","latitude":51.0680222,"longitude":-1.8007646,"name":"Crane Bridge Road near Cathedral Views","properties":{"access":"yes","bicycle_pa":"stands","capacity":12,"covered":"no","fee":"no","operator":"","nameSource":"junction"},"sourceId":"osm"},{"id":"osm:node:13341601098","latitude":51.0680934,"longitude":-1.8004371,"name":"Crane Bridge Road near Cathedral Views","properties":{"access":"yes","bicycle_pa":"stands","capacity":2,"covered":"no","fee":"no","operator":"","nameSource":"junction"},"sourceId":"osm"},{"id":"osm:node:1838259766","latitude":51.0664733,"longitude":-1.7980719,"name":"Choristers Square near High Street","properties":{"access":"unknown","bicycle_pa":"stands","capacity":10,"covered":"no","fee":"","operator":"","nameSource":"junction"},"sourceId":"osm"},{"id":"osm:node:2955732899","latitude":51.0675205,"longitude":-1.7938009,"name":"Old George Mall near Catherine Street","properties":{"access":"unknown","bicycle_pa":"stands","capacity":4,"covered":"no","fee":"","operator":"","nameSource":"junction"},"sourceId":"osm"},{"id":"osm:node:2971482079","latitude":51.0679401,"longitude":-1.7974012,"name":"High Street near Old George Mall","properties":{"access":"yes","bicycle_pa":"stands","capacity":8,"covered":"no","fee":"no","operator":"","nameSource":"junction"},"sourceId":"osm"},{"id":"osm:node:5888864509","latitude":51.0660274,"longitude":-1.7979535,"name":"Choristers Square near North Walk","properties":{"access":"unknown","bicycle_pa":"stands","capacity":8,"covered":"no","fee":"","operator":"","nameSource":"junction"},"sourceId":"osm"},{"id":"osm:node:6298753759","latitude":51.0615427,"longitude":-1.7772076,"name":"Southampton Road near Bourne Way Roundabout","properties":{"access":"yes","bicycle_pa":"rack","capacity":8,"covered":"no","fee":"no","operator":"","nameSource":"junction"},"sourceId":"osm"},{"id":"osm:node:8656887758","latitude":51.0689602,"longitude":-1.7942117,"name":"Fish Row near Queen Street","properties":{"access":"yes","bicycle_pa":"stands","capacity":22,"covered":"no","fee":"","operator":"","nameSource":"junction"},"sourceId":"osm"},{"id":"osm:node:8656887759","latitude":51.0685201,"longitude":-1.7956841,"name":"New Canal near Old George Mall","properties":{"access":"yes","bicycle_pa":"stands","capacity":22,"covered":"no","fee":"no","operator":"","nameSource":"junction"},"sourceId":"osm"},{"id":"osm:node:8705329307","latitude":51.0630736,"longitude":-1.7758932,"name":"Hatches Lane cycle parking","properties":{"access":"yes","bicycle_pa":"stands","capacity":16,"covered":"no","fee":"no","operator":"","nameSource":"street"},"sourceId":"osm"},{"id":"osm:node:8705329308","latitude":51.0630093,"longitude":-1.773939,"name":"Bourne Way cycle parking","properties":{"access":"yes","bicycle_pa":"stands","capacity":10,"covered":"no","fee":"no","operator":"","nameSource":"street"},"sourceId":"osm"},{"id":"osm:node:8705329309","latitude":51.0629766,"longitude":-1.7739857,"name":"Bourne Way cycle parking","properties":{"access":"yes","bicycle_pa":"rack","capacity":12,"covered":"no","fee":"no","operator":"","nameSource":"street"},"sourceId":"osm"},{"id":"osm:node:8705329310","latitude":51.0638833,"longitude":-1.7802681,"name":"Oak Furnitureland cycle parking","properties":{"access":"yes","bicycle_pa":"stands","capacity":16,"covered":"no","fee":"no","operator":"","nameSource":"landmark"},"sourceId":"osm"}],"schemaVersion":2}
