{"key":"12/2027/1499","points":[{"id":"osm:node:11232509245","latitude":43.3491705,"longitude":-1.7863487,"name":"Santiago kalea near Etorbideko zubia","properties":{"access":"yes","bicycle_pa":"stands","capacity":8,"covered":"no","fee":"no","operator":"","nameSource":"junction"},"sourceId":"osm"},{"id":"osm:node:11232523477","latitude":43.3396459,"longitude":-1.8009883,"name":"Geltoki kalea cycle parking","properties":{"access":"yes","bicycle_pa":"wall_loops","capacity":40,"covered":"yes","fee":"no","operator":"","nameSource":"street"},"sourceId":"osm"},{"id":"osm:node:11232523479","latitude":43.3400083,"longitude":-1.8005096,"name":"Geltoki kalea by Aterpe Taberna","properties":{"access":"yes","bicycle_pa":"stands","capacity":10,"covered":"no","fee":"no","operator":"","nameSource":"landmark"},"sourceId":"osm"},{"id":"osm:node:11496739663","latitude":43.3493836,"longitude":-1.7862442,"name":"Santiago kalea near Etorbideko zubia","properties":{"access":"yes","bicycle_pa":"stands","capacity":14,"covered":"","fee":"","operator":"","nameSource":"junction"},"sourceId":"osm"},{"id":"osm:node:12070161669","latitude":43.3779675,"longitude":-1.7946384,"name":"Europa Ibilbidea cycle parking","properties":{"access":"unknown","bicycle_pa":"stands","capacity":0,"covered":"no","fee":"","operator":"","nameSource":"street"},"sourceId":"osm"},{"id":"osm:node:12070161769","latitude":43.3777839,"longitude":-1.7941515,"name":"Europa Ibilbidea cycle parking","properties":{"access":"unknown","bicycle_pa":"stands","capacity":0,"covered":"no","fee":"","operator":"","nameSource":"street"},"sourceId":"osm"},{"id":"osm:node:12269323302","latitude":43.3380831,"longitude":-1.7801604,"name":"Juan Vollmer plaza near Ricardo Alberdi Zumardia aldapa","properties":{"access":"unknown","bicycle_pa":"","capacity":0,"covered":"","fee":"","operator":"","nameSource":"junction"},"sourceId":"osm"},{"id":"osm:node:12269335801","latitude":43.3375567,"longitude":-1.7806072,"name":"Arbesko errota kalea near Juan Vollmer plaza","properties":{"access":"unknown","bicycle_pa":"","capacity":0,"covered":"","fee":"","operator":"","nameSource":"junction"},"sourceId":"osm"},{"id":"osm:node:12270707202","latitude":43.3352001,"longitude":-1.7937375,"name":"Santa Margarita Hospitalea near Olaketa kalea","properties":{"access":"unknown","bicycle_pa":"","capacity":0,"covered":"","fee":"","operator":"","nameSource":"junction"},"sourceId":"osm"},{"id":"osm:node:12270750502","latitude":43.3356822,"longitude":-1.7979454,"name":"Elatzeta kalea near Rataplan kalea","properties":{"access":"unknown","bicycle_pa":"","capacity":0,"covered":"","fee":"","operator":"","nameSource":"junction"},"sourceId":"osm"},{"id":"osm:node:12270751301","latitude":43.3361961,"longitude":-1.7973317,"name":"Elizatxo hiribidea near Alberto Larzabal kalea","properties":{"access":"unknown","bicycle_pa":"","capacity":0,"covered":"","fee":"","operator":"","nameSource":"junction"},"sourceId":"osm"},{"id":"osm:node:12280967401","latitude":43.3281213,"longitude":-1.81893,"name":"Errotazar kalea near Nafarroa Beherea kalea","properties":{"access":"unknown","bicycle_pa":"","capacity":0,"covered":"","fee":"","operator":"","nameSource":"junction"},"sourceId":"osm"},{"id":"osm:node:12651683895","latitude":43.3612254,"longitude":-1.7913137,"name":"Minasoroeta kalea near Damarri kalea","properties":{"access":"yes","bicycle_pa":"stands","capacity":20,"covered":"no","fee":"","operator":"Udala","nameSource":"junction"},"sourceId":"osm"},{"id":"osm:node:12655922393","latitude":43.3401852,"longitude":-1.8108208,"name":"Pagogaina kalea near Agina kalea","properties":{"access":"unknown","bicycle_pa":"wall_loops","capacity":6,"covered":"no","fee":"","operator":"","nameSource":"junction"},"sourceId":"osm"},{"id":"osm:node:12655996325","latitude":43.3413091,"longitude":-1.8097859,"name":"Pagogaina kalea near Urkia kalea","properties":{"access":"unknown","bicycle_pa":"","capacity":0,"covered":"","fee":"","operator":"","nameSource":"junction"},"sourceId":"osm"},{"id":"osm:node:13464462155","latitude":43.3644584,"longitude":-1.7911539,"name":"Sabin Arana Goiri kalea near Zuberoa kalea","properties":{"access":"yes","bicycle_pa":"stands","capacity":10,"covered":"no","fee":"no","operator":"","nameSource":"junction"},"sourceId":"osm"},{"id":"osm:node:13840994120","latitude":43.3417226,"longitude":-1.7748802,"name":"Bidegorri Behobia cycle parking","properties":{"access":"unknown","bicycle_pa":"stands","capacity":0,"covered":"","fee":"","operator":"","nameSource":"street"},"sourceId":"osm"},{"id":"osm:node:5463936395","latitude":43.3656581,"longitude":-1.7923231,"name":"Sabin Arana Goiri kalea by Bar Restaurante Maitane","properties":{"access":"unknown","bicycle_pa":"stands","capacity":0,"covered":"","fee":"","operator":"","nameSource":"landmark"},"sourceId":"osm"},{"id":"osm:node:5580017572","latitude":43.3732143,"longitude":-1.7955552,"name":"Kai berriko bidegorria cycle parking","properties":{"access":"unknown","bicycle_pa":"","capacity":0,"covered":"","fee":"","operator":"","nameSource":"street"},"sourceId":"osm"},{"id":"osm:node:5580111330","latitude":43.3659269,"longitude":-1.792927,"name":"San Pedro kalea by Olatz","properties":{"access":"unknown","bicycle_pa":"","capacity":0,"covered":"","fee":"","operator":"","nameSource":"landmark"},"sourceId":"osm"},{"id":"osm:node:5634674450","latitude":43.3412728,"longitude":-1.7764504,"name":"Juan Thalamas Labandibar kalea by Larra","properties":{"access":"unknown","bicycle_pa":"stands","capacity":20,"covered":"no","fee":"","operator":"","nameSource":"landmark"},"sourceId":"osm"},{"id":"osm:node:6000749128","latitude":43.3410221,"longitude":-1.7770561,"name":"Juan Thalamas Labandibar kalea by Ciclos Artia","properties":{"access":"yes","bicycle_pa":"wall_loops","capacity":3,"covered":"yes","fee":"","operator":"Ciclos Artia","nameSource":"landmark"},"sourceId":"osm"},{"id":"osm:node:6002274472","latitude":43.34305,"longitude":-1.7859777,"name":"Real Union ibilbidea by Silver River","properties":{"access":"unknown","bicycle_pa":"stands","capacity":8,"covered":"no","fee":"","operator":"","nameSource":"landmark"},"sourceId":"osm"},{"id":"osm:node:6002364098","latitude":43.342904,"longitude":-1.7637992,"name":"Bidegorri Behobia cycle parking","properties":{"access":"unknown","bicycle_pa":"stands","capacity":8,"covered":"","fee":"","operator":"","nameSource":"street"},"sourceId":"osm"},{"id":"osm:node:6003074317","latitude":43.3383027,"longitude":-1.788456,"name":"San Martzial kalea near Iglesia","properties":{"access":"unknown","bicycle_pa":"stands","capacity":4,"covered":"no","fee":"","operator":"","nameSource":"junction"},"sourceId":"osm"},{"id":"osm:node:6139075393","latitude":43.340284,"longitude":-1.7620224,"name":"Alcaldía de Sacas kalea near Urjauzi kalea","properties":{"access":"unknown","bicycle_pa":"stands","capacity":18,"covered":"no","fee":"","operator":"","nameSource":"junction"},"sourceId":"osm"},{"id":"osm:node:6308275582","latitude":43.3627729,"longitude":-1.7910056,"name":"Fraxkueneko Murrua kalea near Apezpiku plaza","properties":{"access":"unknown","bicycle_pa":"stands","capacity":14,"covered":"","fee":"","operator":"","nameSource":"junction"},"sourceId":"osm"},{"id":"osm:node:9004887384","latitude":43.373886,"longitude":-1.7946639,"name":"Minatera ibilbidea cycle parking","properties":{"access":"yes","bicycle_pa":"stands","capacity":24,"covered":"no","fee":"","operator":"","nameSource":"street"},"sourceId":"osm"},{"id":"osm:node:9430810382","latitude":43.338521,"longitude":-1.7892886,"name":"Leon Iruretagoiena kalea near Kale Nagusia","properties":{"access":"unknown","bicycle_pa":"stands","capacity":14,"covered":"no","fee":"","operator":"","nameSource":"junction"},"sourceId":"osm"},{"id":"osm:way:1052433002","latitude":43.34133096,"longitude":-1.7958415799999998,"name":"Cipriano Larrañaga kalea near Jacobo Arbelaitz kalea","properties":{"access":"private","bicycle_pa":"building","capacity":0,"covered":"yes","fee":"","operator":"","nameSource":"junction"},"sourceId":"osm"}],"schemaVersion":2}
