{"key":"12/2027/1565","points":[{"id":"osm:node:13655270221","latitude":38.9845305,"longitude":-1.842913,"name":"Calle Almansa near Avenida Doctor Francisco Gaspar Huelves","properties":{"access":"unknown","bicycle_pa":"","capacity":0,"covered":"","fee":"","operator":"","nameSource":"junction"},"sourceId":"osm"},{"id":"osm:node:2894077473","latitude":38.9909575,"longitude":-1.8451457,"name":"Calle de la Puerta de Chinchilla near Calle Puerta de Chinchilla","properties":{"access":"unknown","bicycle_pa":"privee","capacity":5,"covered":"yes","fee":"","operator":"Ayuntamiento","nameSource":"junction"},"sourceId":"osm"},{"id":"osm:node:2894077480","latitude":38.9856513,"longitude":-1.8456395,"name":"Acceso Urgencias cycle parking","properties":{"access":"unknown","bicycle_pa":"privee","capacity":5,"covered":"no","fee":"","operator":"Ayuntamiento","nameSource":"street"},"sourceId":"osm"},{"id":"osm:node:2894077481","latitude":38.985407,"longitude":-1.8439146,"name":"Plaza del Madroño near Calle Morera","properties":{"access":"unknown","bicycle_pa":"privee","capacity":5,"covered":"no","fee":"","operator":"Ayuntamiento","nameSource":"junction"},"sourceId":"osm"},{"id":"osm:node:2894077483","latitude":38.9910326,"longitude":-1.8450867,"name":"Calle Puerta de Chinchilla near Calle de la Puerta de Chinchilla","properties":{"access":"unknown","bicycle_pa":"privee","capacity":5,"covered":"yes","fee":"","operator":"Ayuntamiento","nameSource":"junction"},"sourceId":"osm"},{"id":"osm:node:2894077487","latitude":38.9899235,"longitude":-1.8455104,"name":"Calle Cardenal Tabera y Araoz near Plaza Miguel Ángel Blanco","properties":{"access":"unknown","bicycle_pa":"privee","capacity":5,"covered":"no","fee":"","operator":"Ayuntamiento","nameSource":"junction"},"sourceId":"osm"},{"id":"osm:node:2894077488","latitude":38.9881385,"longitude":-1.8428082,"name":"Calle Juan Pacheco near Calle Francisco Belmonte","properties":{"access":"unknown","bicycle_pa":"privee","capacity":5,"covered":"no","fee":"","operator":"Ayuntamiento","nameSource":"junction"},"sourceId":"osm"},{"id":"osm:node:6877869516","latitude":38.9784113,"longitude":-1.8413967,"name":"Avenida José Prat","properties":{"access":"yes","bicycle_pa":"","capacity":12,"covered":"no","fee":"yes","operator":"Ayuntamiento Albacete","nameSource":"source"},"sourceId":"osm"}],"schemaVersion":2}
