{"key":"12/2029/1299","points":[{"id":"osm:node:11688691690","latitude":54.7774483,"longitude":-1.582282,"name":"North Road near A690","properties":{"access":"unknown","bicycle_pa":"","capacity":0,"covered":"no","fee":"","operator":"","nameSource":"junction"},"sourceId":"osm"},{"id":"osm:node:1237360570","latitude":54.7773996,"longitude":-1.5829696,"name":"Atherton Street near New Street","properties":{"access":"unknown","bicycle_pa":"stands","capacity":20,"covered":"","fee":"","operator":"","nameSource":"junction"},"sourceId":"osm"},{"id":"osm:node:3032116850","latitude":54.7855293,"longitude":-1.5852475,"name":"B6532 cycle parking","properties":{"access":"yes","bicycle_pa":"stands","capacity":16,"covered":"yes","fee":"","operator":"","nameSource":"street"},"sourceId":"osm"},{"id":"osm:node:4090720069","latitude":54.7785718,"longitude":-1.5880031,"name":"The Bowers cycle parking","properties":{"access":"unknown","bicycle_pa":"stands","capacity":10,"covered":"","fee":"","operator":"","nameSource":"street"},"sourceId":"osm"},{"id":"osm:node:410493631","latitude":54.7950371,"longitude":-1.5958947,"name":"A167 cycle parking","properties":{"access":"unknown","bicycle_pa":"","capacity":0,"covered":"","fee":"","operator":"","nameSource":"street"},"sourceId":"osm"},{"id":"osm:node:410493632","latitude":54.7944622,"longitude":-1.5962192,"name":"A167 cycle parking","properties":{"access":"unknown","bicycle_pa":"","capacity":0,"covered":"","fee":"","operator":"","nameSource":"street"},"sourceId":"osm"},{"id":"osm:node:410493641","latitude":54.7952302,"longitude":-1.5946556,"name":"New College Durham cycle parking","properties":{"access":"unknown","bicycle_pa":"","capacity":0,"covered":"","fee":"","operator":"","nameSource":"landmark"},"sourceId":"osm"},{"id":"osm:node:410493642","latitude":54.7947919,"longitude":-1.5945118,"name":"New College Durham cycle parking","properties":{"access":"unknown","bicycle_pa":"","capacity":0,"covered":"","fee":"","operator":"","nameSource":"landmark"},"sourceId":"osm"},{"id":"osm:node:410583230","latitude":54.7921954,"longitude":-1.5997567,"name":"Secure storage","properties":{"access":"unknown","bicycle_pa":"","capacity":4,"covered":"","fee":"","operator":"","nameSource":"source"},"sourceId":"osm"},{"id":"osm:node:418875189","latitude":54.7869015,"longitude":-1.5903384,"name":"Old Dryburn Way near Melbury Court","properties":{"access":"unknown","bicycle_pa":"stands","capacity":20,"covered":"yes","fee":"","operator":"","nameSource":"junction"},"sourceId":"osm"},{"id":"osm:node:418875193","latitude":54.7883603,"longitude":-1.5935731,"name":"UHND Woodland Walk cycle parking","properties":{"access":"unknown","bicycle_pa":"","capacity":4,"covered":"","fee":"","operator":"","nameSource":"street"},"sourceId":"osm"},{"id":"osm:node:418875194","latitude":54.7881626,"longitude":-1.5928655,"name":"University Hospital of North Durham cycle parking","properties":{"access":"unknown","bicycle_pa":"stands","capacity":20,"covered":"no","fee":"","operator":"","nameSource":"landmark"},"sourceId":"osm"},{"id":"osm:node:4258535990","latitude":54.7806478,"longitude":-1.5834985,"name":"North Road by Wharton Park Heritage Centre and Cafe","properties":{"access":"unknown","bicycle_pa":"stands","capacity":10,"covered":"","fee":"","operator":"","nameSource":"landmark"},"sourceId":"osm"},{"id":"osm:node:4377967942","latitude":54.776418,"longitude":-1.59779,"name":"Newcastle Road near Lyndhurst Drive","properties":{"access":"unknown","bicycle_pa":"stands","capacity":6,"covered":"","fee":"","operator":"","nameSource":"junction"},"sourceId":"osm"},{"id":"osm:node:4386394174","latitude":54.792966,"longitude":-1.5908363,"name":"Front Street near St Cuthberts Avenue","properties":{"access":"unknown","bicycle_pa":"stands","capacity":4,"covered":"no","fee":"","operator":"","nameSource":"junction"},"sourceId":"osm"},{"id":"osm:node:4903866505","latitude":54.8083164,"longitude":-1.5916081,"name":"Stank Lane by The Bake House","properties":{"access":"unknown","bicycle_pa":"stands","capacity":0,"covered":"no","fee":"","operator":"","nameSource":"landmark"},"sourceId":"osm"},{"id":"osm:node:5000117544","latitude":54.807194,"longitude":-1.5832875,"name":"New Look cycle parking","properties":{"access":"unknown","bicycle_pa":"stands","capacity":10,"covered":"yes","fee":"","operator":"","nameSource":"landmark"},"sourceId":"osm"},{"id":"osm:node:5000157241","latitude":54.8080158,"longitude":-1.5820817,"name":"Rotary Way by Vets for Pets","properties":{"access":"unknown","bicycle_pa":"stands","capacity":5,"covered":"no","fee":"","operator":"","nameSource":"landmark"},"sourceId":"osm"},{"id":"osm:node:567855659","latitude":54.7853647,"longitude":-1.584833,"name":"Visitor cycle parking","properties":{"access":"unknown","bicycle_pa":"stands","capacity":6,"covered":"yes","fee":"","operator":"","nameSource":"source"},"sourceId":"osm"},{"id":"osm:node:567855661","latitude":54.7863259,"longitude":-1.5844649,"name":"County Hall cycle parking","properties":{"access":"unknown","bicycle_pa":"","capacity":14,"covered":"","fee":"","operator":"","nameSource":"landmark"},"sourceId":"osm"},{"id":"osm:node:691973122","latitude":54.8012702,"longitude":-1.6111896,"name":"Hartside Cottages cycle parking","properties":{"access":"unknown","bicycle_pa":"","capacity":24,"covered":"","fee":"","operator":"","nameSource":"street"},"sourceId":"osm"},{"id":"osm:node:7026106586","latitude":54.786508,"longitude":-1.5899691,"name":"Old Dryburn Way near Boste Crescent","properties":{"access":"unknown","bicycle_pa":"stands","capacity":6,"covered":"no","fee":"","operator":"","nameSource":"junction"},"sourceId":"osm"},{"id":"osm:node:705345780","latitude":54.8184783,"longitude":-1.6285349,"name":"Front Street by Sacriston Community Cafe","properties":{"access":"unknown","bicycle_pa":"","capacity":6,"covered":"","fee":"","operator":"","nameSource":"landmark"},"sourceId":"osm"},{"id":"osm:node:8353495163","latitude":54.793151,"longitude":-1.59026,"name":"Kirby Avenue by GLOW.","properties":{"access":"unknown","bicycle_pa":"stands","capacity":4,"covered":"no","fee":"","operator":"","nameSource":"landmark"},"sourceId":"osm"},{"id":"osm:node:8972555046","latitude":54.7798754,"longitude":-1.6179527,"name":"Lanchester Valley Walk by Field & Fodder","properties":{"access":"customers","bicycle_pa":"stands","capacity":10,"covered":"no","fee":"no","operator":"","nameSource":"landmark"},"sourceId":"osm"},{"id":"osm:node:9879299385","latitude":54.7883676,"longitude":-1.6605583,"name":"College Road by Exhibition Hall Theatre","properties":{"access":"unknown","bicycle_pa":"stands","capacity":10,"covered":"no","fee":"","operator":"","nameSource":"landmark"},"sourceId":"osm"},{"id":"osm:way:837945663","latitude":54.77603546,"longitude":-1.5842559,"name":"Allergate near Atherton Street","properties":{"access":"private","bicycle_pa":"","capacity":0,"covered":"","fee":"","operator":"","nameSource":"junction"},"sourceId":"osm"}],"schemaVersion":2}
