{"key":"12/2029/1319","points":[{"id":"osm:node:10556567402","latitude":53.7910707,"longitude":-1.6048595,"name":"Old School Lane cycle parking","properties":{"access":"unknown","bicycle_pa":"stands","capacity":6,"covered":"no","fee":"","operator":"","nameSource":"street"},"sourceId":"osm"},{"id":"osm:node:11504418166","latitude":53.7970872,"longitude":-1.6636375,"name":"Lidget Hill near Wesley View","properties":{"access":"unknown","bicycle_pa":"stands","capacity":0,"covered":"","fee":"","operator":"","nameSource":"junction"},"sourceId":"osm"},{"id":"osm:node:13258029436","latitude":53.7502891,"longitude":-1.5905671,"name":"Station View near Seven Hill Way","properties":{"access":"yes","bicycle_pa":"wall_loops","capacity":16,"covered":"yes","fee":"no","operator":"","nameSource":"junction"},"sourceId":"osm"},{"id":"osm:node:3632290673","latitude":53.7576555,"longitude":-1.632716,"name":"Street Lane near Flossmore Way","properties":{"access":"unknown","bicycle_pa":"stands","capacity":2,"covered":"no","fee":"","operator":"","nameSource":"junction"},"sourceId":"osm"},{"id":"osm:node:3632290901","latitude":53.7577219,"longitude":-1.6326919,"name":"Street Lane near Reedsdale Gardens","properties":{"access":"unknown","bicycle_pa":"stands","capacity":2,"covered":"no","fee":"","operator":"","nameSource":"junction"},"sourceId":"osm"},{"id":"osm:node:3634785853","latitude":53.7616985,"longitude":-1.587813,"name":"Elland Road near William Street","properties":{"access":"unknown","bicycle_pa":"stands","capacity":4,"covered":"no","fee":"","operator":"","nameSource":"junction"},"sourceId":"osm"},{"id":"osm:node:4496230242","latitude":53.7956194,"longitude":-1.6645644,"name":"Church Lane near Mulberry Street","properties":{"access":"unknown","bicycle_pa":"stands","capacity":4,"covered":"no","fee":"","operator":"","nameSource":"junction"},"sourceId":"osm"},{"id":"osm:node:4496230246","latitude":53.7956099,"longitude":-1.6641486,"name":"Church Lane near Mulberry Street","properties":{"access":"unknown","bicycle_pa":"stands","capacity":2,"covered":"no","fee":"","operator":"","nameSource":"junction"},"sourceId":"osm"},{"id":"osm:node:8807693192","latitude":53.7968285,"longitude":-1.5906661,"name":"Hall Road near Town Street","properties":{"access":"yes","bicycle_pa":"stands","capacity":4,"covered":"no","fee":"no","operator":"Leeds City Council","nameSource":"junction"},"sourceId":"osm"},{"id":"osm:node:8807693193","latitude":53.7964693,"longitude":-1.592551,"name":"Town Street near Pinfold Lane","properties":{"access":"unknown","bicycle_pa":"stands","capacity":2,"covered":"no","fee":"","operator":"","nameSource":"junction"},"sourceId":"osm"}],"schemaVersion":2}
