{"key":"12/2029/1337","points":[{"id":"osm:node:1002326189","latitude":52.8061616,"longitude":-1.6421911,"name":"Borough Road by Burton-on-Trent","properties":{"access":"unknown","bicycle_pa":"stands","capacity":74,"covered":"yes","fee":"","operator":"","nameSource":"landmark"},"sourceId":"osm"},{"id":"osm:node:11684612259","latitude":52.8047327,"longitude":-1.6256496,"name":"Meadowside Drive by Meadowside Leisure Centre","properties":{"access":"yes","bicycle_pa":"stands","capacity":12,"covered":"yes","fee":"no","operator":"","nameSource":"landmark"},"sourceId":"osm"},{"id":"osm:node:11684612260","latitude":52.8031493,"longitude":-1.6277285,"name":"Meadowside Drive by Burton Library","properties":{"access":"yes","bicycle_pa":"stands","capacity":6,"covered":"no","fee":"no","operator":"","nameSource":"landmark"},"sourceId":"osm"},{"id":"osm:node:11684612267","latitude":52.8031576,"longitude":-1.6338791,"name":"Union Street cycle parking","properties":{"access":"yes","bicycle_pa":"stands","capacity":24,"covered":"yes","fee":"no","operator":"","nameSource":"street"},"sourceId":"osm"},{"id":"osm:node:11684612268","latitude":52.803733,"longitude":-1.6330782,"name":"Station Street near Wyllie Mews","properties":{"access":"yes","bicycle_pa":"stands","capacity":4,"covered":"no","fee":"no","operator":"","nameSource":"junction"},"sourceId":"osm"},{"id":"osm:node:11684655269","latitude":52.8036454,"longitude":-1.6323015,"name":"Worthington Way near Station Street","properties":{"access":"yes","bicycle_pa":"stands","capacity":2,"covered":"no","fee":"no","operator":"","nameSource":"junction"},"sourceId":"osm"},{"id":"osm:node:11684655270","latitude":52.8045201,"longitude":-1.6305995,"name":"Worthington Way by Nando's","properties":{"access":"yes","bicycle_pa":"stands","capacity":8,"covered":"no","fee":"no","operator":"","nameSource":"landmark"},"sourceId":"osm"},{"id":"osm:node:11684655271","latitude":52.8045524,"longitude":-1.6307047,"name":"Worthington Way by Nando's","properties":{"access":"yes","bicycle_pa":"upright_stands","capacity":10,"covered":"no","fee":"no","operator":"","nameSource":"landmark"},"sourceId":"osm"},{"id":"osm:node:11684655276","latitude":52.8055922,"longitude":-1.6322062,"name":"Guild Street by Tim Hortons","properties":{"access":"yes","bicycle_pa":"stands","capacity":6,"covered":"yes","fee":"no","operator":"","nameSource":"landmark"},"sourceId":"osm"},{"id":"osm:node:11684655277","latitude":52.8057964,"longitude":-1.6314382,"name":"Guild Street by KFC","properties":{"access":"yes","bicycle_pa":"upright_stands","capacity":10,"covered":"no","fee":"no","operator":"","nameSource":"landmark"},"sourceId":"osm"},{"id":"osm:node:11684655278","latitude":52.8061708,"longitude":-1.631293,"name":"Guild Street by KFC","properties":{"access":"yes","bicycle_pa":"upright_stands","capacity":10,"covered":"no","fee":"no","operator":"","nameSource":"landmark"},"sourceId":"osm"},{"id":"osm:node:11684655279","latitude":52.8064499,"longitude":-1.6316982,"name":"Guild Street cycle parking","properties":{"access":"yes","bicycle_pa":"stands","capacity":14,"covered":"no","fee":"no","operator":"","nameSource":"street"},"sourceId":"osm"},{"id":"osm:node:11684655280","latitude":52.8067975,"longitude":-1.6315319,"name":"Guild Street cycle parking","properties":{"access":"yes","bicycle_pa":"stands","capacity":14,"covered":"no","fee":"no","operator":"","nameSource":"street"},"sourceId":"osm"},{"id":"osm:node:11684655281","latitude":52.8068253,"longitude":-1.6315678,"name":"Guild Street cycle parking","properties":{"access":"yes","bicycle_pa":"stands","capacity":4,"covered":"no","fee":"no","operator":"","nameSource":"street"},"sourceId":"osm"},{"id":"osm:node:11684655282","latitude":52.8058909,"longitude":-1.6297228,"name":"Aldi cycle parking","properties":{"access":"yes","bicycle_pa":"stands","capacity":6,"covered":"no","fee":"no","operator":"","nameSource":"landmark"},"sourceId":"osm"},{"id":"osm:node:11684655283","latitude":52.8065582,"longitude":-1.629904,"name":"Horninglow Street by Aldi","properties":{"access":"yes","bicycle_pa":"stands","capacity":8,"covered":"no","fee":"no","operator":"","nameSource":"landmark"},"sourceId":"osm"},{"id":"osm:node:11684655284","latitude":52.8035164,"longitude":-1.6351257,"name":"Union Street cycle parking","properties":{"access":"yes","bicycle_pa":"stands","capacity":10,"covered":"no","fee":"no","operator":"","nameSource":"street"},"sourceId":"osm"},{"id":"osm:node:12616663455","latitude":52.8327201,"longitude":-1.628296,"name":"Station Walk by The Co-operative Food","properties":{"access":"yes","bicycle_pa":"stands","capacity":6,"covered":"yes","fee":"no","operator":"","nameSource":"landmark"},"sourceId":"osm"},{"id":"osm:node:12687082535","latitude":52.8039484,"longitude":-1.6384435,"name":"Cross Street by Cross Street Clinic","properties":{"access":"unknown","bicycle_pa":"stands","capacity":6,"covered":"no","fee":"no","operator":"","nameSource":"landmark"},"sourceId":"osm"}],"schemaVersion":2}
