{"key":"12/2071/1531","points":[{"id":"osm:node:10197580412","latitude":41.3102057,"longitude":2.0265292,"name":"Carrer de la Tecnologia by Mercadona","properties":{"access":"unknown","bicycle_pa":"stands","capacity":10,"covered":"no","fee":"","operator":"","nameSource":"landmark"},"sourceId":"osm"},{"id":"osm:node:10209113588","latitude":41.3094841,"longitude":2.0275464,"name":"Carrer de la Tecnologia near Accés a l'Estació","properties":{"access":"unknown","bicycle_pa":"stands","capacity":10,"covered":"no","fee":"","operator":"","nameSource":"junction"},"sourceId":"osm"},{"id":"osm:node:10212133367","latitude":41.310781,"longitude":2.0276185,"name":"Avinguda d'Olof Palme near Carrer de la Tecnologia","properties":{"access":"unknown","bicycle_pa":"stands","capacity":16,"covered":"no","fee":"","operator":"","nameSource":"junction"},"sourceId":"osm"},{"id":"osm:node:10543026436","latitude":41.3051944,"longitude":2.0815245,"name":"Bicibox","properties":{"access":"customers","bicycle_pa":"lockers","capacity":0,"covered":"","fee":"","operator":"","nameSource":"source"},"sourceId":"osm"},{"id":"osm:node:10823790706","latitude":41.2680907,"longitude":2.030787,"name":"Carrer d'Arenys cycle parking","properties":{"access":"unknown","bicycle_pa":"","capacity":0,"covered":"","fee":"","operator":"","nameSource":"street"},"sourceId":"osm"},{"id":"osm:node:10823794405","latitude":41.2677529,"longitude":2.0291556,"name":"Carrer de Cadaqués near Carrer dels Tellinaires","properties":{"access":"unknown","bicycle_pa":"","capacity":0,"covered":"","fee":"","operator":"","nameSource":"junction"},"sourceId":"osm"},{"id":"osm:node:10841676306","latitude":41.2712605,"longitude":2.0476268,"name":"els Censats cycle parking","properties":{"access":"unknown","bicycle_pa":"","capacity":0,"covered":"","fee":"","operator":"","nameSource":"place"},"sourceId":"osm"},{"id":"osm:node:10841697205","latitude":41.2702895,"longitude":2.0424486,"name":"Carrer de Llançà cycle parking","properties":{"access":"unknown","bicycle_pa":"","capacity":0,"covered":"","fee":"","operator":"","nameSource":"street"},"sourceId":"osm"},{"id":"osm:node:10844113475","latitude":41.2868369,"longitude":2.1041396,"name":"Accés 22 near Passeig de la Platja","properties":{"access":"unknown","bicycle_pa":"","capacity":0,"covered":"","fee":"","operator":"","nameSource":"junction"},"sourceId":"osm"},{"id":"osm:node:10844113479","latitude":41.287184,"longitude":2.1053086,"name":"Accés 23 near Passeig de la Platja","properties":{"access":"unknown","bicycle_pa":"","capacity":0,"covered":"","fee":"","operator":"","nameSource":"junction"},"sourceId":"osm"},{"id":"osm:node:10847072191","latitude":41.2795789,"longitude":2.0821356,"name":"Accés 1 cycle parking","properties":{"access":"unknown","bicycle_pa":"","capacity":0,"covered":"","fee":"","operator":"","nameSource":"street"},"sourceId":"osm"},{"id":"osm:node:10847091495","latitude":41.2717575,"longitude":2.05083,"name":"els Censats cycle parking","properties":{"access":"unknown","bicycle_pa":"","capacity":0,"covered":"","fee":"","operator":"","nameSource":"place"},"sourceId":"osm"},{"id":"osm:node:10847130233","latitude":41.27154,"longitude":2.0496641,"name":"els Censats cycle parking","properties":{"access":"unknown","bicycle_pa":"","capacity":0,"covered":"","fee":"","operator":"","nameSource":"place"},"sourceId":"osm"},{"id":"osm:node:11811191398","latitude":41.3096406,"longitude":2.027382,"name":"Accés a l'Estació near Carrer de la Tecnologia","properties":{"access":"unknown","bicycle_pa":"stands","capacity":17,"covered":"no","fee":"","operator":"","nameSource":"junction"},"sourceId":"osm"},{"id":"osm:node:2367794667","latitude":41.2784373,"longitude":2.0632791,"name":"Carretera de la Vidala cycle parking","properties":{"access":"unknown","bicycle_pa":"wall_hoops","capacity":6,"covered":"no","fee":"","operator":"","nameSource":"street"},"sourceId":"osm"},{"id":"osm:node:2977591280","latitude":41.2984463,"longitude":2.102168,"name":"Camí del Salí cycle parking","properties":{"access":"yes","bicycle_pa":"stands","capacity":12,"covered":"no","fee":"no","operator":"","nameSource":"street"},"sourceId":"osm"},{"id":"osm:node:4586429690","latitude":41.292273,"longitude":2.055354,"name":"Carrer de la Via Làctia cycle parking","properties":{"access":"unknown","bicycle_pa":"","capacity":0,"covered":"","fee":"","operator":"parcare aeroportul barcelona","nameSource":"street"},"sourceId":"osm"},{"id":"osm:node:4807908749","latitude":41.2852072,"longitude":2.1000421,"name":"Accés 18 near Passeig de la Platja","properties":{"access":"yes","bicycle_pa":"stands","capacity":4,"covered":"","fee":"no","operator":"Ajuntament El Prat del Llobregat","nameSource":"junction"},"sourceId":"osm"},{"id":"osm:node:4807923421","latitude":41.285709,"longitude":2.1010151,"name":"Accés 19 near Passeig de la Platja","properties":{"access":"yes","bicycle_pa":"stands","capacity":2,"covered":"","fee":"no","operator":"Ajuntament El Prat del Llobregat","nameSource":"junction"},"sourceId":"osm"},{"id":"osm:node:4807923423","latitude":41.2857165,"longitude":2.101045,"name":"Accés 19 near Passeig de la Platja","properties":{"access":"yes","bicycle_pa":"stands","capacity":2,"covered":"","fee":"no","operator":"Ajuntament El Prat del Llobregat","nameSource":"junction"},"sourceId":"osm"},{"id":"osm:node:4807981305","latitude":41.3036811,"longitude":2.1067974,"name":"Camí del Salí cycle parking","properties":{"access":"yes","bicycle_pa":"stands","capacity":12,"covered":"no","fee":"no","operator":"","nameSource":"street"},"sourceId":"osm"},{"id":"osm:node:4813670240","latitude":41.280042,"longitude":2.0820187,"name":"Accés 1 cycle parking","properties":{"access":"yes","bicycle_pa":"stands","capacity":5,"covered":"","fee":"no","operator":"","nameSource":"street"},"sourceId":"osm"},{"id":"osm:node:4814492327","latitude":41.2807735,"longitude":2.0841618,"name":"Passeig de la Platja cycle parking","properties":{"access":"yes","bicycle_pa":"stands","capacity":18,"covered":"","fee":"no","operator":"","nameSource":"street"},"sourceId":"osm"},{"id":"osm:node:4816468192","latitude":41.2865144,"longitude":2.1025492,"name":"080 Platja","properties":{"access":"customers","bicycle_pa":"lockers","capacity":14,"covered":"","fee":"no","operator":"Movement","nameSource":"source"},"sourceId":"osm"},{"id":"osm:node:5264634271","latitude":41.3088649,"longitude":2.0862934,"name":"218 Terminal Cooperativa","properties":{"access":"customers","bicycle_pa":"lockers","capacity":14,"covered":"","fee":"yes","operator":"Movement","nameSource":"source"},"sourceId":"osm"},{"id":"osm:node:5264634272","latitude":41.3047353,"longitude":2.0818883,"name":"217 Terminal T2 C","properties":{"access":"customers","bicycle_pa":"lockers","capacity":7,"covered":"","fee":"yes","operator":"Movement","nameSource":"source"},"sourceId":"osm"},{"id":"osm:node:5264637850","latitude":41.3096028,"longitude":2.0275999,"name":"092 Estació RENFE 2","properties":{"access":"customers","bicycle_pa":"lockers","capacity":7,"covered":"","fee":"yes","operator":"Movement","nameSource":"source"},"sourceId":"osm"},{"id":"osm:node:5264637851","latitude":41.3095813,"longitude":2.027533,"name":"091 Estació RENFE 1","properties":{"access":"customers","bicycle_pa":"lockers","capacity":6,"covered":"","fee":"yes","operator":"Movement","nameSource":"source"},"sourceId":"osm"},{"id":"osm:node:5264637852","latitude":41.3095571,"longitude":2.0274579,"name":"090 Estació RENFE 3","properties":{"access":"customers","bicycle_pa":"lockers","capacity":7,"covered":"","fee":"yes","operator":"Movement","nameSource":"source"},"sourceId":"osm"},{"id":"osm:node:5293813506","latitude":41.2802251,"longitude":2.0819123,"name":"Accés 1 cycle parking","properties":{"access":"yes","bicycle_pa":"stands","capacity":2,"covered":"","fee":"no","operator":"","nameSource":"street"},"sourceId":"osm"},{"id":"osm:node:5293813507","latitude":41.2802218,"longitude":2.0819872,"name":"Accés 1 cycle parking","properties":{"access":"yes","bicycle_pa":"stands","capacity":2,"covered":"","fee":"no","operator":"","nameSource":"street"},"sourceId":"osm"},{"id":"osm:node:5293838520","latitude":41.2814289,"longitude":2.0849071,"name":"Accés 4 near Passeig de la Platja","properties":{"access":"yes","bicycle_pa":"stands","capacity":2,"covered":"","fee":"no","operator":"","nameSource":"junction"},"sourceId":"osm"},{"id":"osm:node:5359195226","latitude":41.2834056,"longitude":2.0942822,"name":"Accés 13 near Passeig de la Platja","properties":{"access":"yes","bicycle_pa":"stands","capacity":8,"covered":"","fee":"no","operator":"","nameSource":"junction"},"sourceId":"osm"},{"id":"osm:node:5359195228","latitude":41.2836965,"longitude":2.0941591,"name":"Accés 13 near Passeig de la Platja","properties":{"access":"yes","bicycle_pa":"stands","capacity":4,"covered":"","fee":"no","operator":"","nameSource":"junction"},"sourceId":"osm"},{"id":"osm:node:5359195229","latitude":41.2837051,"longitude":2.0941982,"name":"Accés 13 near Passeig de la Platja","properties":{"access":"yes","bicycle_pa":"stands","capacity":4,"covered":"","fee":"no","operator":"","nameSource":"junction"},"sourceId":"osm"},{"id":"osm:node:5370601657","latitude":41.2885787,"longitude":2.1038515,"name":"Carretera de la Platja by Bike tools","properties":{"access":"yes","bicycle_pa":"stands","capacity":6,"covered":"no","fee":"no","operator":"","nameSource":"landmark"},"sourceId":"osm"},{"id":"osm:node:5370628266","latitude":41.2959131,"longitude":2.1023057,"name":"Camí del Salí cycle parking","properties":{"access":"yes","bicycle_pa":"stands","capacity":6,"covered":"no","fee":"no","operator":"","nameSource":"street"},"sourceId":"osm"},{"id":"osm:node:5370644911","latitude":41.3013902,"longitude":2.1050599,"name":"Camí del Salí cycle parking","properties":{"access":"yes","bicycle_pa":"stands","capacity":12,"covered":"no","fee":"no","operator":"","nameSource":"street"},"sourceId":"osm"},{"id":"osm:node:5370652364","latitude":41.3045647,"longitude":2.1076016,"name":"Camí del Salí near Camí de la Ricarda","properties":{"access":"yes","bicycle_pa":"stands","capacity":6,"covered":"no","fee":"no","operator":"","nameSource":"junction"},"sourceId":"osm"},{"id":"osm:node:5371569225","latitude":41.2859342,"longitude":2.1019961,"name":"Accés 20 near Passeig de la Platja","properties":{"access":"yes","bicycle_pa":"stands","capacity":8,"covered":"","fee":"no","operator":"","nameSource":"junction"},"sourceId":"osm"},{"id":"osm:node:5371569226","latitude":41.2848968,"longitude":2.099021,"name":"Accés 17 near Passeig de la Platja","properties":{"access":"yes","bicycle_pa":"stands","capacity":8,"covered":"","fee":"no","operator":"","nameSource":"junction"},"sourceId":"osm"},{"id":"osm:node:5371569227","latitude":41.2846177,"longitude":2.098078,"name":"Accés 16 near Passeig de la Platja","properties":{"access":"yes","bicycle_pa":"stands","capacity":8,"covered":"","fee":"no","operator":"","nameSource":"junction"},"sourceId":"osm"},{"id":"osm:node:5371569228","latitude":41.284315,"longitude":2.0971683,"name":"Accés 15 near Passeig de la Platja","properties":{"access":"yes","bicycle_pa":"stands","capacity":8,"covered":"","fee":"no","operator":"","nameSource":"junction"},"sourceId":"osm"},{"id":"osm:node:5371569229","latitude":41.283881,"longitude":2.0958254,"name":"Accés 14 near Passeig de la Platja","properties":{"access":"yes","bicycle_pa":"stands","capacity":8,"covered":"","fee":"no","operator":"","nameSource":"junction"},"sourceId":"osm"},{"id":"osm:node:7637916100","latitude":41.2684145,"longitude":2.0329159,"name":"Carrer de Premià cycle parking","properties":{"access":"unknown","bicycle_pa":"wall_loops","capacity":0,"covered":"","fee":"","operator":"","nameSource":"street"},"sourceId":"osm"},{"id":"osm:node:8844495119","latitude":41.2710907,"longitude":2.046904,"name":"els Censats cycle parking","properties":{"access":"unknown","bicycle_pa":"stands","capacity":0,"covered":"no","fee":"","operator":"","nameSource":"place"},"sourceId":"osm"},{"id":"osm:node:8844495120","latitude":41.2728304,"longitude":2.0561358,"name":"les Filipines Noves cycle parking","properties":{"access":"unknown","bicycle_pa":"","capacity":0,"covered":"","fee":"","operator":"","nameSource":"place"},"sourceId":"osm"},{"id":"osm:relation:9720689","latitude":41.288159025,"longitude":2.10530665,"name":"Passeig de la Platja cycle parking","properties":{"access":"unknown","bicycle_pa":"anchors","capacity":16,"covered":"","fee":"","operator":"Ajuntament de El Prat de Llobregat","nameSource":"street"},"sourceId":"osm"},{"id":"osm:way:840249686","latitude":41.28767656666667,"longitude":2.0701884333333336,"name":"T1 Aparcament Sortides i Arribades cycle parking","properties":{"access":"yes","bicycle_pa":"stands","capacity":20,"covered":"no","fee":"no","operator":"","nameSource":"street"},"sourceId":"osm"},{"id":"osm:way:840252750","latitude":41.28835814,"longitude":2.06968486,"name":"150 -Terminal T1","properties":{"access":"customers","bicycle_pa":"lockers","capacity":7,"covered":"","fee":"yes","operator":"Movement","nameSource":"source"},"sourceId":"osm"}],"schemaVersion":2}
