{"key":"12/1987/1384","points":[{"id":"osm:node:11748234231","latitude":50.2611665,"longitude":-5.2883729,"name":"Tregea Hill near Tregea Terrace","properties":{"access":"unknown","bicycle_pa":"stands","capacity":6,"covered":"no","fee":"","operator":"","nameSource":"junction"},"sourceId":"osm"},{"id":"osm:node:12136629433","latitude":50.2604608,"longitude":-5.2891213,"name":"Tregea Terrace near Glenfeadon Terrace","properties":{"access":"unknown","bicycle_pa":"","capacity":0,"covered":"","fee":"","operator":"","nameSource":"junction"},"sourceId":"osm"},{"id":"osm:node:6700593602","latitude":50.2611,"longitude":-5.29316,"name":"Tregea Terrace by Portreath Ice Cream Kiosk","properties":{"access":"unknown","bicycle_pa":"","capacity":0,"covered":"","fee":"","operator":"","nameSource":"landmark"},"sourceId":"osm"},{"id":"osm:node:6700598000","latitude":50.2610558,"longitude":-5.293091,"name":"Tregea Terrace by Portreath Ice Cream Kiosk","properties":{"access":"unknown","bicycle_pa":"","capacity":0,"covered":"","fee":"","operator":"","nameSource":"landmark"},"sourceId":"osm"},{"id":"osm:way:860424495","latitude":50.23349412,"longitude":-5.28290614,"name":"Quartz Close near Elvan Place","properties":{"access":"yes","bicycle_pa":"stands","capacity":16,"covered":"yes","fee":"no","operator":"","nameSource":"junction"},"sourceId":"osm"},{"id":"osm:way:860424517","latitude":50.23339588,"longitude":-5.28192884,"name":"Fieldspar Lane near Elvan Place","properties":{"access":"yes","bicycle_pa":"stands","capacity":10,"covered":"yes","fee":"no","operator":"","nameSource":"junction"},"sourceId":"osm"}],"schemaVersion":2}
