{"key":"12/1980/1589","points":[{"id":"osm:node:11895761637","latitude":37.3465254,"longitude":-5.9365506,"name":"Avenida San José de Calasanz by Condequinto","properties":{"access":"customers","bicycle_pa":"lockers","capacity":40,"covered":"","fee":"","operator":"","nameSource":"landmark"},"sourceId":"osm"},{"id":"osm:node:12718416279","latitude":37.3565756,"longitude":-5.9427516,"name":"Calle Miguel de Múzquiz (UPO) cycle parking","properties":{"access":"unknown","bicycle_pa":"","capacity":0,"covered":"","fee":"","operator":"","nameSource":"street"},"sourceId":"osm"},{"id":"osm:node:12718416280","latitude":37.3598484,"longitude":-5.9366202,"name":"Calle Miguel de Múzquiz (UPO) cycle parking","properties":{"access":"unknown","bicycle_pa":"","capacity":0,"covered":"","fee":"","operator":"","nameSource":"street"},"sourceId":"osm"},{"id":"osm:node:12718416281","latitude":37.3594364,"longitude":-5.9364189,"name":"Calle Miguel de Múzquiz (UPO) cycle parking","properties":{"access":"unknown","bicycle_pa":"","capacity":0,"covered":"","fee":"","operator":"","nameSource":"street"},"sourceId":"osm"},{"id":"osm:node:12718416282","latitude":37.3588451,"longitude":-5.9366974,"name":"Calle Miguel de Múzquiz (UPO) cycle parking","properties":{"access":"unknown","bicycle_pa":"","capacity":0,"covered":"","fee":"","operator":"","nameSource":"street"},"sourceId":"osm"},{"id":"osm:node:12718416283","latitude":37.3586211,"longitude":-5.9363815,"name":"Calle Dionisio Alcalá Galiano cycle parking","properties":{"access":"unknown","bicycle_pa":"","capacity":0,"covered":"","fee":"","operator":"","nameSource":"street"},"sourceId":"osm"},{"id":"osm:node:12718416284","latitude":37.3582262,"longitude":-5.93641,"name":"Calle Dionisio Alcalá Galiano near Rotonda Dos Hermanas","properties":{"access":"unknown","bicycle_pa":"","capacity":0,"covered":"","fee":"","operator":"","nameSource":"junction"},"sourceId":"osm"},{"id":"osm:node:12718416285","latitude":37.358285,"longitude":-5.9358122,"name":"Calle Dionisio Alcalá Galiano cycle parking","properties":{"access":"unknown","bicycle_pa":"","capacity":0,"covered":"","fee":"","operator":"","nameSource":"street"},"sourceId":"osm"},{"id":"osm:node:12718416286","latitude":37.357898,"longitude":-5.9359855,"name":"Calle Dionisio Alcalá Galiano by Biblioteca UPO","properties":{"access":"unknown","bicycle_pa":"","capacity":0,"covered":"","fee":"","operator":"","nameSource":"landmark"},"sourceId":"osm"},{"id":"osm:node:12718416287","latitude":37.3578964,"longitude":-5.9373404,"name":"Rotonda Dos Hermanas near Calle Dionisio Alcalá Galiano","properties":{"access":"unknown","bicycle_pa":"","capacity":0,"covered":"","fee":"","operator":"","nameSource":"junction"},"sourceId":"osm"},{"id":"osm:node:12718416288","latitude":37.3562294,"longitude":-5.9355753,"name":"Calle Lorenzo Rodríguez (UPO) cycle parking","properties":{"access":"unknown","bicycle_pa":"","capacity":0,"covered":"","fee":"","operator":"","nameSource":"street"},"sourceId":"osm"},{"id":"osm:node:12718416289","latitude":37.3561303,"longitude":-5.9361935,"name":"Calle Lorenzo Rodríguez (UPO) cycle parking","properties":{"access":"unknown","bicycle_pa":"","capacity":0,"covered":"","fee":"","operator":"","nameSource":"street"},"sourceId":"osm"},{"id":"osm:node:12718416290","latitude":37.3542114,"longitude":-5.935513,"name":"Calle Lorenzo Rodríguez (UPO) cycle parking","properties":{"access":"unknown","bicycle_pa":"","capacity":0,"covered":"","fee":"","operator":"","nameSource":"street"},"sourceId":"osm"},{"id":"osm:node:12718416291","latitude":37.3529421,"longitude":-5.9364512,"name":"Edificio 41. Polideportivo Cubierto cycle parking","properties":{"access":"unknown","bicycle_pa":"","capacity":0,"covered":"","fee":"","operator":"","nameSource":"landmark"},"sourceId":"osm"},{"id":"osm:node:12718416295","latitude":37.3540071,"longitude":-5.9421675,"name":"Avenida de Sevilla (UPO) cycle parking","properties":{"access":"unknown","bicycle_pa":"","capacity":0,"covered":"","fee":"","operator":"","nameSource":"street"},"sourceId":"osm"},{"id":"osm:node:12718416296","latitude":37.354463,"longitude":-5.9397183,"name":"Calle Juan de Villanueva (UPO) by Edificio 37. Pabellón Multiusos Semidescubierto","properties":{"access":"unknown","bicycle_pa":"","capacity":0,"covered":"","fee":"","operator":"","nameSource":"landmark"},"sourceId":"osm"},{"id":"osm:node:12718416297","latitude":37.3552221,"longitude":-5.9399443,"name":"Calle Juan de Villanueva (UPO) by Edificio 38. Edificio Multiusos Cubierto \"Rabat\"","properties":{"access":"unknown","bicycle_pa":"","capacity":0,"covered":"","fee":"","operator":"","nameSource":"landmark"},"sourceId":"osm"},{"id":"osm:node:12718416298","latitude":37.3570516,"longitude":-5.9395252,"name":"Plaza de Andalucía (UPO) cycle parking","properties":{"access":"unknown","bicycle_pa":"","capacity":0,"covered":"","fee":"","operator":"","nameSource":"street"},"sourceId":"osm"},{"id":"osm:node:12718416314","latitude":37.3572286,"longitude":-5.9392794,"name":"Plaza de Andalucía (UPO) cycle parking","properties":{"access":"unknown","bicycle_pa":"","capacity":0,"covered":"","fee":"","operator":"","nameSource":"street"},"sourceId":"osm"},{"id":"osm:node:12719959513","latitude":37.3542367,"longitude":-5.9368656,"name":"Plaza de América (UPO) cycle parking","properties":{"access":"unknown","bicycle_pa":"","capacity":0,"covered":"","fee":"","operator":"","nameSource":"street"},"sourceId":"osm"},{"id":"osm:node:12719959514","latitude":37.354694,"longitude":-5.9365363,"name":"Plaza de América (UPO) cycle parking","properties":{"access":"unknown","bicycle_pa":"","capacity":0,"covered":"","fee":"","operator":"","nameSource":"street"},"sourceId":"osm"},{"id":"osm:node:12719959515","latitude":37.3548426,"longitude":-5.9382336,"name":"Plaza de América (UPO) cycle parking","properties":{"access":"unknown","bicycle_pa":"","capacity":0,"covered":"","fee":"","operator":"","nameSource":"street"},"sourceId":"osm"},{"id":"osm:node:12719959516","latitude":37.3541261,"longitude":-5.9392178,"name":"Rotonda Pablo de Olavide (UPO) near Avenida de Sevilla (UPO)","properties":{"access":"unknown","bicycle_pa":"","capacity":0,"covered":"","fee":"","operator":"","nameSource":"junction"},"sourceId":"osm"},{"id":"osm:node:12719959517","latitude":37.3561272,"longitude":-5.9377214,"name":"Calle Lorenzo Rodríguez (UPO) cycle parking","properties":{"access":"unknown","bicycle_pa":"","capacity":0,"covered":"","fee":"","operator":"","nameSource":"street"},"sourceId":"osm"},{"id":"osm:node:12719959518","latitude":37.3555601,"longitude":-5.9388394,"name":"Calle Juan de Villanueva (UPO) cycle parking","properties":{"access":"unknown","bicycle_pa":"","capacity":0,"covered":"","fee":"","operator":"","nameSource":"street"},"sourceId":"osm"},{"id":"osm:node:12719959519","latitude":37.3562516,"longitude":-5.9394106,"name":"Calle Juan de Villanueva (UPO) cycle parking","properties":{"access":"unknown","bicycle_pa":"","capacity":0,"covered":"","fee":"","operator":"","nameSource":"street"},"sourceId":"osm"},{"id":"osm:node:12719959520","latitude":37.3556195,"longitude":-5.9380875,"name":"Condequinto cycle parking","properties":{"access":"unknown","bicycle_pa":"","capacity":0,"covered":"","fee":"","operator":"","nameSource":"place"},"sourceId":"osm"},{"id":"osm:node:13189192235","latitude":37.3287896,"longitude":-5.9683299,"name":"Avenida de Bellavista near Calle Jardines de la Alhambra","properties":{"access":"unknown","bicycle_pa":"","capacity":0,"covered":"","fee":"","operator":"","nameSource":"junction"},"sourceId":"osm"},{"id":"osm:node:13195367501","latitude":37.3085563,"longitude":-5.9414477,"name":"Calle Francisco Morales Zurita by Campus 34","properties":{"access":"yes","bicycle_pa":"stands","capacity":0,"covered":"no","fee":"","operator":"","nameSource":"landmark"},"sourceId":"osm"},{"id":"osm:node:13195367502","latitude":37.3085627,"longitude":-5.9414365,"name":"Calle Francisco Morales Zurita by Campus 34","properties":{"access":"yes","bicycle_pa":"stands","capacity":0,"covered":"no","fee":"","operator":"","nameSource":"landmark"},"sourceId":"osm"},{"id":"osm:node:13195367701","latitude":37.3072412,"longitude":-5.9425448,"name":"Calle Francisco Morales Zurita cycle parking","properties":{"access":"unknown","bicycle_pa":"wall_loops","capacity":0,"covered":"yes","fee":"","operator":"Universidad Loyola","nameSource":"street"},"sourceId":"osm"},{"id":"osm:node:13195367901","latitude":37.3072457,"longitude":-5.9425805,"name":"Calle Francisco Morales Zurita cycle parking","properties":{"access":"unknown","bicycle_pa":"wall_loops","capacity":0,"covered":"yes","fee":"","operator":"Universidad Loyola","nameSource":"street"},"sourceId":"osm"},{"id":"osm:node:3619687102","latitude":37.3465716,"longitude":-5.9764965,"name":"Avenida del Reino Unido near Avenida de Alemania","properties":{"access":"unknown","bicycle_pa":"","capacity":0,"covered":"","fee":"","operator":"","nameSource":"junction"},"sourceId":"osm"},{"id":"osm:node:3619694259","latitude":37.322895,"longitude":-5.9682557,"name":"Avenida de Bellavista near Calle Agujas","properties":{"access":"unknown","bicycle_pa":"stands","capacity":0,"covered":"no","fee":"","operator":"","nameSource":"junction"},"sourceId":"osm"},{"id":"osm:node:3619694261","latitude":37.3346448,"longitude":-5.9717809,"name":"Calle Camino del Silo by Instituto de Educación Secundaria Federico Mayor Zaragoza","properties":{"access":"unknown","bicycle_pa":"","capacity":0,"covered":"","fee":"","operator":"","nameSource":"landmark"},"sourceId":"osm"},{"id":"osm:node:3627422495","latitude":37.3696038,"longitude":-5.9619682,"name":"Calle Mi cine near Calle Salvador Távora","properties":{"access":"unknown","bicycle_pa":"","capacity":0,"covered":"","fee":"","operator":"","nameSource":"junction"},"sourceId":"osm"},{"id":"osm:node:3685582537","latitude":37.369639,"longitude":-5.9743188,"name":"Calle Estepa near Calle Lora del Río","properties":{"access":"unknown","bicycle_pa":"","capacity":0,"covered":"","fee":"","operator":"","nameSource":"junction"},"sourceId":"osm"},{"id":"osm:node:3685588514","latitude":37.3661245,"longitude":-5.9765169,"name":"Calle Alfonso Lasso de Vega by Restaurante Chino Perla Oriental","properties":{"access":"unknown","bicycle_pa":"","capacity":0,"covered":"","fee":"","operator":"","nameSource":"landmark"},"sourceId":"osm"},{"id":"osm:node:3689576020","latitude":37.3624315,"longitude":-5.9573228,"name":"Carretera Su Eminencia by Mercadona","properties":{"access":"unknown","bicycle_pa":"","capacity":0,"covered":"","fee":"","operator":"","nameSource":"landmark"},"sourceId":"osm"},{"id":"osm:node:427041268","latitude":37.3700555,"longitude":-5.9747348,"name":"Plaza Alcalde Horacio Hermoso Araujo near Calle Nuestro Padre Jesus Cautivo","properties":{"access":"unknown","bicycle_pa":"","capacity":0,"covered":"","fee":"","operator":"","nameSource":"junction"},"sourceId":"osm"},{"id":"osm:node:4376945689","latitude":37.3593581,"longitude":-5.938207,"name":"Calle Miguel de Múzquiz (UPO) by CABD","properties":{"access":"unknown","bicycle_pa":"","capacity":0,"covered":"","fee":"","operator":"","nameSource":"landmark"},"sourceId":"osm"},{"id":"osm:node:4553061503","latitude":37.3615688,"longitude":-5.9610632,"name":"Calle Dolores Ibarruri Pasionaria near Calle Estrella de la Mañana","properties":{"access":"unknown","bicycle_pa":"","capacity":0,"covered":"","fee":"","operator":"","nameSource":"junction"},"sourceId":"osm"},{"id":"osm:node:4553062661","latitude":37.3696042,"longitude":-5.9586509,"name":"Avenida de Hytasa near Calle Cristo del Desamparo y Abandono","properties":{"access":"unknown","bicycle_pa":"stands","capacity":8,"covered":"","fee":"","operator":"","nameSource":"junction"},"sourceId":"osm"},{"id":"osm:node:4553073829","latitude":37.3256183,"longitude":-5.9651442,"name":"Avenida de Jerez near Calle Asensio y Toledo","properties":{"access":"unknown","bicycle_pa":"","capacity":0,"covered":"","fee":"","operator":"","nameSource":"junction"},"sourceId":"osm"},{"id":"osm:node:4553075234","latitude":37.3220238,"longitude":-5.9643875,"name":"Calle Alonso Mingo near Avenida de Jerez","properties":{"access":"unknown","bicycle_pa":"","capacity":0,"covered":"","fee":"","operator":"","nameSource":"junction"},"sourceId":"osm"}],"schemaVersion":2}
