{"key":"12/1980/1590","points":[{"id":"osm:node:13082279301","latitude":37.2843895,"longitude":-5.9370294,"name":"Avenida de España cycle parking","properties":{"access":"unknown","bicycle_pa":"","capacity":0,"covered":"no","fee":"","operator":"","nameSource":"street"},"sourceId":"osm"},{"id":"osm:node:13082378701","latitude":37.2862059,"longitude":-5.9378523,"name":"Avenida Ingeniero José Luis Prats by MYA SUSHI RESTAURANT","properties":{"access":"unknown","bicycle_pa":"stands","capacity":0,"covered":"no","fee":"","operator":"","nameSource":"landmark"},"sourceId":"osm"},{"id":"osm:node:13114082301","latitude":37.2834253,"longitude":-5.9283963,"name":"Calle Virgen Macarena by Lidl","properties":{"access":"yes","bicycle_pa":"stands","capacity":0,"covered":"no","fee":"","operator":"","nameSource":"landmark"},"sourceId":"osm"},{"id":"osm:node:13165766701","latitude":37.2833986,"longitude":-5.9220828,"name":"Plaza de la Constitución near Calle Santa María Magdalena","properties":{"access":"yes","bicycle_pa":"stands","capacity":10,"covered":"no","fee":"","operator":"","nameSource":"junction"},"sourceId":"osm"},{"id":"osm:node:13173159703","latitude":37.2827936,"longitude":-5.9209307,"name":"Calle Real Utrera near Calle Purísima Concepción","properties":{"access":"private","bicycle_pa":"stands","capacity":0,"covered":"no","fee":"","operator":"","nameSource":"junction"},"sourceId":"osm"},{"id":"osm:node:13192391501","latitude":37.2874615,"longitude":-5.938988,"name":"Avenida Hermanos Rus Velázquez cycle parking","properties":{"access":"unknown","bicycle_pa":"","capacity":0,"covered":"","fee":"","operator":"","nameSource":"street"},"sourceId":"osm"},{"id":"osm:node:13236843601","latitude":37.2852181,"longitude":-5.9224238,"name":"Plaza Huerta Palacios near Pasarela Puente Cristo de la Presentación","properties":{"access":"unknown","bicycle_pa":"","capacity":0,"covered":"","fee":"","operator":"","nameSource":"junction"},"sourceId":"osm"},{"id":"osm:node:13236843701","latitude":37.2851617,"longitude":-5.9223751,"name":"Plaza Huerta Palacios near Pasarela Puente Cristo de la Presentación","properties":{"access":"unknown","bicycle_pa":"","capacity":0,"covered":"","fee":"","operator":"","nameSource":"junction"},"sourceId":"osm"},{"id":"osm:node:13283606501","latitude":37.288399,"longitude":-5.9412242,"name":"Avenida Ingeniero José Luis Prats by Charanga","properties":{"access":"unknown","bicycle_pa":"","capacity":0,"covered":"","fee":"","operator":"","nameSource":"landmark"},"sourceId":"osm"},{"id":"osm:node:4097491136","latitude":37.2871241,"longitude":-5.9237817,"name":"Plaza El Arenal near Calle Valencia","properties":{"access":"unknown","bicycle_pa":"sheff","capacity":5,"covered":"yes","fee":"","operator":"","nameSource":"junction"},"sourceId":"osm"},{"id":"osm:node:4097491137","latitude":37.2830566,"longitude":-5.9241143,"name":"Calle Santa María Magdalena near Calle Melliza","properties":{"access":"unknown","bicycle_pa":"sheff","capacity":5,"covered":"no","fee":"","operator":"","nameSource":"junction"},"sourceId":"osm"}],"schemaVersion":2}
