{"key":"12/2030/1293","points":[{"id":"osm:node:10753245444","latitude":55.1089146,"longitude":-1.5014798,"name":"Links Road by South Beachcar Sales","properties":{"access":"unknown","bicycle_pa":"stands","capacity":10,"covered":"","fee":"","operator":"","nameSource":"landmark"},"sourceId":"osm"},{"id":"osm:node:11465581622","latitude":55.1277257,"longitude":-1.5555121,"name":"A193 cycle parking","properties":{"access":"unknown","bicycle_pa":"stands","capacity":8,"covered":"yes","fee":"","operator":"","nameSource":"street"},"sourceId":"osm"},{"id":"osm:node:11804828800","latitude":55.1253695,"longitude":-1.5633401,"name":"Front Street cycle parking","properties":{"access":"unknown","bicycle_pa":"stands","capacity":3,"covered":"","fee":"","operator":"","nameSource":"street"},"sourceId":"osm"},{"id":"osm:node:12670807054","latitude":55.1028124,"longitude":-1.5236882,"name":"Drop-Off by Newsham","properties":{"access":"unknown","bicycle_pa":"two-tier","capacity":24,"covered":"yes","fee":"","operator":"","nameSource":"landmark"},"sourceId":"osm"},{"id":"osm:node:13244693038","latitude":55.1248473,"longitude":-1.5567622,"name":"Drop-Off by Blyth Bebside","properties":{"access":"yes","bicycle_pa":"two-tier","capacity":20,"covered":"yes","fee":"no","operator":"","nameSource":"landmark"},"sourceId":"osm"},{"id":"osm:node:13244693041","latitude":55.1246132,"longitude":-1.5571453,"name":"Drop-Off cycle parking","properties":{"access":"yes","bicycle_pa":"two-tier","capacity":20,"covered":"yes","fee":"no","operator":"","nameSource":"street"},"sourceId":"osm"},{"id":"osm:node:13251801731","latitude":55.1269233,"longitude":-1.5098681,"name":"Waterloo Road near Bridge Street","properties":{"access":"unknown","bicycle_pa":"stands","capacity":8,"covered":"","fee":"","operator":"","nameSource":"junction"},"sourceId":"osm"},{"id":"osm:node:4321206376","latitude":55.1270979,"longitude":-1.5092418,"name":"Regent Street near Bridge Street","properties":{"access":"unknown","bicycle_pa":"stands","capacity":14,"covered":"no","fee":"","operator":"","nameSource":"junction"},"sourceId":"osm"},{"id":"osm:node:6150114220","latitude":55.1271284,"longitude":-1.5072976,"name":"Beaconsfield Street near Bridge Street","properties":{"access":"unknown","bicycle_pa":"stands","capacity":8,"covered":"no","fee":"","operator":"","nameSource":"junction"},"sourceId":"osm"},{"id":"osm:node:7371964409","latitude":55.1279337,"longitude":-1.5118405,"name":"Church Street near Delaval Terrace","properties":{"access":"unknown","bicycle_pa":"stands","capacity":12,"covered":"no","fee":"","operator":"","nameSource":"junction"},"sourceId":"osm"},{"id":"osm:node:9851401441","latitude":55.1096079,"longitude":-1.4995734,"name":"Links Road by Dave Stephens Centre","properties":{"access":"unknown","bicycle_pa":"stands","capacity":8,"covered":"","fee":"","operator":"","nameSource":"landmark"},"sourceId":"osm"},{"id":"osm:way:859897052","latitude":55.124545366666666,"longitude":-1.5482143833333335,"name":"Humford Green cycle parking","properties":{"access":"permissive","bicycle_pa":"","capacity":0,"covered":"","fee":"","operator":"","nameSource":"street"},"sourceId":"osm"},{"id":"osm:way:860660565","latitude":55.12649742,"longitude":-1.5008821399999999,"name":"Bath Terrace cycle parking","properties":{"access":"customers","bicycle_pa":"stands","capacity":6,"covered":"no","fee":"","operator":"The Commissioners Quay Hotel","nameSource":"street"},"sourceId":"osm"},{"id":"osm:way:860660569","latitude":55.126669671428566,"longitude":-1.5005953,"name":"Wellington Street East cycle parking","properties":{"access":"unknown","bicycle_pa":"","capacity":0,"covered":"","fee":"","operator":"","nameSource":"street"},"sourceId":"osm"}],"schemaVersion":2}
