{"key":"12/2030/1297","points":[{"id":"osm:node:11046658145","latitude":54.8991091,"longitude":-1.531732,"name":"Independence Square by Washington Library","properties":{"access":"unknown","bicycle_pa":"","capacity":0,"covered":"","fee":"","operator":"","nameSource":"landmark"},"sourceId":"osm"},{"id":"osm:node:13981104036","latitude":54.903183,"longitude":-1.5297664,"name":"Parkway by Matalan","properties":{"access":"unknown","bicycle_pa":"","capacity":0,"covered":"","fee":"","operator":"","nameSource":"landmark"},"sourceId":"osm"},{"id":"osm:node:4019990576","latitude":54.8958787,"longitude":-1.5775477,"name":"Beaconsfield Terrace near Durham Road","properties":{"access":"unknown","bicycle_pa":"stands","capacity":4,"covered":"no","fee":"","operator":"","nameSource":"junction"},"sourceId":"osm"},{"id":"osm:node:4045763452","latitude":54.9129538,"longitude":-1.5227154,"name":"Victoria Road by Greggs","properties":{"access":"unknown","bicycle_pa":"stands","capacity":0,"covered":"no","fee":"","operator":"","nameSource":"landmark"},"sourceId":"osm"},{"id":"osm:node:4045790361","latitude":54.9127402,"longitude":-1.5239401,"name":"Victoria Road by Alyson's Hair Salon","properties":{"access":"unknown","bicycle_pa":"stands","capacity":2,"covered":"no","fee":"","operator":"","nameSource":"landmark"},"sourceId":"osm"},{"id":"osm:node:4366060988","latitude":54.9263311,"longitude":-1.5745958,"name":"Old Durham Road by Wrekenton Hub","properties":{"access":"unknown","bicycle_pa":"stands","capacity":0,"covered":"no","fee":"","operator":"","nameSource":"landmark"},"sourceId":"osm"},{"id":"osm:node:6195831921","latitude":54.9250196,"longitude":-1.5749474,"name":"High Street near Old Durham Road","properties":{"access":"yes","bicycle_pa":"stands","capacity":4,"covered":"no","fee":"no","operator":"","nameSource":"junction"},"sourceId":"osm"},{"id":"osm:node:8117564474","latitude":54.8974463,"longitude":-1.5309174,"name":"Washington Leisure Centre cycle parking","properties":{"access":"unknown","bicycle_pa":"stands","capacity":0,"covered":"yes","fee":"","operator":"","nameSource":"landmark"},"sourceId":"osm"},{"id":"osm:node:8122420277","latitude":54.9035979,"longitude":-1.530574,"name":"Sunderland Highway by Superdrug","properties":{"access":"unknown","bicycle_pa":"stands","capacity":2,"covered":"no","fee":"no","operator":"","nameSource":"landmark"},"sourceId":"osm"},{"id":"osm:node:8122420278","latitude":54.9030753,"longitude":-1.5319356,"name":"Sunderland Highway by Marks & Spencer","properties":{"access":"unknown","bicycle_pa":"stands","capacity":2,"covered":"no","fee":"no","operator":"","nameSource":"landmark"},"sourceId":"osm"},{"id":"osm:node:8122420279","latitude":54.9025814,"longitude":-1.5332012,"name":"Sunderland Highway by Mountain Warehouse","properties":{"access":"unknown","bicycle_pa":"stands","capacity":2,"covered":"no","fee":"no","operator":"","nameSource":"landmark"},"sourceId":"osm"},{"id":"osm:node:8122434787","latitude":54.903876,"longitude":-1.5300885,"name":"Sunderland Highway by Aldi","properties":{"access":"unknown","bicycle_pa":"stands","capacity":8,"covered":"yes","fee":"no","operator":"","nameSource":"landmark"},"sourceId":"osm"},{"id":"osm:node:8122450620","latitude":54.9015837,"longitude":-1.5325081,"name":"The Galleries Shopping Mall by Specsavers","properties":{"access":"yes","bicycle_pa":"stands","capacity":5,"covered":"no","fee":"no","operator":"","nameSource":"landmark"},"sourceId":"osm"},{"id":"osm:node:8122505633","latitude":54.9072609,"longitude":-1.5035996,"name":"Spire Road by OneBeyond","properties":{"access":"unknown","bicycle_pa":"stands","capacity":3,"covered":"no","fee":"no","operator":"","nameSource":"landmark"},"sourceId":"osm"},{"id":"osm:node:8157011434","latitude":54.8857038,"longitude":-1.5195271,"name":"Biddick Lane by Arts Centre Cafe","properties":{"access":"unknown","bicycle_pa":"stands","capacity":5,"covered":"no","fee":"no","operator":"","nameSource":"landmark"},"sourceId":"osm"},{"id":"osm:node:9180397533","latitude":54.9016454,"longitude":-1.5300796,"name":"Parkway near Thornton Court","properties":{"access":"unknown","bicycle_pa":"stands","capacity":4,"covered":"","fee":"","operator":"","nameSource":"junction"},"sourceId":"osm"},{"id":"osm:way:872050894","latitude":54.89911316,"longitude":-1.5317078199999998,"name":"Independence Square by Washington Library","properties":{"access":"unknown","bicycle_pa":"stands","capacity":24,"covered":"yes","fee":"no","operator":"","nameSource":"landmark"},"sourceId":"osm"}],"schemaVersion":2}
