{"key":"12/2030/1301","points":[{"id":"osm:node:1311903326","latitude":54.6893931,"longitude":-1.5554273,"name":"Market Street near Church Road","properties":{"access":"unknown","bicycle_pa":"","capacity":4,"covered":"","fee":"","operator":"","nameSource":"junction"},"sourceId":"osm"},{"id":"osm:node:1312470260","latitude":54.6791625,"longitude":-1.5229264,"name":"Ferryhill Station cycle parking","properties":{"access":"unknown","bicycle_pa":"","capacity":2,"covered":"","fee":"","operator":"","nameSource":"place"},"sourceId":"osm"},{"id":"osm:node:13527483398","latitude":54.7048114,"longitude":-1.5694675,"name":"A688 by The Fox Cub","properties":{"access":"unknown","bicycle_pa":"","capacity":0,"covered":"","fee":"","operator":"","nameSource":"landmark"},"sourceId":"osm"},{"id":"osm:node:694369234","latitude":54.6892387,"longitude":-1.5561133,"name":"North Street near Durham Road","properties":{"access":"unknown","bicycle_pa":"","capacity":0,"covered":"","fee":"","operator":"","nameSource":"junction"},"sourceId":"osm"},{"id":"osm:node:763486671","latitude":54.7150401,"longitude":-1.5023995,"name":"B6291 near Cornforth Lane","properties":{"access":"unknown","bicycle_pa":"","capacity":6,"covered":"","fee":"","operator":"","nameSource":"junction"},"sourceId":"osm"}],"schemaVersion":2}
