{"key":"12/2030/1315","points":[{"id":"osm:node:12106043008","latitude":53.9784831,"longitude":-1.5693439,"name":"Beckwith Head Road near Beckwith Knowle","properties":{"access":"unknown","bicycle_pa":"stands","capacity":14,"covered":"no","fee":"no","operator":"","nameSource":"junction"},"sourceId":"osm"},{"id":"osm:node:12108583253","latitude":54.004856,"longitude":-1.5273059,"name":"Alder Road near Woodfield Road","properties":{"access":"yes","bicycle_pa":"stands","capacity":10,"covered":"no","fee":"","operator":"","nameSource":"junction"},"sourceId":"osm"},{"id":"osm:node:12108583254","latitude":54.0048867,"longitude":-1.5272093,"name":"Alder Road near Woodfield Road","properties":{"access":"yes","bicycle_pa":"stands","capacity":10,"covered":"yes","fee":"","operator":"","nameSource":"junction"},"sourceId":"osm"},{"id":"osm:node:12149687975","latitude":53.9934002,"longitude":-1.538507,"name":"Cambridge Street near Beulah Street","properties":{"access":"yes","bicycle_pa":"stands","capacity":10,"covered":"","fee":"yes","operator":"","nameSource":"junction"},"sourceId":"osm"},{"id":"osm:node:12229811251","latitude":53.9946177,"longitude":-1.538229,"name":"One Arch by Diveshack UK","properties":{"access":"yes","bicycle_pa":"stands","capacity":10,"covered":"no","fee":"","operator":"","nameSource":"landmark"},"sourceId":"osm"},{"id":"osm:node:12882206391","latitude":54.0072416,"longitude":-1.5787085,"name":"Oaker Bank near Four Lane Ends","properties":{"access":"unknown","bicycle_pa":"","capacity":0,"covered":"","fee":"","operator":"","nameSource":"junction"},"sourceId":"osm"},{"id":"osm:node:3015472802","latitude":53.9928518,"longitude":-1.5376243,"name":"Station Parade by Lainchbury Shoe Repairs","properties":{"access":"unknown","bicycle_pa":"stands","capacity":10,"covered":"yes","fee":"","operator":"","nameSource":"landmark"},"sourceId":"osm"},{"id":"osm:node:3210026524","latitude":53.9935785,"longitude":-1.5377025,"name":"Station Parade near Cambridge Street","properties":{"access":"unknown","bicycle_pa":"stands","capacity":20,"covered":"yes","fee":"","operator":"","nameSource":"junction"},"sourceId":"osm"},{"id":"osm:node:3210026533","latitude":53.9932694,"longitude":-1.5376113,"name":"Station Parade near Cambridge Street","properties":{"access":"unknown","bicycle_pa":"stands","capacity":10,"covered":"yes","fee":"no","operator":"","nameSource":"junction"},"sourceId":"osm"},{"id":"osm:node:3464511353","latitude":53.992686,"longitude":-1.5414787,"name":"Prospect Crescent near Prospect Place","properties":{"access":"unknown","bicycle_pa":"stands","capacity":20,"covered":"no","fee":"","operator":"","nameSource":"junction"},"sourceId":"osm"},{"id":"osm:node:3464511355","latitude":53.9929514,"longitude":-1.5413965,"name":"Prospect Crescent near Cambridge Crescent","properties":{"access":"unknown","bicycle_pa":"stands","capacity":6,"covered":"no","fee":"","operator":"","nameSource":"junction"},"sourceId":"osm"},{"id":"osm:node:3464514841","latitude":53.9985975,"longitude":-1.5003077,"name":"High Street near Broughton Way","properties":{"access":"unknown","bicycle_pa":"stands","capacity":10,"covered":"yes","fee":"","operator":"","nameSource":"junction"},"sourceId":"osm"},{"id":"osm:node:3515706917","latitude":53.9892301,"longitude":-1.5487701,"name":"Cold Bath Road near Glebe Road","properties":{"access":"unknown","bicycle_pa":"stands","capacity":4,"covered":"no","fee":"","operator":"","nameSource":"junction"},"sourceId":"osm"},{"id":"osm:node:3609996498","latitude":54.0026959,"longitude":-1.5498633,"name":"Jennyfield Drive cycle parking","properties":{"access":"unknown","bicycle_pa":"stands","capacity":30,"covered":"no","fee":"","operator":"","nameSource":"street"},"sourceId":"osm"},{"id":"osm:node:4184889787","latitude":53.978055,"longitude":-1.5341675,"name":"Leeds Road near Vernon Road","properties":{"access":"unknown","bicycle_pa":"stands","capacity":4,"covered":"no","fee":"","operator":"","nameSource":"junction"},"sourceId":"osm"},{"id":"osm:node:4184889788","latitude":53.9777995,"longitude":-1.5340119,"name":"Leeds Road near Vernon Road","properties":{"access":"unknown","bicycle_pa":"stands","capacity":4,"covered":"no","fee":"","operator":"","nameSource":"junction"},"sourceId":"osm"},{"id":"osm:node:4184890793","latitude":53.9779336,"longitude":-1.5340897,"name":"Leeds Road near Vernon Road","properties":{"access":"unknown","bicycle_pa":"stands","capacity":4,"covered":"no","fee":"","operator":"","nameSource":"junction"},"sourceId":"osm"},{"id":"osm:node:4388605874","latitude":53.982757,"longitude":-1.5001463,"name":"Railway Road by Fodder Food Hall","properties":{"access":"unknown","bicycle_pa":"stands","capacity":8,"covered":"no","fee":"","operator":"","nameSource":"landmark"},"sourceId":"osm"},{"id":"osm:node:6006119807","latitude":53.9925709,"longitude":-1.5439061,"name":"Montpellier Hill near Montpellier Street","properties":{"access":"unknown","bicycle_pa":"stands","capacity":12,"covered":"no","fee":"","operator":"","nameSource":"junction"},"sourceId":"osm"},{"id":"osm:node:6416101854","latitude":53.9934286,"longitude":-1.5372116,"name":"East Parade by Harrogate","properties":{"access":"unknown","bicycle_pa":"lockers","capacity":8,"covered":"yes","fee":"","operator":"Victoria Car Park (Harrogate Council)","nameSource":"landmark"},"sourceId":"osm"},{"id":"osm:node:6680678207","latitude":53.9904074,"longitude":-1.5412615,"name":"Victoria Avenue near Beech Grove","properties":{"access":"unknown","bicycle_pa":"stands","capacity":12,"covered":"no","fee":"no","operator":"","nameSource":"junction"},"sourceId":"osm"},{"id":"osm:node:6681020802","latitude":53.9939552,"longitude":-1.5164783,"name":"Lancaster Park Road cycle parking","properties":{"access":"unknown","bicycle_pa":"stands","capacity":24,"covered":"no","fee":"","operator":"","nameSource":"street"},"sourceId":"osm"},{"id":"osm:node:6681088698","latitude":53.9946775,"longitude":-1.5183665,"name":"Newnham Terrace Rear cycle parking","properties":{"access":"unknown","bicycle_pa":"","capacity":0,"covered":"","fee":"","operator":"","nameSource":"street"},"sourceId":"osm"},{"id":"osm:node:7087131437","latitude":53.993468,"longitude":-1.5472324,"name":"Royal Parade near Back Royal Parade","properties":{"access":"unknown","bicycle_pa":"stands","capacity":6,"covered":"no","fee":"","operator":"","nameSource":"junction"},"sourceId":"osm"},{"id":"osm:node:7087131439","latitude":53.9933954,"longitude":-1.5452932,"name":"Montpellier Gardens near Montpellier Road","properties":{"access":"unknown","bicycle_pa":"stands","capacity":4,"covered":"no","fee":"","operator":"","nameSource":"junction"},"sourceId":"osm"},{"id":"osm:node:7131061141","latitude":53.9818716,"longitude":-1.5357257,"name":"Leeds Road near St Marks Avenue","properties":{"access":"unknown","bicycle_pa":"stands","capacity":12,"covered":"no","fee":"","operator":"","nameSource":"junction"},"sourceId":"osm"},{"id":"osm:node:7882025263","latitude":53.9815051,"longitude":-1.5717052,"name":"Crag Lane by Betty's","properties":{"access":"unknown","bicycle_pa":"stands","capacity":8,"covered":"yes","fee":"","operator":"","nameSource":"landmark"},"sourceId":"osm"},{"id":"osm:node:8048901902","latitude":53.989384,"longitude":-1.5406542,"name":"West Park near Byron Walk","properties":{"access":"unknown","bicycle_pa":"stands","capacity":10,"covered":"no","fee":"","operator":"","nameSource":"junction"},"sourceId":"osm"},{"id":"osm:node:9872119203","latitude":53.9916312,"longitude":-1.539519,"name":"Princes Square near Albert Street","properties":{"access":"yes","bicycle_pa":"stands","capacity":14,"covered":"no","fee":"","operator":"","nameSource":"junction"},"sourceId":"osm"},{"id":"osm:way:268180358","latitude":53.986806939999994,"longitude":-1.5250344200000001,"name":"Oatlands Drive near St Winifred's Road","properties":{"access":"unknown","bicycle_pa":"","capacity":0,"covered":"","fee":"","operator":"","nameSource":"junction"},"sourceId":"osm"},{"id":"osm:way:373872429","latitude":53.99293246666667,"longitude":-1.5370423666666666,"name":"East Parade by Harrogate Tap","properties":{"access":"unknown","bicycle_pa":"stands","capacity":18,"covered":"yes","fee":"","operator":"","nameSource":"landmark"},"sourceId":"osm"}],"schemaVersion":2}
