{"key":"12/2030/1328","points":[{"id":"osm:node:13136982161","latitude":53.3272424,"longitude":-1.540225,"name":"Devonshire Terrace Road near Leyfield Road","properties":{"access":"customers","bicycle_pa":"stands","capacity":4,"covered":"no","fee":"no","operator":"","nameSource":"junction"},"sourceId":"osm"},{"id":"osm:node:13137046584","latitude":53.3183179,"longitude":-1.5045369,"name":"Twentywell Lane near Bradway Road","properties":{"access":"yes","bicycle_pa":"stands","capacity":2,"covered":"no","fee":"no","operator":"","nameSource":"junction"},"sourceId":"osm"},{"id":"osm:node:13137048539","latitude":53.327759,"longitude":-1.539991,"name":"Causeway Head Road near Devonshire Terrace Road","properties":{"access":"yes","bicycle_pa":"stands","capacity":2,"covered":"no","fee":"no","operator":"","nameSource":"junction"},"sourceId":"osm"},{"id":"osm:node:13323063329","latitude":53.3160087,"longitude":-1.532057,"name":"Baslow Road near Mickley Lane","properties":{"access":"yes","bicycle_pa":"stands","capacity":2,"covered":"no","fee":"","operator":"Sheffield City Council","nameSource":"junction"},"sourceId":"osm"},{"id":"osm:node:13323063330","latitude":53.3176237,"longitude":-1.524986,"name":"Baslow Road near Glover Road","properties":{"access":"yes","bicycle_pa":"stands","capacity":4,"covered":"no","fee":"","operator":"Sheffield City Council","nameSource":"junction"},"sourceId":"osm"},{"id":"osm:node:13748649750","latitude":53.3161103,"longitude":-1.5315293,"name":"Baslow Road near Mickley Lane","properties":{"access":"unknown","bicycle_pa":"stands","capacity":6,"covered":"no","fee":"","operator":"","nameSource":"junction"},"sourceId":"osm"},{"id":"osm:node:3722012050","latitude":53.3275403,"longitude":-1.5156409,"name":"Ladies Spring Grove near Ladies Spring Drive","properties":{"access":"unknown","bicycle_pa":"","capacity":0,"covered":"yes","fee":"no","operator":"","nameSource":"junction"},"sourceId":"osm"},{"id":"osm:node:601616512","latitude":53.3219537,"longitude":-1.5239204,"name":"Devonshire Road near Abbeydale Road South","properties":{"access":"unknown","bicycle_pa":"stands","capacity":13,"covered":"no","fee":"","operator":"","nameSource":"junction"},"sourceId":"osm"}],"schemaVersion":2}
