{"key":"12/2030/1331","points":[{"id":"osm:node:10562059060","latitude":53.1380135,"longitude":-1.5578875,"name":"Sainsbury's Footbridge by Peak Rail Shop","properties":{"access":"unknown","bicycle_pa":"stands","capacity":2,"covered":"no","fee":"","operator":"","nameSource":"landmark"},"sourceId":"osm"},{"id":"osm:node:12657120024","latitude":53.1393399,"longitude":-1.5573873,"name":"Bakewell Road near A615","properties":{"access":"unknown","bicycle_pa":"","capacity":0,"covered":"","fee":"","operator":"","nameSource":"junction"},"sourceId":"osm"},{"id":"osm:node:2773686828","latitude":53.13214,"longitude":-1.5175082,"name":"Holly Lane near Nottingham Road","properties":{"access":"customers","bicycle_pa":"stands","capacity":4,"covered":"","fee":"","operator":"","nameSource":"junction"},"sourceId":"osm"},{"id":"osm:node:4439411042","latitude":53.1385549,"longitude":-1.5577355,"name":"Derwent Way by Matlock Interchange","properties":{"access":"unknown","bicycle_pa":"","capacity":0,"covered":"","fee":"","operator":"","nameSource":"landmark"},"sourceId":"osm"},{"id":"osm:node:6979342146","latitude":53.1389839,"longitude":-1.5603607,"name":"Cawdor Way by Sainsbury's Bank","properties":{"access":"unknown","bicycle_pa":"stands","capacity":12,"covered":"no","fee":"","operator":"","nameSource":"landmark"},"sourceId":"osm"},{"id":"osm:node:8847862924","latitude":53.1383013,"longitude":-1.5586478,"name":"Sainsbury's Footbridge by Matlock","properties":{"access":"unknown","bicycle_pa":"stands","capacity":14,"covered":"","fee":"","operator":"","nameSource":"landmark"},"sourceId":"osm"},{"id":"osm:node:8847862925","latitude":53.138323,"longitude":-1.5585284,"name":"Sainsbury's Footbridge by Matlock","properties":{"access":"unknown","bicycle_pa":"stands","capacity":12,"covered":"no","fee":"","operator":"","nameSource":"landmark"},"sourceId":"osm"},{"id":"osm:node:8847862926","latitude":53.1393926,"longitude":-1.5557617,"name":"Imperial Road near Edgefold Road","properties":{"access":"unknown","bicycle_pa":"stands","capacity":12,"covered":"no","fee":"","operator":"","nameSource":"junction"},"sourceId":"osm"},{"id":"osm:node:8847862927","latitude":53.1444039,"longitude":-1.568694,"name":"Morledge by Arc Leisure Centre","properties":{"access":"unknown","bicycle_pa":"stands","capacity":20,"covered":"yes","fee":"","operator":"","nameSource":"landmark"},"sourceId":"osm"},{"id":"osm:node:9802156946","latitude":53.1381133,"longitude":-1.5539615,"name":"Causeway Lane near Firs Parade","properties":{"access":"yes","bicycle_pa":"stands","capacity":16,"covered":"no","fee":"","operator":"","nameSource":"junction"},"sourceId":"osm"},{"id":"osm:node:9802156947","latitude":53.1379935,"longitude":-1.5539092,"name":"Causeway Lane near Firs Parade","properties":{"access":"unknown","bicycle_pa":"stands","capacity":2,"covered":"yes","fee":"","operator":"","nameSource":"junction"},"sourceId":"osm"},{"id":"osm:node:9983889329","latitude":53.1396267,"longitude":-1.5540029,"name":"Bank Road near St Joseph's Street","properties":{"access":"yes","bicycle_pa":"","capacity":10,"covered":"no","fee":"","operator":"","nameSource":"junction"},"sourceId":"osm"}],"schemaVersion":2}
