{"key":"12/2030/1336","points":[{"id":"osm:node:10692119311","latitude":52.9044452,"longitude":-1.5439064,"name":"Uttoxeter Road near Limes Avenue","properties":{"access":"unknown","bicycle_pa":"","capacity":0,"covered":"","fee":"","operator":"","nameSource":"junction"},"sourceId":"osm"},{"id":"osm:node:10837163076","latitude":52.8826506,"longitude":-1.5450335,"name":"Burton Road by Dobbies Findern","properties":{"access":"customers","bicycle_pa":"wall_loops","capacity":6,"covered":"no","fee":"","operator":"","nameSource":"landmark"},"sourceId":"osm"},{"id":"osm:node:11851498044","latitude":52.8704356,"longitude":-1.551681,"name":"Thrushton Close cycle parking","properties":{"access":"yes","bicycle_pa":"stands","capacity":4,"covered":"no","fee":"no","operator":"","nameSource":"street"},"sourceId":"osm"},{"id":"osm:node:11985911733","latitude":52.8601067,"longitude":-1.5536294,"name":"Findern Lane by Still Waters Convenience & Gift Shop","properties":{"access":"permissive","bicycle_pa":"wall_loops","capacity":4,"covered":"no","fee":"no","operator":"","nameSource":"landmark"},"sourceId":"osm"},{"id":"osm:node:1251687256","latitude":52.9088377,"longitude":-1.5139467,"name":"Springfield cycle parking","properties":{"access":"unknown","bicycle_pa":"","capacity":0,"covered":"","fee":"","operator":"","nameSource":"street"},"sourceId":"osm"},{"id":"osm:node:1946586960","latitude":52.9047645,"longitude":-1.5076292,"name":"Thornhill Road by St Peter's Church of England Aided Junior School","properties":{"access":"unknown","bicycle_pa":"","capacity":0,"covered":"","fee":"","operator":"","nameSource":"landmark"},"sourceId":"osm"},{"id":"osm:node:4656069091","latitude":52.9041442,"longitude":-1.5419403,"name":"Kipling Drive by Timpson","properties":{"access":"unknown","bicycle_pa":"","capacity":0,"covered":"","fee":"","operator":"","nameSource":"landmark"},"sourceId":"osm"},{"id":"osm:node:4912407813","latitude":52.9052753,"longitude":-1.5418914,"name":"Uttoxeter Road by M&S Simply Food","properties":{"access":"unknown","bicycle_pa":"","capacity":0,"covered":"","fee":"","operator":"","nameSource":"landmark"},"sourceId":"osm"},{"id":"osm:node:4936570911","latitude":52.8601565,"longitude":-1.5540306,"name":"Findern Lane by Still Waters Convenience & Gift Shop","properties":{"access":"unknown","bicycle_pa":"stands","capacity":10,"covered":"no","fee":"","operator":"","nameSource":"landmark"},"sourceId":"osm"},{"id":"osm:node:6416616259","latitude":52.876472,"longitude":-1.5074732,"name":"Chartley Road near Merevale Way","properties":{"access":"yes","bicycle_pa":"stands","capacity":6,"covered":"no","fee":"no","operator":"","nameSource":"junction"},"sourceId":"osm"},{"id":"osm:node:8174603849","latitude":52.8877545,"longitude":-1.5297677,"name":"Tutbury Avenue near Alton Way","properties":{"access":"yes","bicycle_pa":"stands","capacity":8,"covered":"no","fee":"no","operator":"","nameSource":"junction"},"sourceId":"osm"},{"id":"osm:node:9235141305","latitude":52.8995132,"longitude":-1.5163945,"name":"Carlisle Avenue cycle parking","properties":{"access":"unknown","bicycle_pa":"","capacity":0,"covered":"","fee":"","operator":"","nameSource":"street"},"sourceId":"osm"}],"schemaVersion":2}
