{"key":"12/2030/1344","points":[{"id":"osm:node:10739551580","latitude":52.4304849,"longitude":-1.5167314,"name":"Jubilee Crescent near Owenford Road","properties":{"access":"yes","bicycle_pa":"stands","capacity":2,"covered":"no","fee":"no","operator":"Coventry City Council","nameSource":"junction"},"sourceId":"osm"},{"id":"osm:node:12478149039","latitude":52.4311549,"longitude":-1.517875,"name":"Jubilee Crescent near Links Road","properties":{"access":"yes","bicycle_pa":"stands","capacity":2,"covered":"no","fee":"no","operator":"Coventry City Council","nameSource":"junction"},"sourceId":"osm"},{"id":"osm:node:12478214113","latitude":52.4314452,"longitude":-1.5166943,"name":"Jubilee Crescent near Catesby Road","properties":{"access":"yes","bicycle_pa":"stands","capacity":2,"covered":"no","fee":"no","operator":"Coventry City Council","nameSource":"junction"},"sourceId":"osm"},{"id":"osm:node:12645913186","latitude":52.4452976,"longitude":-1.5110827,"name":"Parkgate Road by Morrisons","properties":{"access":"unknown","bicycle_pa":"stands","capacity":6,"covered":"no","fee":"no","operator":"","nameSource":"landmark"},"sourceId":"osm"},{"id":"osm:node:12696915756","latitude":52.4431405,"longitude":-1.5219777,"name":"Beake Avenue near Rotherham Road","properties":{"access":"yes","bicycle_pa":"stands","capacity":4,"covered":"no","fee":"no","operator":"","nameSource":"junction"},"sourceId":"osm"},{"id":"osm:node:13188665828","latitude":52.4492019,"longitude":-1.4958022,"name":"Rowleys Green Lane cycle parking","properties":{"access":"permissive","bicycle_pa":"stands","capacity":10,"covered":"no","fee":"no","operator":"","nameSource":"street"},"sourceId":"osm"},{"id":"osm:node:13473965271","latitude":52.4302065,"longitude":-1.5325967,"name":"Norman Place Road by Co-op Food","properties":{"access":"yes","bicycle_pa":"stands","capacity":6,"covered":"no","fee":"no","operator":"","nameSource":"landmark"},"sourceId":"osm"},{"id":"osm:node:13765092781","latitude":52.4376708,"longitude":-1.5364954,"name":"Coundon Hall Park Cycleway cycle parking","properties":{"access":"unknown","bicycle_pa":"rack","capacity":0,"covered":"","fee":"","operator":"","nameSource":"street"},"sourceId":"osm"},{"id":"osm:node:14017615589","latitude":52.4573452,"longitude":-1.5251162,"name":"Central Boulevard near Pilgrims Walk","properties":{"access":"unknown","bicycle_pa":"","capacity":0,"covered":"","fee":"","operator":"","nameSource":"junction"},"sourceId":"osm"},{"id":"osm:way:1054346257","latitude":52.446471239999994,"longitude":-1.4946135999999999,"name":"Coventry Arena cycle parking","properties":{"access":"yes","bicycle_pa":"stands","capacity":10,"covered":"yes","fee":"no","operator":"","nameSource":"landmark"},"sourceId":"osm"},{"id":"osm:way:1364716355","latitude":52.43555077999999,"longitude":-1.5561881,"name":"Sayer Drive cycle parking","properties":{"access":"unknown","bicycle_pa":"stands","capacity":8,"covered":"yes","fee":"","operator":"","nameSource":"street"},"sourceId":"osm"},{"id":"osm:way:1364716356","latitude":52.43402719999999,"longitude":-1.55778258,"name":"Sayer Drive cycle parking","properties":{"access":"unknown","bicycle_pa":"stands","capacity":0,"covered":"yes","fee":"","operator":"","nameSource":"street"},"sourceId":"osm"},{"id":"osm:way:1365587691","latitude":52.44452944000001,"longitude":-1.5096812,"name":"Beacon Road near Holbrook Lane","properties":{"access":"unknown","bicycle_pa":"stands","capacity":8,"covered":"no","fee":"no","operator":"","nameSource":"junction"},"sourceId":"osm"},{"id":"osm:way:1372421396","latitude":52.43491904,"longitude":-1.55738874,"name":"Sayer Drive cycle parking","properties":{"access":"private","bicycle_pa":"stands","capacity":0,"covered":"yes","fee":"no","operator":"","nameSource":"street"},"sourceId":"osm"},{"id":"osm:way:1380006712","latitude":52.44788686,"longitude":-1.4977490799999997,"name":"Jimmy Hill Way cycle parking","properties":{"access":"unknown","bicycle_pa":"stands","capacity":60,"covered":"no","fee":"no","operator":"","nameSource":"street"},"sourceId":"osm"},{"id":"osm:way:1429960387","latitude":52.4429443,"longitude":-1.5413643799999999,"name":"Coundon Hall Park Cycleway cycle parking","properties":{"access":"yes","bicycle_pa":"rack","capacity":0,"covered":"no","fee":"no","operator":"","nameSource":"street"},"sourceId":"osm"}],"schemaVersion":2}
