{"key":"12/2030/1345","points":[{"id":"osm:node:1014585845","latitude":52.3838233,"longitude":-1.5601365,"name":"Academic Loop Road by Red Rocket","properties":{"access":"unknown","bicycle_pa":"stands","capacity":20,"covered":"yes","fee":"","operator":"","nameSource":"landmark"},"sourceId":"osm"},{"id":"osm:node:1014585853","latitude":52.383617,"longitude":-1.5605307,"name":"Academic Loop Road by Ganapathi Catering","properties":{"access":"unknown","bicycle_pa":"stands","capacity":24,"covered":"yes","fee":"","operator":"","nameSource":"landmark"},"sourceId":"osm"},{"id":"osm:node:10772783060","latitude":52.4079451,"longitude":-1.5180812,"name":"Spon Street near Watch Close","properties":{"access":"unknown","bicycle_pa":"stands","capacity":12,"covered":"no","fee":"no","operator":"","nameSource":"junction"},"sourceId":"osm"},{"id":"osm:node:10772783061","latitude":52.4073783,"longitude":-1.5177624,"name":"The Spon Gate cycle parking","properties":{"access":"unknown","bicycle_pa":"stands","capacity":12,"covered":"no","fee":"no","operator":"","nameSource":"landmark"},"sourceId":"osm"},{"id":"osm:node:10772783063","latitude":52.4106939,"longitude":-1.5138986,"name":"Upper Well Street near Lamb Street","properties":{"access":"unknown","bicycle_pa":"wall_loops","capacity":12,"covered":"no","fee":"no","operator":"","nameSource":"junction"},"sourceId":"osm"},{"id":"osm:node:10772783064","latitude":52.4110002,"longitude":-1.5109719,"name":"Bishop Street near Silver Street","properties":{"access":"unknown","bicycle_pa":"stands","capacity":8,"covered":"","fee":"no","operator":"","nameSource":"junction"},"sourceId":"osm"},{"id":"osm:node:10772783065","latitude":52.4104778,"longitude":-1.5092774,"name":"Millennium Place by Esquires","properties":{"access":"unknown","bicycle_pa":"stands","capacity":8,"covered":"no","fee":"no","operator":"","nameSource":"landmark"},"sourceId":"osm"},{"id":"osm:node:10772783066","latitude":52.4083824,"longitude":-1.5097264,"name":"Broadgate near Trinity Street","properties":{"access":"unknown","bicycle_pa":"stands","capacity":8,"covered":"no","fee":"no","operator":"","nameSource":"junction"},"sourceId":"osm"},{"id":"osm:node:10772783067","latitude":52.4076063,"longitude":-1.5108179,"name":"Broadgate near Hertford Street","properties":{"access":"unknown","bicycle_pa":"stands","capacity":8,"covered":"no","fee":"no","operator":"","nameSource":"junction"},"sourceId":"osm"},{"id":"osm:node:10772783068","latitude":52.407013,"longitude":-1.5109008,"name":"Hertford Square near Hertford Street","properties":{"access":"unknown","bicycle_pa":"stands","capacity":12,"covered":"no","fee":"no","operator":"","nameSource":"junction"},"sourceId":"osm"},{"id":"osm:node:10772783069","latitude":52.4053897,"longitude":-1.5117544,"name":"New Union Street near Warwick Road","properties":{"access":"unknown","bicycle_pa":"stands","capacity":8,"covered":"no","fee":"no","operator":"","nameSource":"junction"},"sourceId":"osm"},{"id":"osm:node:10772783071","latitude":52.4096438,"longitude":-1.512853,"name":"Smithford Way by Hollywood Nails","properties":{"access":"unknown","bicycle_pa":"stands","capacity":24,"covered":"no","fee":"","operator":"","nameSource":"landmark"},"sourceId":"osm"},{"id":"osm:node:10772783072","latitude":52.4107662,"longitude":-1.507525,"name":"Hales Street near White Street","properties":{"access":"unknown","bicycle_pa":"stands","capacity":16,"covered":"no","fee":"no","operator":"","nameSource":"junction"},"sourceId":"osm"},{"id":"osm:node:10772783073","latitude":52.4100275,"longitude":-1.5088608,"name":"Trinity Street near Palmer Lane","properties":{"access":"unknown","bicycle_pa":"stands","capacity":16,"covered":"no","fee":"no","operator":"","nameSource":"junction"},"sourceId":"osm"},{"id":"osm:node:10772783074","latitude":52.409416,"longitude":-1.5104569,"name":"Cross Cheaping near Ironmonger Row","properties":{"access":"unknown","bicycle_pa":"stands","capacity":8,"covered":"no","fee":"no","operator":"","nameSource":"junction"},"sourceId":"osm"},{"id":"osm:node:10772783075","latitude":52.4099239,"longitude":-1.5063414,"name":"Fairfax Street near Priory Street","properties":{"access":"unknown","bicycle_pa":"stands","capacity":37,"covered":"","fee":"yes","operator":"","nameSource":"junction"},"sourceId":"osm"},{"id":"osm:node:10772783076","latitude":52.4077199,"longitude":-1.5067009,"name":"Priory Street near University Square","properties":{"access":"unknown","bicycle_pa":"stands","capacity":10,"covered":"no","fee":"no","operator":"","nameSource":"junction"},"sourceId":"osm"},{"id":"osm:node:10772783077","latitude":52.4070442,"longitude":-1.5065085,"name":"Bayley Lane near Earl Street","properties":{"access":"unknown","bicycle_pa":"stands","capacity":4,"covered":"no","fee":"no","operator":"","nameSource":"junction"},"sourceId":"osm"},{"id":"osm:node:10772783078","latitude":52.4070043,"longitude":-1.5077062,"name":"Earl Street near Saint Mary Street","properties":{"access":"unknown","bicycle_pa":"stands","capacity":12,"covered":"no","fee":"no","operator":"","nameSource":"junction"},"sourceId":"osm"},{"id":"osm:node:10772783079","latitude":52.406671,"longitude":-1.5098013,"name":"Salt Lane near Greyfriars Lane","properties":{"access":"unknown","bicycle_pa":"stands","capacity":20,"covered":"no","fee":"no","operator":"","nameSource":"junction"},"sourceId":"osm"},{"id":"osm:node:10772783080","latitude":52.402297,"longitude":-1.5179738,"name":"Westminster Road by Hobbycraft","properties":{"access":"unknown","bicycle_pa":"stands","capacity":10,"covered":"no","fee":"no","operator":"","nameSource":"landmark"},"sourceId":"osm"},{"id":"osm:node:10922492226","latitude":52.4022945,"longitude":-1.5131252,"name":"Friargate Lane near Friargate Boulevard","properties":{"access":"unknown","bicycle_pa":"rack","capacity":0,"covered":"no","fee":"no","operator":"","nameSource":"junction"},"sourceId":"osm"},{"id":"osm:node:11115085894","latitude":52.4076379,"longitude":-1.496585,"name":"Far Gosford Street near Bramble Street","properties":{"access":"unknown","bicycle_pa":"","capacity":6,"covered":"","fee":"","operator":"","nameSource":"junction"},"sourceId":"osm"},{"id":"osm:node:11238049701","latitude":52.3772329,"longitude":-1.5656652,"name":"Kirby Corner cycle parking","properties":{"access":"unknown","bicycle_pa":"shed","capacity":0,"covered":"","fee":"","operator":"","nameSource":"place"},"sourceId":"osm"},{"id":"osm:node:11992031000","latitude":52.382374,"longitude":-1.5636322,"name":"Gibbet Hill Road cycle parking","properties":{"access":"unknown","bicycle_pa":"stands","capacity":24,"covered":"yes","fee":"","operator":"","nameSource":"street"},"sourceId":"osm"},{"id":"osm:node:11992031001","latitude":52.3778896,"longitude":-1.5701093,"name":"Leighfield Road by Warwick Sports Hub","properties":{"access":"unknown","bicycle_pa":"stands","capacity":40,"covered":"yes","fee":"","operator":"","nameSource":"landmark"},"sourceId":"osm"},{"id":"osm:node:12182817035","latitude":52.3839332,"longitude":-1.5585704,"name":"Academic Loop Road cycle parking","properties":{"access":"unknown","bicycle_pa":"stands","capacity":40,"covered":"yes","fee":"no","operator":"","nameSource":"street"},"sourceId":"osm"},{"id":"osm:node:12183638382","latitude":52.3808916,"longitude":-1.5603614,"name":"Social Sciences cycle parking","properties":{"access":"unknown","bicycle_pa":"stands","capacity":20,"covered":"yes","fee":"","operator":"","nameSource":"street"},"sourceId":"osm"},{"id":"osm:node:12197899988","latitude":52.382248,"longitude":-1.5636017,"name":"Gibbet Hill Road cycle parking","properties":{"access":"unknown","bicycle_pa":"","capacity":14,"covered":"no","fee":"no","operator":"","nameSource":"street"},"sourceId":"osm"},{"id":"osm:node:12208957101","latitude":52.383996,"longitude":-1.5585527,"name":"Academic Loop Road cycle parking","properties":{"access":"unknown","bicycle_pa":"stands","capacity":50,"covered":"no","fee":"no","operator":"","nameSource":"street"},"sourceId":"osm"},{"id":"osm:node:1247047031","latitude":52.3796433,"longitude":-1.5600371,"name":"Back of Rootes Grocery Store (CC39)","properties":{"access":"permissive","bicycle_pa":"stands","capacity":28,"covered":"yes","fee":"","operator":"University of Warwick","nameSource":"source"},"sourceId":"osm"},{"id":"osm:node:1247047033","latitude":52.3813144,"longitude":-1.5624718,"name":"Library Road by Cafe Library","properties":{"access":"unknown","bicycle_pa":"stands","capacity":26,"covered":"no","fee":"","operator":"","nameSource":"landmark"},"sourceId":"osm"},{"id":"osm:node:12475981637","latitude":52.4136897,"longitude":-1.5113856,"name":"Leicester Row by Playwrights Cafe - Coventry Canal Basin","properties":{"access":"yes","bicycle_pa":"stands","capacity":2,"covered":"no","fee":"no","operator":"","nameSource":"landmark"},"sourceId":"osm"},{"id":"osm:node:12475994187","latitude":52.4138278,"longitude":-1.5112861,"name":"Drapers Field near Drapers Fields","properties":{"access":"yes","bicycle_pa":"stands","capacity":3,"covered":"no","fee":"no","operator":"","nameSource":"junction"},"sourceId":"osm"},{"id":"osm:node:12476196738","latitude":52.4134432,"longitude":-1.5122731,"name":"St Nicholas Street near Drapers Field","properties":{"access":"yes","bicycle_pa":"stands","capacity":3,"covered":"no","fee":"no","operator":"","nameSource":"junction"},"sourceId":"osm"},{"id":"osm:node:12476196739","latitude":52.4135022,"longitude":-1.5121236,"name":"St Nicholas Street by The Tin Music & Arts","properties":{"access":"yes","bicycle_pa":"stands","capacity":2,"covered":"no","fee":"no","operator":"","nameSource":"landmark"},"sourceId":"osm"},{"id":"osm:node:12643227290","latitude":52.4117739,"longitude":-1.5268045,"name":"Holyhead Road cycle parking","properties":{"access":"unknown","bicycle_pa":"stands","capacity":4,"covered":"no","fee":"no","operator":"","nameSource":"street"},"sourceId":"osm"},{"id":"osm:node:12643227291","latitude":52.4117091,"longitude":-1.5268588,"name":"Holyhead Road cycle parking","properties":{"access":"unknown","bicycle_pa":"stands","capacity":4,"covered":"no","fee":"no","operator":"","nameSource":"street"},"sourceId":"osm"},{"id":"osm:node:12643234417","latitude":52.4120624,"longitude":-1.5292325,"name":"B&Q cycle parking","properties":{"access":"unknown","bicycle_pa":"stands","capacity":4,"covered":"no","fee":"no","operator":"","nameSource":"landmark"},"sourceId":"osm"},{"id":"osm:node:12643234418","latitude":52.4125351,"longitude":-1.5283707,"name":"Holyhead Road by McDonald's","properties":{"access":"unknown","bicycle_pa":"stands","capacity":4,"covered":"no","fee":"no","operator":"","nameSource":"landmark"},"sourceId":"osm"},{"id":"osm:node:12645946262","latitude":52.4006486,"longitude":-1.5433958,"name":"Canley Road cycle parking","properties":{"access":"unknown","bicycle_pa":"stands","capacity":6,"covered":"yes","fee":"no","operator":"","nameSource":"street"},"sourceId":"osm"},{"id":"osm:node:12677097596","latitude":52.3943477,"longitude":-1.5072724,"name":"Quinton Road near Daventry Road","properties":{"access":"yes","bicycle_pa":"stands","capacity":2,"covered":"no","fee":"no","operator":"","nameSource":"junction"},"sourceId":"osm"},{"id":"osm:node:12677097598","latitude":52.3943259,"longitude":-1.5054368,"name":"Daventry Road near Cecily Road","properties":{"access":"yes","bicycle_pa":"stands","capacity":2,"covered":"no","fee":"no","operator":"","nameSource":"junction"},"sourceId":"osm"},{"id":"osm:node:12677097599","latitude":52.394302,"longitude":-1.5045567,"name":"Cecily Road near Daventry Road","properties":{"access":"yes","bicycle_pa":"stands","capacity":4,"covered":"no","fee":"no","operator":"","nameSource":"junction"},"sourceId":"osm"},{"id":"osm:node:12756889358","latitude":52.3995285,"longitude":-1.5311274,"name":"Earlsdon Street near Moor Street","properties":{"access":"yes","bicycle_pa":"stands","capacity":2,"covered":"no","fee":"no","operator":"","nameSource":"junction"},"sourceId":"osm"},{"id":"osm:node:12756889359","latitude":52.3996927,"longitude":-1.531115,"name":"Earlsdon Street near Moor Street","properties":{"access":"yes","bicycle_pa":"stands","capacity":2,"covered":"yes","fee":"no","operator":"","nameSource":"junction"},"sourceId":"osm"},{"id":"osm:node:12756889360","latitude":52.3997335,"longitude":-1.5310181,"name":"Earlsdon Street near Moor Street","properties":{"access":"yes","bicycle_pa":"stands","capacity":4,"covered":"no","fee":"no","operator":"","nameSource":"junction"},"sourceId":"osm"},{"id":"osm:node:12765640629","latitude":52.4038821,"longitude":-1.56302,"name":"Tile Hill Lane near Eastcotes","properties":{"access":"yes","bicycle_pa":"stands","capacity":2,"covered":"no","fee":"no","operator":"","nameSource":"junction"},"sourceId":"osm"},{"id":"osm:node:12782481563","latitude":52.3944147,"longitude":-1.5596864,"name":"Prior Deram Walk near Sheriff Avenue","properties":{"access":"yes","bicycle_pa":"post_hoop","capacity":1,"covered":"no","fee":"no","operator":"","nameSource":"junction"},"sourceId":"osm"},{"id":"osm:node:12782481564","latitude":52.3946605,"longitude":-1.5583994,"name":"Queen Margaret's Road near Prior Deram Walk","properties":{"access":"yes","bicycle_pa":"post_hoop","capacity":1,"covered":"no","fee":"no","operator":"","nameSource":"junction"},"sourceId":"osm"},{"id":"osm:node:12791370558","latitude":52.4172141,"longitude":-1.5268596,"name":"Barkers Butts Lane near Moseley Avenue","properties":{"access":"yes","bicycle_pa":"stands","capacity":2,"covered":"no","fee":"no","operator":"","nameSource":"junction"},"sourceId":"osm"},{"id":"osm:node:12791370562","latitude":52.4170804,"longitude":-1.5266499,"name":"Barkers Butts Lane near Moseley Avenue","properties":{"access":"yes","bicycle_pa":"stands","capacity":4,"covered":"no","fee":"no","operator":"","nameSource":"junction"},"sourceId":"osm"},{"id":"osm:node:12791370572","latitude":52.4165312,"longitude":-1.5256221,"name":"Barkers Butts Lane near Thamley Road","properties":{"access":"yes","bicycle_pa":"stands","capacity":2,"covered":"no","fee":"no","operator":"","nameSource":"junction"},"sourceId":"osm"},{"id":"osm:node:12791370580","latitude":52.4166855,"longitude":-1.5259207,"name":"Barkers Butts Lane near Thamley Road","properties":{"access":"yes","bicycle_pa":"stands","capacity":6,"covered":"no","fee":"no","operator":"","nameSource":"junction"},"sourceId":"osm"},{"id":"osm:node:12863484587","latitude":52.4217009,"longitude":-1.5347305,"name":"Coundon Cycleway near Scots Lane","properties":{"access":"yes","bicycle_pa":"stands","capacity":1,"covered":"no","fee":"no","operator":"","nameSource":"junction"},"sourceId":"osm"},{"id":"osm:node:12888201983","latitude":52.4052298,"longitude":-1.505074,"name":"Much Park Street near White Friars Lane","properties":{"access":"unknown","bicycle_pa":"stands","capacity":12,"covered":"yes","fee":"","operator":"","nameSource":"junction"},"sourceId":"osm"},{"id":"osm:node:12965881806","latitude":52.4176423,"longitude":-1.5444205,"name":"Bevington Crescent cycle parking","properties":{"access":"yes","bicycle_pa":"stands","capacity":2,"covered":"no","fee":"no","operator":"","nameSource":"street"},"sourceId":"osm"},{"id":"osm:node:13208698909","latitude":52.4069277,"longitude":-1.5036805,"name":"Gosford Street near Cox Street","properties":{"access":"unknown","bicycle_pa":"stands","capacity":10,"covered":"no","fee":"","operator":"","nameSource":"junction"},"sourceId":"osm"},{"id":"osm:node:13529358425","latitude":52.3850226,"longitude":-1.563823,"name":"Millburn Hill Road cycle parking","properties":{"access":"unknown","bicycle_pa":"safe_loops","capacity":104,"covered":"yes","fee":"","operator":"","nameSource":"street"},"sourceId":"osm"},{"id":"osm:node:13531682082","latitude":52.3811559,"longitude":-1.5626583,"name":"Library Road by Cafe Social Sciences","properties":{"access":"unknown","bicycle_pa":"stands","capacity":6,"covered":"no","fee":"","operator":"","nameSource":"landmark"},"sourceId":"osm"},{"id":"osm:node:13531706004","latitude":52.3811579,"longitude":-1.5629094,"name":"Library Road cycle parking","properties":{"access":"unknown","bicycle_pa":"stands","capacity":20,"covered":"yes","fee":"","operator":"","nameSource":"street"},"sourceId":"osm"},{"id":"osm:node:13614387645","latitude":52.3995901,"longitude":-1.5605486,"name":"Torrington Avenue cycle parking","properties":{"access":"unknown","bicycle_pa":"stands","capacity":6,"covered":"no","fee":"no","operator":"","nameSource":"street"},"sourceId":"osm"},{"id":"osm:node:1481088097","latitude":52.3810548,"longitude":-1.5550081,"name":"Arthur Vick cycle parking","properties":{"access":"unknown","bicycle_pa":"stands","capacity":20,"covered":"no","fee":"","operator":"","nameSource":"landmark"},"sourceId":"osm"},{"id":"osm:node:1660666206","latitude":52.3845388,"longitude":-1.5597822,"name":"Academic Loop Road cycle parking","properties":{"access":"unknown","bicycle_pa":"stands","capacity":24,"covered":"yes","fee":"","operator":"","nameSource":"street"},"sourceId":"osm"},{"id":"osm:node:1983574810","latitude":52.4056831,"longitude":-1.5005441,"name":"Coventry University Lanchester Library cycle parking","properties":{"access":"private","bicycle_pa":"hoop","capacity":116,"covered":"yes","fee":"no","operator":"Coventry University","nameSource":"landmark"},"sourceId":"osm"},{"id":"osm:node:1983574851","latitude":52.4060207,"longitude":-1.4998436,"name":"Gosford Street cycle parking","properties":{"access":"private","bicycle_pa":"shed","capacity":38,"covered":"yes","fee":"yes","operator":"Coventry University","nameSource":"street"},"sourceId":"osm"},{"id":"osm:node:2006845367","latitude":52.4045326,"longitude":-1.5144042,"name":"Freemans Way near Warwick Row","properties":{"access":"unknown","bicycle_pa":"stands","capacity":8,"covered":"no","fee":"","operator":"","nameSource":"junction"},"sourceId":"osm"},{"id":"osm:node:2006845369","latitude":52.4047023,"longitude":-1.514008,"name":"Greyfriars Road near Warwick Row","properties":{"access":"unknown","bicycle_pa":"stands","capacity":6,"covered":"no","fee":"","operator":"","nameSource":"junction"},"sourceId":"osm"},{"id":"osm:node:2006845370","latitude":52.4056385,"longitude":-1.511956,"name":"Bull Yard near Dresden Place","properties":{"access":"unknown","bicycle_pa":"stands","capacity":18,"covered":"no","fee":"","operator":"","nameSource":"junction"},"sourceId":"osm"},{"id":"osm:node:2006845371","latitude":52.4065342,"longitude":-1.5163703,"name":"Croft Road near Queen Victoria Road","properties":{"access":"unknown","bicycle_pa":"stands","capacity":24,"covered":"no","fee":"no","operator":"","nameSource":"junction"},"sourceId":"osm"},{"id":"osm:node:2006845388","latitude":52.4067111,"longitude":-1.5039064,"name":"Gosford Street near Cox Street","properties":{"access":"unknown","bicycle_pa":"stands","capacity":12,"covered":"no","fee":"","operator":"","nameSource":"junction"},"sourceId":"osm"},{"id":"osm:node:2479989987","latitude":52.3771109,"longitude":-1.5605464,"name":"Opposite Bluebell 1 (CC98)","properties":{"access":"unknown","bicycle_pa":"stands","capacity":14,"covered":"no","fee":"","operator":"University of Warwick","nameSource":"source"},"sourceId":"osm"},{"id":"osm:node:2479989994","latitude":52.3776141,"longitude":-1.5594869,"name":"Opposite Bluebell 2 (CC97)","properties":{"access":"unknown","bicycle_pa":"stands","capacity":16,"covered":"no","fee":"","operator":"University of Warwick","nameSource":"source"},"sourceId":"osm"},{"id":"osm:node:2479990006","latitude":52.3779642,"longitude":-1.5586336,"name":"Bluebell cycle parking","properties":{"access":"unknown","bicycle_pa":"stands","capacity":20,"covered":"no","fee":"","operator":"","nameSource":"landmark"},"sourceId":"osm"},{"id":"osm:node:2479990012","latitude":52.3784099,"longitude":-1.5578675,"name":"Health Centre Road cycle parking","properties":{"access":"unknown","bicycle_pa":"stands","capacity":20,"covered":"no","fee":"","operator":"","nameSource":"street"},"sourceId":"osm"},{"id":"osm:node:2904929190","latitude":52.4060307,"longitude":-1.5079933,"name":"Little Park Street near Salt Lane","properties":{"access":"yes","bicycle_pa":"stands","capacity":8,"covered":"no","fee":"no","operator":"","nameSource":"junction"},"sourceId":"osm"},{"id":"osm:node:3058011342","latitude":52.4143504,"longitude":-1.5041532,"name":"Swanswell Street near Stoney Stanton Road","properties":{"access":"unknown","bicycle_pa":"stands","capacity":16,"covered":"no","fee":"","operator":"","nameSource":"junction"},"sourceId":"osm"},{"id":"osm:node:3058012630","latitude":52.4146597,"longitude":-1.504674,"name":"Stoney Stanton Road near Swanswell Street","properties":{"access":"unknown","bicycle_pa":"stands","capacity":38,"covered":"no","fee":"","operator":"","nameSource":"junction"},"sourceId":"osm"},{"id":"osm:node:3098337068","latitude":52.3914983,"longitude":-1.5238421,"name":"Styvechale Grange cycle parking","properties":{"access":"unknown","bicycle_pa":"stands","capacity":8,"covered":"no","fee":"","operator":"","nameSource":"place"},"sourceId":"osm"},{"id":"osm:node:312874600","latitude":52.3820027,"longitude":-1.5614601,"name":"Library Road by Library Road","properties":{"access":"unknown","bicycle_pa":"stands","capacity":20,"covered":"no","fee":"","operator":"","nameSource":"landmark"},"sourceId":"osm"},{"id":"osm:node:346266751","latitude":52.3828668,"longitude":-1.5635102,"name":"Lord Bhattacharyya Way cycle parking","properties":{"access":"unknown","bicycle_pa":"stands","capacity":72,"covered":"yes","fee":"","operator":"","nameSource":"street"},"sourceId":"osm"},{"id":"osm:node:3890283880","latitude":52.3810355,"longitude":-1.5658422,"name":"WBS cycle parking","properties":{"access":"unknown","bicycle_pa":"stands","capacity":16,"covered":"yes","fee":"","operator":"","nameSource":"landmark"},"sourceId":"osm"},{"id":"osm:node:3923543181","latitude":52.4063169,"longitude":-1.5011662,"name":"Gosford Street by Delimarche","properties":{"access":"unknown","bicycle_pa":"","capacity":0,"covered":"","fee":"","operator":"","nameSource":"landmark"},"sourceId":"osm"},{"id":"osm:node:4457271627","latitude":52.3816094,"longitude":-1.5602555,"name":"University Road near Academic Loop","properties":{"access":"unknown","bicycle_pa":"stands","capacity":32,"covered":"no","fee":"","operator":"","nameSource":"junction"},"sourceId":"osm"},{"id":"osm:node:4457271628","latitude":52.3816781,"longitude":-1.5601268,"name":"University Road near Academic Loop","properties":{"access":"unknown","bicycle_pa":"stands","capacity":36,"covered":"no","fee":"","operator":"","nameSource":"junction"},"sourceId":"osm"},{"id":"osm:node:4457271631","latitude":52.3816887,"longitude":-1.5587531,"name":"University Road near Academic Loop","properties":{"access":"unknown","bicycle_pa":"stands","capacity":30,"covered":"no","fee":"","operator":"","nameSource":"junction"},"sourceId":"osm"},{"id":"osm:node:4457271632","latitude":52.3880111,"longitude":-1.5554218,"name":"Lynchgate Road by Asian Street Foods","properties":{"access":"unknown","bicycle_pa":"wave","capacity":7,"covered":"no","fee":"","operator":"","nameSource":"landmark"},"sourceId":"osm"},{"id":"osm:node:4457271633","latitude":52.3881077,"longitude":-1.5557115,"name":"Lynchgate Road by Coventry Building Society","properties":{"access":"unknown","bicycle_pa":"wall_loops","capacity":5,"covered":"no","fee":"","operator":"","nameSource":"landmark"},"sourceId":"osm"},{"id":"osm:node:4464118455","latitude":52.3821738,"longitude":-1.5611015,"name":"Library Road near Lord Bhattacharyya Way","properties":{"access":"unknown","bicycle_pa":"stands","capacity":24,"covered":"no","fee":"","operator":"","nameSource":"junction"},"sourceId":"osm"},{"id":"osm:node:5047660775","latitude":52.3949124,"longitude":-1.5578864,"name":"Prior Deram Walk near Turnstone View","properties":{"access":"unknown","bicycle_pa":"stands","capacity":8,"covered":"no","fee":"","operator":"","nameSource":"junction"},"sourceId":"osm"},{"id":"osm:node:5049064063","latitude":52.3831673,"longitude":-1.5579764,"name":"Academic Loop Road near Academic Loop","properties":{"access":"unknown","bicycle_pa":"stands","capacity":12,"covered":"yes","fee":"","operator":"","nameSource":"junction"},"sourceId":"osm"},{"id":"osm:node:5049271429","latitude":52.3780553,"longitude":-1.5637682,"name":"Cryfield (CV7)","properties":{"access":"unknown","bicycle_pa":"anchors","capacity":24,"covered":"no","fee":"","operator":"University of Warwick","nameSource":"source"},"sourceId":"osm"},{"id":"osm:node:5049271432","latitude":52.3774277,"longitude":-1.5617729,"name":"Rootes Allesley House (CC4)","properties":{"access":"unknown","bicycle_pa":"anchors","capacity":5,"covered":"no","fee":"","operator":"University of Warwick","nameSource":"source"},"sourceId":"osm"},{"id":"osm:node:5049280234","latitude":52.3775938,"longitude":-1.5614112,"name":"Rootes Allesly House (CC6)","properties":{"access":"unknown","bicycle_pa":"anchors","capacity":5,"covered":"no","fee":"","operator":"Univeristy of Warwick","nameSource":"source"},"sourceId":"osm"},{"id":"osm:node:5049280235","latitude":52.377165,"longitude":-1.5617239,"name":"Rootes Draycott House (CC1)","properties":{"access":"unknown","bicycle_pa":"anchors","capacity":5,"covered":"no","fee":"","operator":"University of Warwick","nameSource":"source"},"sourceId":"osm"},{"id":"osm:node:5049280236","latitude":52.3773096,"longitude":-1.5614182,"name":"Rootes Draycott House (CC3)","properties":{"access":"unknown","bicycle_pa":"anchors","capacity":5,"covered":"no","fee":"","operator":"University of Warwick","nameSource":"source"},"sourceId":"osm"},{"id":"osm:node:5049280237","latitude":52.3774739,"longitude":-1.5610453,"name":"Rootes Draycott House (CC5)","properties":{"access":"unknown","bicycle_pa":"anchors","capacity":6,"covered":"no","fee":"","operator":"University of Warwick","nameSource":"source"},"sourceId":"osm"},{"id":"osm:node:5049349330","latitude":52.3776405,"longitude":-1.5606634,"name":"Rootes Gibbet House (CC8)","properties":{"access":"unknown","bicycle_pa":"anchors","capacity":3,"covered":"no","fee":"","operator":"University of Warwick","nameSource":"source"},"sourceId":"osm"},{"id":"osm:node:5049374307","latitude":52.3784067,"longitude":-1.5605501,"name":"Students' Union - behind (CC107)","properties":{"access":"permissive","bicycle_pa":"stands","capacity":12,"covered":"no","fee":"","operator":"University of Warwick","nameSource":"source"},"sourceId":"osm"},{"id":"osm:node:5049374308","latitude":52.3783816,"longitude":-1.5593758,"name":"Rootes Kirby Lodge (CC11)","properties":{"access":"unknown","bicycle_pa":"anchors","capacity":7,"covered":"no","fee":"","operator":"University of Warwick","nameSource":"source"},"sourceId":"osm"},{"id":"osm:node:5049374309","latitude":52.3785612,"longitude":-1.5590543,"name":"Rootes Kirby Lodge (CC13)","properties":{"access":"unknown","bicycle_pa":"anchors","capacity":7,"covered":"no","fee":"","operator":"University of Warwick","nameSource":"source"},"sourceId":"osm"},{"id":"osm:node:5049374310","latitude":52.3787426,"longitude":-1.5587295,"name":"Rootes Kirby Lodge (CC15)","properties":{"access":"unknown","bicycle_pa":"anchors","capacity":7,"covered":"no","fee":"","operator":"University of Warwick","nameSource":"source"},"sourceId":"osm"},{"id":"osm:node:5049374311","latitude":52.3781089,"longitude":-1.5588873,"name":"Rootes Merriden House (CC10)","properties":{"access":"unknown","bicycle_pa":"anchors","capacity":7,"covered":"no","fee":"","operator":"University of Warwick","nameSource":"source"},"sourceId":"osm"},{"id":"osm:node:5049374312","latitude":52.3782673,"longitude":-1.5585956,"name":"Rootes Merriden House (CC12)","properties":{"access":"unknown","bicycle_pa":"anchors","capacity":7,"covered":"no","fee":"","operator":"University of Warwick","nameSource":"source"},"sourceId":"osm"},{"id":"osm:node:5049374313","latitude":52.3784069,"longitude":-1.5583289,"name":"Rootes Merriden House (CC14)","properties":{"access":"unknown","bicycle_pa":"anchors","capacity":7,"covered":"no","fee":"","operator":"University of Warwick","nameSource":"source"},"sourceId":"osm"},{"id":"osm:node:5049374314","latitude":52.3790597,"longitude":-1.5580503,"name":"Health Centre (CC16)","properties":{"access":"unknown","bicycle_pa":"anchors","capacity":8,"covered":"no","fee":"","operator":"University of Warwick","nameSource":"source"},"sourceId":"osm"},{"id":"osm:node:5049386592","latitude":52.3797117,"longitude":-1.5589524,"name":"Oculus (CC104)","properties":{"access":"yes","bicycle_pa":"shed","capacity":48,"covered":"yes","fee":"no","operator":"University of Warwick","nameSource":"source"},"sourceId":"osm"},{"id":"osm:node:5049386593","latitude":52.3799079,"longitude":-1.5592607,"name":"Oculus (CC103)","properties":{"access":"unknown","bicycle_pa":"stands","capacity":56,"covered":"no","fee":"","operator":"University of Warwick","nameSource":"source"},"sourceId":"osm"},{"id":"osm:node:5049437141","latitude":52.3789039,"longitude":-1.5610981,"name":"Piazza (CC106)","properties":{"access":"permissive","bicycle_pa":"stands","capacity":20,"covered":"no","fee":"","operator":"University of Warwick","nameSource":"source"},"sourceId":"osm"},{"id":"osm:node:5049437142","latitude":52.3795762,"longitude":-1.5594963,"name":"Whitefields (CC37)","properties":{"access":"unknown","bicycle_pa":"wall_loops","capacity":3,"covered":"no","fee":"","operator":"University of Warwick","nameSource":"source"},"sourceId":"osm"},{"id":"osm:node:5049439632","latitude":52.3798737,"longitude":-1.5625364,"name":"Bus interchange (CC51)","properties":{"access":"permissive","bicycle_pa":"stands","capacity":10,"covered":"no","fee":"","operator":"University of Warwick","nameSource":"source"},"sourceId":"osm"},{"id":"osm:node:5056091851","latitude":52.382032,"longitude":-1.5613602,"name":"Library Road by Library Road","properties":{"access":"unknown","bicycle_pa":"stands","capacity":32,"covered":"no","fee":"","operator":"","nameSource":"landmark"},"sourceId":"osm"},{"id":"osm:node:5056353469","latitude":52.3796387,"longitude":-1.5598369,"name":"University Road near Health Centre Road","properties":{"access":"unknown","bicycle_pa":"stands","capacity":12,"covered":"yes","fee":"","operator":"","nameSource":"junction"},"sourceId":"osm"},{"id":"osm:node:5062688720","latitude":52.3894349,"longitude":-1.5595873,"name":"Aroma cycle parking","properties":{"access":"unknown","bicycle_pa":"","capacity":14,"covered":"","fee":"","operator":"","nameSource":"landmark"},"sourceId":"osm"},{"id":"osm:node:5098045858","latitude":52.38725,"longitude":-1.5555053,"name":"Lynchgate Road by Happy Lemon","properties":{"access":"unknown","bicycle_pa":"stands","capacity":26,"covered":"no","fee":"no","operator":"","nameSource":"landmark"},"sourceId":"osm"},{"id":"osm:node:5216252165","latitude":52.3830814,"longitude":-1.5563417,"name":"Academic Loop Road cycle parking","properties":{"access":"unknown","bicycle_pa":"","capacity":0,"covered":"","fee":"","operator":"","nameSource":"street"},"sourceId":"osm"},{"id":"osm:node:5216255053","latitude":52.3833649,"longitude":-1.5561003,"name":"Academic Loop Road by Claycroft","properties":{"access":"unknown","bicycle_pa":"rack","capacity":4,"covered":"yes","fee":"","operator":"","nameSource":"landmark"},"sourceId":"osm"},{"id":"osm:node:5723401169","latitude":52.3833174,"longitude":-1.5567364,"name":"Academic Loop Road by Claycroft","properties":{"access":"unknown","bicycle_pa":"stands","capacity":10,"covered":"no","fee":"","operator":"","nameSource":"landmark"},"sourceId":"osm"},{"id":"osm:node:5723407093","latitude":52.3819453,"longitude":-1.5584794,"name":"Academic Loop cycle parking","properties":{"access":"unknown","bicycle_pa":"stands","capacity":12,"covered":"no","fee":"","operator":"","nameSource":"street"},"sourceId":"osm"},{"id":"osm:node:5723483759","latitude":52.382454,"longitude":-1.5609756,"name":"Library Road near Lord Bhattacharyya Way","properties":{"access":"unknown","bicycle_pa":"stands","capacity":18,"covered":"no","fee":"","operator":"","nameSource":"junction"},"sourceId":"osm"},{"id":"osm:node:632271073","latitude":52.3813815,"longitude":-1.5680559,"name":"Scarman Road cycle parking","properties":{"access":"unknown","bicycle_pa":"stands","capacity":8,"covered":"no","fee":"","operator":"","nameSource":"street"},"sourceId":"osm"},{"id":"osm:node:632304866","latitude":52.3807665,"longitude":-1.5693016,"name":"Warwick Lakeside cycle parking","properties":{"access":"unknown","bicycle_pa":"stands","capacity":24,"covered":"yes","fee":"","operator":"","nameSource":"landmark"},"sourceId":"osm"},{"id":"osm:node:632311351","latitude":52.3804665,"longitude":-1.5707094,"name":"Warwick Lakeside cycle parking","properties":{"access":"unknown","bicycle_pa":"stands","capacity":24,"covered":"yes","fee":"","operator":"","nameSource":"landmark"},"sourceId":"osm"},{"id":"osm:node:632323334","latitude":52.3798762,"longitude":-1.5723258,"name":"Kirby Corner cycle parking","properties":{"access":"yes","bicycle_pa":"shed","capacity":8,"covered":"","fee":"no","operator":"","nameSource":"place"},"sourceId":"osm"},{"id":"osm:node:632323438","latitude":52.3799171,"longitude":-1.5723016,"name":"Kirby Corner cycle parking","properties":{"access":"yes","bicycle_pa":"shed","capacity":8,"covered":"","fee":"no","operator":"","nameSource":"place"},"sourceId":"osm"},{"id":"osm:node:632325533","latitude":52.3792578,"longitude":-1.5718108,"name":"Kirby Corner cycle parking","properties":{"access":"unknown","bicycle_pa":"stands","capacity":8,"covered":"no","fee":"","operator":"","nameSource":"place"},"sourceId":"osm"},{"id":"osm:node:632325595","latitude":52.3790368,"longitude":-1.5717331,"name":"Kirby Corner cycle parking","properties":{"access":"unknown","bicycle_pa":"stands","capacity":8,"covered":"no","fee":"","operator":"","nameSource":"place"},"sourceId":"osm"},{"id":"osm:node:632332895","latitude":52.3796301,"longitude":-1.568216,"name":"Kirby Corner cycle parking","properties":{"access":"unknown","bicycle_pa":"stands","capacity":8,"covered":"no","fee":"","operator":"","nameSource":"place"},"sourceId":"osm"},{"id":"osm:node:632333078","latitude":52.3797955,"longitude":-1.5679934,"name":"Kirby Corner cycle parking","properties":{"access":"unknown","bicycle_pa":"stands","capacity":8,"covered":"no","fee":"","operator":"","nameSource":"place"},"sourceId":"osm"},{"id":"osm:node:632333461","latitude":52.3799919,"longitude":-1.5682723,"name":"Warwick Lakeside cycle parking","properties":{"access":"unknown","bicycle_pa":"stands","capacity":8,"covered":"no","fee":"","operator":"","nameSource":"landmark"},"sourceId":"osm"},{"id":"osm:node:632333662","latitude":52.3785799,"longitude":-1.5701684,"name":"Leighfield Road cycle parking","properties":{"access":"unknown","bicycle_pa":"stands","capacity":8,"covered":"no","fee":"","operator":"","nameSource":"street"},"sourceId":"osm"},{"id":"osm:node:632333876","latitude":52.3787902,"longitude":-1.5696241,"name":"Leighfield Road cycle parking","properties":{"access":"unknown","bicycle_pa":"stands","capacity":8,"covered":"no","fee":"","operator":"","nameSource":"street"},"sourceId":"osm"},{"id":"osm:node:632333974","latitude":52.379039,"longitude":-1.569262,"name":"Kirby Corner cycle parking","properties":{"access":"unknown","bicycle_pa":"stands","capacity":8,"covered":"no","fee":"","operator":"","nameSource":"place"},"sourceId":"osm"},{"id":"osm:node:632334213","latitude":52.3791645,"longitude":-1.5694423,"name":"Kirby Corner cycle parking","properties":{"access":"unknown","bicycle_pa":"stands","capacity":8,"covered":"no","fee":"","operator":"","nameSource":"place"},"sourceId":"osm"},{"id":"osm:node:632334566","latitude":52.379188,"longitude":-1.568967,"name":"Kirby Corner cycle parking","properties":{"access":"unknown","bicycle_pa":"stands","capacity":8,"covered":"no","fee":"","operator":"","nameSource":"place"},"sourceId":"osm"},{"id":"osm:node:632334744","latitude":52.3793436,"longitude":-1.569313,"name":"Warwick Lakeside cycle parking","properties":{"access":"unknown","bicycle_pa":"stands","capacity":8,"covered":"no","fee":"","operator":"","nameSource":"landmark"},"sourceId":"osm"},{"id":"osm:node:632334834","latitude":52.3793747,"longitude":-1.5686854,"name":"Kirby Corner cycle parking","properties":{"access":"unknown","bicycle_pa":"stands","capacity":8,"covered":"no","fee":"","operator":"","nameSource":"place"},"sourceId":"osm"},{"id":"osm:node:632334962","latitude":52.3795351,"longitude":-1.5690153,"name":"Warwick Lakeside cycle parking","properties":{"access":"unknown","bicycle_pa":"stands","capacity":8,"covered":"no","fee":"","operator":"","nameSource":"landmark"},"sourceId":"osm"},{"id":"osm:node:632356414","latitude":52.3883213,"longitude":-1.5643475,"name":"Avon Road cycle parking","properties":{"access":"unknown","bicycle_pa":"stands","capacity":10,"covered":"yes","fee":"","operator":"","nameSource":"street"},"sourceId":"osm"},{"id":"osm:node:632358361","latitude":52.3883443,"longitude":-1.56225,"name":"Avon Road cycle parking","properties":{"access":"unknown","bicycle_pa":"","capacity":10,"covered":"","fee":"","operator":"","nameSource":"street"},"sourceId":"osm"},{"id":"osm:node:633480861","latitude":52.3797014,"longitude":-1.5570802,"name":"Jack Martin (CC19)","properties":{"access":"unknown","bicycle_pa":"anchors","capacity":30,"covered":"no","fee":"","operator":"University of Warwick","nameSource":"source"},"sourceId":"osm"},{"id":"osm:node:633480862","latitude":52.3794976,"longitude":-1.5582307,"name":"Jack Martin (CC20)","properties":{"access":"unknown","bicycle_pa":"anchors","capacity":30,"covered":"yes","fee":"","operator":"University of Warwick","nameSource":"source"},"sourceId":"osm"},{"id":"osm:node:633480863","latitude":52.3792309,"longitude":-1.5567682,"name":"Jack Martin (CC17)","properties":{"access":"unknown","bicycle_pa":"anchors","capacity":30,"covered":"no","fee":"","operator":"University of Warwick","nameSource":"source"},"sourceId":"osm"},{"id":"osm:node:633480864","latitude":52.3794888,"longitude":-1.5563519,"name":"Jack Martin (CC18)","properties":{"access":"unknown","bicycle_pa":"anchors","capacity":30,"covered":"no","fee":"","operator":"University of Warwick","nameSource":"source"},"sourceId":"osm"},{"id":"osm:node:6444761002","latitude":52.407386,"longitude":-1.4980084,"name":"Far Gosford Street near Lower Ford Street","properties":{"access":"unknown","bicycle_pa":"","capacity":8,"covered":"no","fee":"","operator":"","nameSource":"junction"},"sourceId":"osm"},{"id":"osm:node:6445831351","latitude":52.4075038,"longitude":-1.4943586,"name":"Fargo Village near Far Gosford Street","properties":{"access":"unknown","bicycle_pa":"","capacity":8,"covered":"no","fee":"","operator":"","nameSource":"junction"},"sourceId":"osm"},{"id":"osm:node:6446644485","latitude":52.4051173,"longitude":-1.5049714,"name":"White Friars Lane near Much Park Street","properties":{"access":"private","bicycle_pa":"hoop","capacity":10,"covered":"no","fee":"no","operator":"Coventry University","nameSource":"junction"},"sourceId":"osm"},{"id":"osm:node:6446644486","latitude":52.4051664,"longitude":-1.5049419,"name":"White Friars Lane near Much Park Street","properties":{"access":"private","bicycle_pa":"hoop","capacity":12,"covered":"yes","fee":"","operator":"Coventry University","nameSource":"junction"},"sourceId":"osm"},{"id":"osm:node:6446644496","latitude":52.4055869,"longitude":-1.5051484,"name":"Much Park Street near St Johns Street","properties":{"access":"private","bicycle_pa":"hoop","capacity":8,"covered":"no","fee":"","operator":"Coventry University","nameSource":"junction"},"sourceId":"osm"},{"id":"osm:node:6454329178","latitude":52.3808292,"longitude":-1.5602589,"name":"Social Sciences by Caffè Nero","properties":{"access":"unknown","bicycle_pa":"stands","capacity":20,"covered":"no","fee":"","operator":"","nameSource":"landmark"},"sourceId":"osm"},{"id":"osm:node:668140635","latitude":52.3992865,"longitude":-1.5472242,"name":"Pilkington Road near Canley Road","properties":{"access":"unknown","bicycle_pa":"stands","capacity":20,"covered":"yes","fee":"no","operator":"","nameSource":"junction"},"sourceId":"osm"},{"id":"osm:node:696002103","latitude":52.3827006,"longitude":-1.5613073,"name":"Lord Bhattacharyya Way near Library Road","properties":{"access":"unknown","bicycle_pa":"stands","capacity":60,"covered":"yes","fee":"","operator":"","nameSource":"junction"},"sourceId":"osm"},{"id":"osm:node:7230063172","latitude":52.3840373,"longitude":-1.5609888,"name":"Academic Loop Road cycle parking","properties":{"access":"unknown","bicycle_pa":"stands","capacity":52,"covered":"yes","fee":"no","operator":"","nameSource":"street"},"sourceId":"osm"},{"id":"osm:node:7232866438","latitude":52.3951196,"longitude":-1.5162093,"name":"Leamington Road near Humphrey Burton's Road","properties":{"access":"unknown","bicycle_pa":"stands","capacity":16,"covered":"no","fee":"no","operator":"","nameSource":"junction"},"sourceId":"osm"},{"id":"osm:node:7232882848","latitude":52.3843109,"longitude":-1.561178,"name":"Academic Loop Road cycle parking","properties":{"access":"unknown","bicycle_pa":"stands","capacity":14,"covered":"yes","fee":"","operator":"","nameSource":"street"},"sourceId":"osm"},{"id":"osm:node:736131320","latitude":52.3871729,"longitude":-1.5555449,"name":"Lynchgate Road by Happy Lemon","properties":{"access":"unknown","bicycle_pa":"stands","capacity":18,"covered":"no","fee":"no","operator":"","nameSource":"landmark"},"sourceId":"osm"},{"id":"osm:node:743366837","latitude":52.3871265,"longitude":-1.5645569,"name":"Kirby Corner Road cycle parking","properties":{"access":"unknown","bicycle_pa":"stands","capacity":5,"covered":"no","fee":"","operator":"","nameSource":"street"},"sourceId":"osm"},{"id":"osm:node:743384402","latitude":52.3821872,"longitude":-1.5592309,"name":"Academic Loop near University Road","properties":{"access":"unknown","bicycle_pa":"stands","capacity":64,"covered":"yes","fee":"","operator":"","nameSource":"junction"},"sourceId":"osm"},{"id":"osm:node:8567618540","latitude":52.3812356,"longitude":-1.5634862,"name":"Library Road by Centre for Interdisciplinary Methodologies","properties":{"access":"unknown","bicycle_pa":"stands","capacity":10,"covered":"no","fee":"","operator":"","nameSource":"landmark"},"sourceId":"osm"},{"id":"osm:node:8567618549","latitude":52.3818855,"longitude":-1.5623827,"name":"Library Road cycle parking","properties":{"access":"unknown","bicycle_pa":"stands","capacity":50,"covered":"no","fee":"","operator":"","nameSource":"street"},"sourceId":"osm"},{"id":"osm:node:8567618553","latitude":52.3812763,"longitude":-1.5634137,"name":"Library Road cycle parking","properties":{"access":"unknown","bicycle_pa":"stands","capacity":10,"covered":"no","fee":"","operator":"","nameSource":"street"},"sourceId":"osm"},{"id":"osm:node:8567618564","latitude":52.381097,"longitude":-1.5635914,"name":"Library Road by Centre for Interdisciplinary Methodologies","properties":{"access":"unknown","bicycle_pa":"stands","capacity":16,"covered":"no","fee":"","operator":"","nameSource":"landmark"},"sourceId":"osm"},{"id":"osm:node:9411179088","latitude":52.4238241,"longitude":-1.5223759,"name":"Villa Road near Radford Road","properties":{"access":"permissive","bicycle_pa":"","capacity":0,"covered":"yes","fee":"","operator":"","nameSource":"junction"},"sourceId":"osm"},{"id":"osm:node:9416517375","latitude":52.4015695,"longitude":-1.5152345,"name":"Warwick Road Cycle Hub","properties":{"access":"yes","bicycle_pa":"building","capacity":176,"covered":"yes","fee":"no","operator":"Coventry City Council","nameSource":"source"},"sourceId":"osm"},{"id":"osm:node:9476513240","latitude":52.3821086,"longitude":-1.5615842,"name":"Library Road by Library Road","properties":{"access":"unknown","bicycle_pa":"stands","capacity":9,"covered":"no","fee":"","operator":"","nameSource":"landmark"},"sourceId":"osm"},{"id":"osm:node:9643100504","latitude":52.4007932,"longitude":-1.5125655,"name":"Platform 1 Cycle Parking","properties":{"access":"customers","bicycle_pa":"stands","capacity":118,"covered":"no","fee":"yes","operator":"Avanti West Coast","nameSource":"source"},"sourceId":"osm"},{"id":"osm:node:9643100505","latitude":52.4013176,"longitude":-1.5161445,"name":"Bus Interchange Cycle Parking","properties":{"access":"yes","bicycle_pa":"stands","capacity":12,"covered":"no","fee":"no","operator":"","nameSource":"source"},"sourceId":"osm"},{"id":"osm:node:9766711945","latitude":52.407902,"longitude":-1.5059995,"name":"University Square near Priory Street","properties":{"access":"private","bicycle_pa":"hoop","capacity":46,"covered":"no","fee":"no","operator":"Coventry University","nameSource":"junction"},"sourceId":"osm"},{"id":"osm:node:9766711946","latitude":52.407891,"longitude":-1.5054604,"name":"University Square cycle parking","properties":{"access":"private","bicycle_pa":"wall_hoops","capacity":6,"covered":"no","fee":"no","operator":"Coventry University","nameSource":"street"},"sourceId":"osm"},{"id":"osm:node:9766711947","latitude":52.4080663,"longitude":-1.5053966,"name":"University Square cycle parking","properties":{"access":"private","bicycle_pa":"wall_hoops","capacity":9,"covered":"no","fee":"no","operator":"Coventry University","nameSource":"street"},"sourceId":"osm"},{"id":"osm:node:9766711948","latitude":52.4101175,"longitude":-1.5006327,"name":"Raglan Street near Vine Street","properties":{"access":"private","bicycle_pa":"hoop","capacity":12,"covered":"no","fee":"no","operator":"Coventry University","nameSource":"junction"},"sourceId":"osm"},{"id":"osm:node:9766711949","latitude":52.4100779,"longitude":-1.5006361,"name":"Raglan Street near Vine Street","properties":{"access":"private","bicycle_pa":"shed","capacity":10,"covered":"yes","fee":"","operator":"Coventry University","nameSource":"junction"},"sourceId":"osm"},{"id":"osm:node:9766711950","latitude":52.4099526,"longitude":-1.500647,"name":"Alma Street cycle parking","properties":{"access":"private","bicycle_pa":"hoop","capacity":4,"covered":"no","fee":"no","operator":"Coventry University","nameSource":"street"},"sourceId":"osm"},{"id":"osm:node:9766711951","latitude":52.4099805,"longitude":-1.5007828,"name":"Alma Street cycle parking","properties":{"access":"private","bicycle_pa":"hoop","capacity":2,"covered":"no","fee":"","operator":"Coventry University","nameSource":"street"},"sourceId":"osm"},{"id":"osm:node:9766711952","latitude":52.4096042,"longitude":-1.4987328,"name":"Alma Street near Hood Street","properties":{"access":"private","bicycle_pa":"hoop","capacity":4,"covered":"no","fee":"no","operator":"Coventry University","nameSource":"junction"},"sourceId":"osm"},{"id":"osm:node:9766795267","latitude":52.407379,"longitude":-1.5013922,"name":"Ringway Whitefriars cycle parking","properties":{"access":"private","bicycle_pa":"lockers","capacity":12,"covered":"yes","fee":"no","operator":"Coventry University","nameSource":"street"},"sourceId":"osm"},{"id":"osm:node:9766795268","latitude":52.4074176,"longitude":-1.5012924,"name":"Pool Meadow to Gosford St cycle path cycle parking","properties":{"access":"private","bicycle_pa":"wall_hoops","capacity":4,"covered":"yes","fee":"no","operator":"Coventry University","nameSource":"street"},"sourceId":"osm"},{"id":"osm:node:9766795269","latitude":52.4073966,"longitude":-1.5011328,"name":"Pool Meadow to Gosford St cycle path by CU Coventry","properties":{"access":"private","bicycle_pa":"wall_hoops","capacity":6,"covered":"no","fee":"no","operator":"Coventry University","nameSource":"landmark"},"sourceId":"osm"},{"id":"osm:node:9766795270","latitude":52.4074676,"longitude":-1.5010069,"name":"Pool Meadow to Gosford St cycle path by CU Coventry","properties":{"access":"private","bicycle_pa":"lockers","capacity":5,"covered":"yes","fee":"no","operator":"Coventry University","nameSource":"landmark"},"sourceId":"osm"},{"id":"osm:node:9766795271","latitude":52.4071578,"longitude":-1.4998669,"name":"Gosford Street near Far Gosford Street","properties":{"access":"private","bicycle_pa":"hoop","capacity":14,"covered":"no","fee":"no","operator":"Coventry University","nameSource":"junction"},"sourceId":"osm"},{"id":"osm:node:9766795272","latitude":52.4072278,"longitude":-1.4998192,"name":"Gosford Street near Far Gosford Street","properties":{"access":"private","bicycle_pa":"lockers","capacity":8,"covered":"yes","fee":"no","operator":"Coventry University","nameSource":"junction"},"sourceId":"osm"},{"id":"osm:node:9766795273","latitude":52.407349,"longitude":-1.4999154,"name":"Pool Meadow to Gosford St cycle path by Costa","properties":{"access":"private","bicycle_pa":"lockers","capacity":6,"covered":"yes","fee":"no","operator":"Coventry University","nameSource":"landmark"},"sourceId":"osm"},{"id":"osm:node:9766844053","latitude":52.408638,"longitude":-1.5057981,"name":"Priory Street near University Square","properties":{"access":"private","bicycle_pa":"wall_hoops","capacity":10,"covered":"no","fee":"no","operator":"Coventry University","nameSource":"junction"},"sourceId":"osm"},{"id":"osm:node:9766844054","latitude":52.4088193,"longitude":-1.5061278,"name":"Priory Street near University Square","properties":{"access":"private","bicycle_pa":"wall_hoops","capacity":2,"covered":"no","fee":"no","operator":"Coventry University","nameSource":"junction"},"sourceId":"osm"},{"id":"osm:node:9766844055","latitude":52.4084804,"longitude":-1.5057448,"name":"University Square near Priory Street","properties":{"access":"private","bicycle_pa":"shed","capacity":24,"covered":"yes","fee":"no","operator":"Coventry University","nameSource":"junction"},"sourceId":"osm"},{"id":"osm:node:9766844056","latitude":52.4081747,"longitude":-1.5052459,"name":"Cope Street cycle parking","properties":{"access":"private","bicycle_pa":"hoop","capacity":12,"covered":"no","fee":"no","operator":"Coventry University","nameSource":"street"},"sourceId":"osm"},{"id":"osm:node:9766844057","latitude":52.4082634,"longitude":-1.5045049,"name":"Cope Street near Cox Street","properties":{"access":"private","bicycle_pa":"lockers","capacity":7,"covered":"yes","fee":"no","operator":"Coventry University","nameSource":"junction"},"sourceId":"osm"},{"id":"osm:node:9772525698","latitude":52.4054973,"longitude":-1.5035349,"name":"White Friars Street near White Friars Lane","properties":{"access":"private","bicycle_pa":"hoop","capacity":12,"covered":"yes","fee":"","operator":"Coventry University","nameSource":"junction"},"sourceId":"osm"},{"id":"osm:node:9772525699","latitude":52.405233,"longitude":-1.5050587,"name":"Much Park Street near White Friars Lane","properties":{"access":"private","bicycle_pa":"hoop","capacity":30,"covered":"yes","fee":"no","operator":"Coventry University","nameSource":"junction"},"sourceId":"osm"},{"id":"osm:node:9772525700","latitude":52.4120537,"longitude":-1.5100728,"name":"Henry Street near Tower Street","properties":{"access":"private","bicycle_pa":"hoop","capacity":10,"covered":"no","fee":"no","operator":"Coventry University","nameSource":"junction"},"sourceId":"osm"},{"id":"osm:node:9772525701","latitude":52.4122954,"longitude":-1.5106856,"name":"Tower Street near Henry Street","properties":{"access":"private","bicycle_pa":"shed","capacity":41,"covered":"yes","fee":"","operator":"Coventry University","nameSource":"junction"},"sourceId":"osm"},{"id":"osm:node:9772525702","latitude":52.4019116,"longitude":-1.502139,"name":"Cheetah Road cycle parking","properties":{"access":"private","bicycle_pa":"hoop","capacity":20,"covered":"yes","fee":"no","operator":"Coventry University","nameSource":"street"},"sourceId":"osm"},{"id":"osm:node:9772525703","latitude":52.4029565,"longitude":-1.5055639,"name":"Swift Road cycle parking","properties":{"access":"private","bicycle_pa":"shed","capacity":0,"covered":"yes","fee":"","operator":"Coventry University","nameSource":"street"},"sourceId":"osm"},{"id":"osm:node:9772525704","latitude":52.4017954,"longitude":-1.5076866,"name":"Merlin Close cycle parking","properties":{"access":"private","bicycle_pa":"hoop","capacity":20,"covered":"yes","fee":"no","operator":"Coventry University","nameSource":"street"},"sourceId":"osm"},{"id":"osm:node:9772718515","latitude":52.4056458,"longitude":-1.5009142,"name":"Ringway Whitefriars by Coventry University Lanchester Library","properties":{"access":"private","bicycle_pa":"hoop","capacity":20,"covered":"yes","fee":"no","operator":"Coventry University","nameSource":"landmark"},"sourceId":"osm"},{"id":"osm:node:9772718516","latitude":52.4058424,"longitude":-1.5011073,"name":"Ringway Whitefriars by Coventry University Lanchester Library","properties":{"access":"private","bicycle_pa":"hoop","capacity":32,"covered":"no","fee":"no","operator":"Coventry University","nameSource":"landmark"},"sourceId":"osm"},{"id":"osm:node:9772728017","latitude":52.4083129,"longitude":-1.4993452,"name":"Godiva Place near Lower Ford Street","properties":{"access":"private","bicycle_pa":"shed","capacity":40,"covered":"yes","fee":"","operator":"Coventry University","nameSource":"junction"},"sourceId":"osm"},{"id":"osm:node:9772728018","latitude":52.4088841,"longitude":-1.50057,"name":"Conisbrough Keep cycle parking","properties":{"access":"private","bicycle_pa":"shed","capacity":46,"covered":"yes","fee":"","operator":"Coventry University","nameSource":"street"},"sourceId":"osm"},{"id":"osm:node:9772728019","latitude":52.4087566,"longitude":-1.5007538,"name":"Conisbrough Keep cycle parking","properties":{"access":"private","bicycle_pa":"shed","capacity":58,"covered":"yes","fee":"","operator":"Coventry University","nameSource":"street"},"sourceId":"osm"},{"id":"osm:node:9772728020","latitude":52.4085961,"longitude":-1.5009734,"name":"Conisbrough Keep cycle parking","properties":{"access":"private","bicycle_pa":"shed","capacity":88,"covered":"yes","fee":"","operator":"Coventry University","nameSource":"street"},"sourceId":"osm"},{"id":"osm:node:9772728021","latitude":52.4021968,"longitude":-1.5049485,"name":"Swift Road near Puma Way","properties":{"access":"private","bicycle_pa":"hoop","capacity":4,"covered":"no","fee":"","operator":"Coventry University","nameSource":"junction"},"sourceId":"osm"},{"id":"osm:node:9772728022","latitude":52.4028217,"longitude":-1.5046011,"name":"Swift Road by Bistro","properties":{"access":"private","bicycle_pa":"hoop","capacity":10,"covered":"no","fee":"","operator":"Coventry University","nameSource":"landmark"},"sourceId":"osm"},{"id":"osm:node:9772728023","latitude":52.401161,"longitude":-1.5051204,"name":"Mile Lane cycle parking","properties":{"access":"private","bicycle_pa":"hoop","capacity":4,"covered":"no","fee":"","operator":"Coventry University","nameSource":"street"},"sourceId":"osm"},{"id":"osm:node:9772728024","latitude":52.4018264,"longitude":-1.5041206,"name":"Cheetah Road near Puma Way","properties":{"access":"private","bicycle_pa":"hoop","capacity":4,"covered":"no","fee":"","operator":"Coventry University","nameSource":"junction"},"sourceId":"osm"},{"id":"osm:node:9772728025","latitude":52.4095355,"longitude":-1.5060788,"name":"Priory Street near Fairfax Street","properties":{"access":"private","bicycle_pa":"lockers","capacity":6,"covered":"yes","fee":"","operator":"Coventry University","nameSource":"junction"},"sourceId":"osm"},{"id":"osm:node:9772728026","latitude":52.4042676,"longitude":-1.5126709,"name":"Manor House Drive near The Quadrant","properties":{"access":"private","bicycle_pa":"lockers","capacity":6,"covered":"yes","fee":"","operator":"Coventry University","nameSource":"junction"},"sourceId":"osm"},{"id":"osm:node:9772728027","latitude":52.4024104,"longitude":-1.5029682,"name":"Puma Way cycle parking","properties":{"access":"private","bicycle_pa":"hoop","capacity":20,"covered":"","fee":"","operator":"Coventry University","nameSource":"street"},"sourceId":"osm"},{"id":"osm:node:9772728028","latitude":52.4121716,"longitude":-1.5010193,"name":"Gazelle Close by St. Peter's Church Centre","properties":{"access":"private","bicycle_pa":"lockers","capacity":7,"covered":"yes","fee":"","operator":"Coventry University","nameSource":"landmark"},"sourceId":"osm"},{"id":"osm:node:9772728029","latitude":52.4120526,"longitude":-1.5004815,"name":"Gazelle Close near Canterbury Street","properties":{"access":"private","bicycle_pa":"lockers","capacity":2,"covered":"yes","fee":"","operator":"Coventry University","nameSource":"junction"},"sourceId":"osm"},{"id":"osm:node:9772728030","latitude":52.4113454,"longitude":-1.5009233,"name":"Gazelle Close cycle parking","properties":{"access":"private","bicycle_pa":"lockers","capacity":7,"covered":"yes","fee":"","operator":"Coventry University","nameSource":"street"},"sourceId":"osm"},{"id":"osm:node:9772728031","latitude":52.4112019,"longitude":-1.5002822,"name":"Vogue Close near Canterbury Street","properties":{"access":"private","bicycle_pa":"lockers","capacity":12,"covered":"yes","fee":"","operator":"Coventry University","nameSource":"junction"},"sourceId":"osm"},{"id":"osm:node:9772728032","latitude":52.4107695,"longitude":-1.5006433,"name":"Vogue Close cycle parking","properties":{"access":"private","bicycle_pa":"lockers","capacity":6,"covered":"yes","fee":"","operator":"Coventry University","nameSource":"street"},"sourceId":"osm"},{"id":"osm:node:9772728033","latitude":52.4056171,"longitude":-1.5052633,"name":"Much Park Street near St Johns Street","properties":{"access":"private","bicycle_pa":"lockers","capacity":6,"covered":"yes","fee":"","operator":"Coventry University","nameSource":"junction"},"sourceId":"osm"},{"id":"osm:node:9772739347","latitude":52.4059764,"longitude":-1.5039769,"name":"White Friars Street by Coventry University Sports Centre","properties":{"access":"private","bicycle_pa":"hoop","capacity":16,"covered":"no","fee":"","operator":"Coventry University","nameSource":"landmark"},"sourceId":"osm"},{"id":"osm:node:9772739348","latitude":52.4073214,"longitude":-1.5044389,"name":"Cox Street near Gosford Street","properties":{"access":"private","bicycle_pa":"hoop","capacity":34,"covered":"no","fee":"","operator":"Coventry University","nameSource":"junction"},"sourceId":"osm"},{"id":"osm:node:9772739349","latitude":52.4076868,"longitude":-1.5043396,"name":"Cox Street near Grove Street","properties":{"access":"private","bicycle_pa":"hoop","capacity":20,"covered":"yes","fee":"","operator":"Coventry University","nameSource":"junction"},"sourceId":"osm"},{"id":"osm:node:9772739350","latitude":52.4104905,"longitude":-1.5019284,"name":"Vine Street near Raglan Street","properties":{"access":"private","bicycle_pa":"shed","capacity":50,"covered":"yes","fee":"","operator":"Coventry University","nameSource":"junction"},"sourceId":"osm"},{"id":"osm:node:9772739351","latitude":52.4067423,"longitude":-1.5045293,"name":"Jordan Well near Cox Street","properties":{"access":"private","bicycle_pa":"hoop","capacity":10,"covered":"no","fee":"","operator":"Coventry University","nameSource":"junction"},"sourceId":"osm"},{"id":"osm:node:9772739352","latitude":52.4067664,"longitude":-1.5049647,"name":"Jordan Well near Cox Street","properties":{"access":"private","bicycle_pa":"hoop","capacity":6,"covered":"no","fee":"","operator":"Coventry University","nameSource":"junction"},"sourceId":"osm"},{"id":"osm:node:9772739353","latitude":52.4067819,"longitude":-1.5052358,"name":"Jordan Well near Much Park Street","properties":{"access":"private","bicycle_pa":"hoop","capacity":6,"covered":"no","fee":"","operator":"Coventry University","nameSource":"junction"},"sourceId":"osm"},{"id":"osm:node:9772739354","latitude":52.4069299,"longitude":-1.5051844,"name":"Jordan Well near Much Park Street","properties":{"access":"private","bicycle_pa":"hoop","capacity":10,"covered":"no","fee":"","operator":"Coventry University","nameSource":"junction"},"sourceId":"osm"},{"id":"osm:node:9772739355","latitude":52.4069194,"longitude":-1.5050133,"name":"Jordan Well near Cox Street","properties":{"access":"private","bicycle_pa":"hoop","capacity":2,"covered":"no","fee":"","operator":"Coventry University","nameSource":"junction"},"sourceId":"osm"},{"id":"osm:node:9772739356","latitude":52.4068732,"longitude":-1.5045023,"name":"Jordan Well near Cox Street","properties":{"access":"private","bicycle_pa":"hoop","capacity":10,"covered":"no","fee":"","operator":"Coventry University","nameSource":"junction"},"sourceId":"osm"},{"id":"osm:node:9772739357","latitude":52.4077972,"longitude":-1.5061184,"name":"University Square near Priory Street","properties":{"access":"private","bicycle_pa":"hoop","capacity":14,"covered":"no","fee":"","operator":"Coventry University","nameSource":"junction"},"sourceId":"osm"},{"id":"osm:node:9772739358","latitude":52.4077968,"longitude":-1.5060448,"name":"University Square near Priory Street","properties":{"access":"private","bicycle_pa":"shed","capacity":24,"covered":"yes","fee":"","operator":"Coventry University","nameSource":"junction"},"sourceId":"osm"},{"id":"osm:node:9809049528","latitude":52.4074339,"longitude":-1.5007461,"name":"Pool Meadow to Gosford St cycle path by CU Coventry","properties":{"access":"private","bicycle_pa":"wall_loops","capacity":16,"covered":"yes","fee":"no","operator":"Coventry University","nameSource":"landmark"},"sourceId":"osm"},{"id":"osm:node:9809049529","latitude":52.4071677,"longitude":-1.5040841,"name":"Cox Street near Gosford Street","properties":{"access":"private","bicycle_pa":"hoop","capacity":12,"covered":"no","fee":"","operator":"Coventry University","nameSource":"junction"},"sourceId":"osm"},{"id":"osm:node:9809049530","latitude":52.4078225,"longitude":-1.5038196,"name":"Cox Street near Grove Street","properties":{"access":"private","bicycle_pa":"hoop","capacity":4,"covered":"no","fee":"","operator":"Coventry University","nameSource":"junction"},"sourceId":"osm"},{"id":"osm:node:9809049531","latitude":52.4079154,"longitude":-1.5037851,"name":"Cox Street near Grove Street","properties":{"access":"private","bicycle_pa":"hoop","capacity":6,"covered":"no","fee":"","operator":"Coventry University","nameSource":"junction"},"sourceId":"osm"},{"id":"osm:node:9809049532","latitude":52.4063015,"longitude":-1.505236,"name":"Much Park Street by Loan Bike 1","properties":{"access":"private","bicycle_pa":"lockers","capacity":10,"covered":"yes","fee":"no","operator":"Coventry University","nameSource":"landmark"},"sourceId":"osm"},{"id":"osm:node:9809049533","latitude":52.406345,"longitude":-1.5052377,"name":"Much Park Street by Loan Bike 1","properties":{"access":"private","bicycle_pa":"wall_hoops","capacity":3,"covered":"yes","fee":"no","operator":"Coventry University","nameSource":"landmark"},"sourceId":"osm"},{"id":"osm:node:9809049534","latitude":52.4062511,"longitude":-1.5051621,"name":"Much Park Street by Loan Bike 1","properties":{"access":"private","bicycle_pa":"wall_hoops","capacity":5,"covered":"no","fee":"no","operator":"Coventry University","nameSource":"landmark"},"sourceId":"osm"},{"id":"osm:node:9809049535","latitude":52.4061998,"longitude":-1.5052182,"name":"Much Park Street by Loan Bike 1","properties":{"access":"private","bicycle_pa":"wall_hoops","capacity":7,"covered":"no","fee":"no","operator":"Coventry University","nameSource":"landmark"},"sourceId":"osm"},{"id":"osm:node:9809049536","latitude":52.4055755,"longitude":-1.5054117,"name":"Much Park Street near St Johns Street","properties":{"access":"private","bicycle_pa":"wall_hoops","capacity":8,"covered":"no","fee":"no","operator":"Coventry University","nameSource":"junction"},"sourceId":"osm"},{"id":"osm:node:9809049537","latitude":52.4010597,"longitude":-1.5068022,"name":"Merlin Close cycle parking","properties":{"access":"private","bicycle_pa":"hoop","capacity":20,"covered":"yes","fee":"no","operator":"Coventry University","nameSource":"street"},"sourceId":"osm"},{"id":"osm:node:9809049538","latitude":52.3999852,"longitude":-1.5061966,"name":"Mile Lane cycle parking","properties":{"access":"private","bicycle_pa":"hoop","capacity":20,"covered":"yes","fee":"no","operator":"Coventry University","nameSource":"street"},"sourceId":"osm"},{"id":"osm:node:9809049539","latitude":52.400373,"longitude":-1.5061105,"name":"Furlong Road near Mile Lane","properties":{"access":"private","bicycle_pa":"hoop","capacity":8,"covered":"no","fee":"","operator":"Coventry University","nameSource":"junction"},"sourceId":"osm"},{"id":"osm:node:9809049540","latitude":52.4008319,"longitude":-1.5063605,"name":"Mile Lane cycle parking","properties":{"access":"private","bicycle_pa":"wall_loops","capacity":3,"covered":"no","fee":"","operator":"Coventry University","nameSource":"street"},"sourceId":"osm"},{"id":"osm:node:9809049541","latitude":52.4008237,"longitude":-1.5062929,"name":"Mile Lane cycle parking","properties":{"access":"private","bicycle_pa":"lockers","capacity":5,"covered":"yes","fee":"","operator":"Coventry University","nameSource":"street"},"sourceId":"osm"},{"id":"osm:node:9809049542","latitude":52.4003242,"longitude":-1.5059048,"name":"Furlong Road near Mile Lane","properties":{"access":"private","bicycle_pa":"lockers","capacity":5,"covered":"yes","fee":"","operator":"Coventry University","nameSource":"junction"},"sourceId":"osm"},{"id":"osm:way:1154506965","latitude":52.381566240000005,"longitude":-1.57256302,"name":"Sherbourne cycle parking","properties":{"access":"unknown","bicycle_pa":"","capacity":0,"covered":"yes","fee":"","operator":"","nameSource":"landmark"},"sourceId":"osm"},{"id":"osm:way:1154506966","latitude":52.38181232000001,"longitude":-1.57234138,"name":"Sherbourne cycle parking","properties":{"access":"unknown","bicycle_pa":"","capacity":0,"covered":"yes","fee":"","operator":"","nameSource":"landmark"},"sourceId":"osm"},{"id":"osm:way:1154506967","latitude":52.382124239999996,"longitude":-1.5719553400000001,"name":"Sherbourne cycle parking","properties":{"access":"unknown","bicycle_pa":"","capacity":0,"covered":"yes","fee":"","operator":"","nameSource":"landmark"},"sourceId":"osm"},{"id":"osm:way:1154506968","latitude":52.38187333999999,"longitude":-1.57127742,"name":"Sherbourne cycle parking","properties":{"access":"unknown","bicycle_pa":"","capacity":0,"covered":"yes","fee":"","operator":"","nameSource":"landmark"},"sourceId":"osm"},{"id":"osm:way:1154506969","latitude":52.38156796,"longitude":-1.5714776799999999,"name":"Sherbourne cycle parking","properties":{"access":"unknown","bicycle_pa":"","capacity":0,"covered":"yes","fee":"","operator":"","nameSource":"landmark"},"sourceId":"osm"},{"id":"osm:way:1154506970","latitude":52.3815379,"longitude":-1.5717522599999998,"name":"Sherbourne cycle parking","properties":{"access":"unknown","bicycle_pa":"","capacity":0,"covered":"yes","fee":"","operator":"","nameSource":"landmark"},"sourceId":"osm"},{"id":"osm:way:1154506971","latitude":52.38135616000001,"longitude":-1.5718487399999999,"name":"Sherbourne cycle parking","properties":{"access":"unknown","bicycle_pa":"","capacity":0,"covered":"yes","fee":"","operator":"","nameSource":"landmark"},"sourceId":"osm"},{"id":"osm:way:1316169252","latitude":52.38004368000001,"longitude":-1.5733544599999998,"name":"Kirby Corner cycle parking","properties":{"access":"unknown","bicycle_pa":"","capacity":0,"covered":"yes","fee":"","operator":"","nameSource":"place"},"sourceId":"osm"},{"id":"osm:way:1316169253","latitude":52.380245720000005,"longitude":-1.57398182,"name":"Kirby Corner cycle parking","properties":{"access":"unknown","bicycle_pa":"","capacity":0,"covered":"yes","fee":"","operator":"","nameSource":"place"},"sourceId":"osm"},{"id":"osm:way:1316169254","latitude":52.38074508,"longitude":-1.5743456400000002,"name":"Kirby Corner cycle parking","properties":{"access":"unknown","bicycle_pa":"","capacity":0,"covered":"yes","fee":"","operator":"","nameSource":"place"},"sourceId":"osm"},{"id":"osm:way:1353980784","latitude":52.3872556,"longitude":-1.55550502,"name":"Lynchgate Road by Happy Lemon","properties":{"access":"yes","bicycle_pa":"stands","capacity":26,"covered":"no","fee":"no","operator":"","nameSource":"landmark"},"sourceId":"osm"},{"id":"osm:way:1353980785","latitude":52.387182259999996,"longitude":-1.55555036,"name":"Lynchgate Road by Happy Lemon","properties":{"access":"yes","bicycle_pa":"stands","capacity":18,"covered":"no","fee":"no","operator":"","nameSource":"landmark"},"sourceId":"osm"},{"id":"osm:way:1353981400","latitude":52.389143360000006,"longitude":-1.55462748,"name":"Shultern Lane by Aldi","properties":{"access":"unknown","bicycle_pa":"stands","capacity":26,"covered":"yes","fee":"no","operator":"","nameSource":"landmark"},"sourceId":"osm"},{"id":"osm:way:1360685132","latitude":52.40147626,"longitude":-1.55572134,"name":"Sainsbury's cycle parking","properties":{"access":"unknown","bicycle_pa":"stands","capacity":12,"covered":"yes","fee":"no","operator":"","nameSource":"landmark"},"sourceId":"osm"},{"id":"osm:way:1360695363","latitude":52.40285726,"longitude":-1.55771394,"name":"Herald Avenue by McDonald's","properties":{"access":"unknown","bicycle_pa":"stands","capacity":14,"covered":"no","fee":"no","operator":"","nameSource":"landmark"},"sourceId":"osm"},{"id":"osm:way:1365292283","latitude":52.4111397,"longitude":-1.52701648,"name":"Waveley Road by DFS","properties":{"access":"unknown","bicycle_pa":"stands","capacity":0,"covered":"","fee":"","operator":"","nameSource":"landmark"},"sourceId":"osm"},{"id":"osm:way:1365293557","latitude":52.411704400000005,"longitude":-1.5286747,"name":"Fabb Furniture cycle parking","properties":{"access":"yes","bicycle_pa":"stands","capacity":12,"covered":"no","fee":"no","operator":"","nameSource":"landmark"},"sourceId":"osm"},{"id":"osm:way:1365586483","latitude":52.4032283,"longitude":-1.546618,"name":"Tile Hill Lane cycle parking","properties":{"access":"unknown","bicycle_pa":"stands","capacity":14,"covered":"yes","fee":"no","operator":"","nameSource":"street"},"sourceId":"osm"},{"id":"osm:way:1368796824","latitude":52.39435126000001,"longitude":-1.50721088,"name":"Daventry Road near Quinton Road","properties":{"access":"yes","bicycle_pa":"stands","capacity":6,"covered":"no","fee":"no","operator":"","nameSource":"junction"},"sourceId":"osm"},{"id":"osm:way:1377725723","latitude":52.39851692,"longitude":-1.5330733199999997,"name":"Earlsdon Street near Providence Street","properties":{"access":"yes","bicycle_pa":"stands","capacity":8,"covered":"no","fee":"no","operator":"","nameSource":"junction"},"sourceId":"osm"},{"id":"osm:way:1381626809","latitude":52.41649485,"longitude":-1.5255303000000002,"name":"Thamley Road near Barkers Butts Lane","properties":{"access":"yes","bicycle_pa":"stands","capacity":6,"covered":"no","fee":"no","operator":"","nameSource":"junction"},"sourceId":"osm"},{"id":"osm:way:1383960243","latitude":52.407063199999996,"longitude":-1.5244330400000004,"name":"Butts Road near Windsor Street","properties":{"access":"yes","bicycle_pa":"stands","capacity":6,"covered":"no","fee":"no","operator":"","nameSource":"junction"},"sourceId":"osm"},{"id":"osm:way:1411095455","latitude":52.417760959999995,"longitude":-1.5450325799999998,"name":"Holyhead Road near Grayswood Avenue","properties":{"access":"yes","bicycle_pa":"stands","capacity":10,"covered":"no","fee":"no","operator":"","nameSource":"junction"},"sourceId":"osm"},{"id":"osm:way:145179891","latitude":52.384513240000004,"longitude":-1.55891328,"name":"Academic Loop Road cycle parking","properties":{"access":"unknown","bicycle_pa":"stands","capacity":88,"covered":"yes","fee":"","operator":"","nameSource":"street"},"sourceId":"osm"},{"id":"osm:way:1473983185","latitude":52.41464003333332,"longitude":-1.5061059000000003,"name":"Byron Street near Russell Street","properties":{"access":"yes","bicycle_pa":"stands","capacity":20,"covered":"yes","fee":"no","operator":"","nameSource":"junction"},"sourceId":"osm"},{"id":"osm:way:1473983188","latitude":52.414869079999995,"longitude":-1.50656646,"name":"Byron Street near Russell Street","properties":{"access":"yes","bicycle_pa":"stands","capacity":20,"covered":"yes","fee":"no","operator":"","nameSource":"junction"},"sourceId":"osm"},{"id":"osm:way:1473983190","latitude":52.415018759999995,"longitude":-1.5064160599999998,"name":"Russell Street near Byron Street","properties":{"access":"yes","bicycle_pa":"stands","capacity":14,"covered":"no","fee":"no","operator":"","nameSource":"junction"},"sourceId":"osm"},{"id":"osm:way:1484934034","latitude":52.39988306,"longitude":-1.5602232399999998,"name":"Torrington Avenue cycle parking","properties":{"access":"unknown","bicycle_pa":"stands","capacity":8,"covered":"yes","fee":"no","operator":"","nameSource":"street"},"sourceId":"osm"},{"id":"osm:way:606230742","latitude":52.4010682,"longitude":-1.51317478,"name":"The Bike Hub","properties":{"access":"yes","bicycle_pa":"building","capacity":150,"covered":"yes","fee":"yes","operator":"","nameSource":"source"},"sourceId":"osm"},{"id":"osm:way:825172356","latitude":52.376441220000004,"longitude":-1.5633648,"name":"Leighfield Road by Cryfield","properties":{"access":"customers","bicycle_pa":"shed","capacity":8,"covered":"yes","fee":"no","operator":"","nameSource":"landmark"},"sourceId":"osm"},{"id":"osm:way:825172357","latitude":52.376461340000006,"longitude":-1.5633288,"name":"Leighfield Road by Cryfield","properties":{"access":"customers","bicycle_pa":"shed","capacity":8,"covered":"yes","fee":"no","operator":"","nameSource":"landmark"},"sourceId":"osm"},{"id":"osm:way:825172360","latitude":52.37683122,"longitude":-1.5640512000000002,"name":"Leighfield Road by Cryfield","properties":{"access":"unknown","bicycle_pa":"","capacity":0,"covered":"","fee":"","operator":"","nameSource":"landmark"},"sourceId":"osm"},{"id":"osm:way:825172362","latitude":52.37718862222223,"longitude":-1.5633308666666668,"name":"Gibbet Hill Road cycle parking","properties":{"access":"yes","bicycle_pa":"shed","capacity":36,"covered":"","fee":"no","operator":"","nameSource":"street"},"sourceId":"osm"},{"id":"osm:way:825172363","latitude":52.37760698000001,"longitude":-1.56364772,"name":"Gibbet Hill Road cycle parking","properties":{"access":"unknown","bicycle_pa":"shed","capacity":0,"covered":"","fee":"","operator":"","nameSource":"street"},"sourceId":"osm"},{"id":"osm:way:897190093","latitude":52.377919799999994,"longitude":-1.57008696,"name":"Leighfield Road by Warwick Sports Hub","properties":{"access":"yes","bicycle_pa":"shed","capacity":38,"covered":"","fee":"no","operator":"","nameSource":"landmark"},"sourceId":"osm"},{"id":"osm:way:982868750","latitude":52.37763158,"longitude":-1.56369012,"name":"Gibbet Hill Road cycle parking","properties":{"access":"unknown","bicycle_pa":"shed","capacity":0,"covered":"","fee":"","operator":"","nameSource":"street"},"sourceId":"osm"}],"schemaVersion":2}
