{"key":"12/2030/1373","points":[{"id":"osm:node:11146521764","latitude":50.8719258,"longitude":-1.5745194,"name":"The Boltons by New Forest Museum","properties":{"access":"unknown","bicycle_pa":"stands","capacity":8,"covered":"no","fee":"","operator":"","nameSource":"landmark"},"sourceId":"osm"},{"id":"osm:node:12376578008","latitude":50.8547262,"longitude":-1.5049743,"name":"Beaulieu Road by Beaulieu Road","properties":{"access":"unknown","bicycle_pa":"stands","capacity":10,"covered":"no","fee":"","operator":"","nameSource":"landmark"},"sourceId":"osm"},{"id":"osm:node:2010354537","latitude":50.872354,"longitude":-1.5739333,"name":"Gosport Lane near High Street","properties":{"access":"unknown","bicycle_pa":"stands","capacity":4,"covered":"no","fee":"","operator":"","nameSource":"junction"},"sourceId":"osm"},{"id":"osm:node:2021362955","latitude":50.8923215,"longitude":-1.5226638,"name":"Lyndhurst Road near Ash Road","properties":{"access":"unknown","bicycle_pa":"stands","capacity":12,"covered":"no","fee":"","operator":"","nameSource":"junction"},"sourceId":"osm"},{"id":"osm:node:2021363004","latitude":50.8720433,"longitude":-1.5757527,"name":"Church Lane near High Street","properties":{"access":"unknown","bicycle_pa":"stands","capacity":4,"covered":"no","fee":"","operator":"","nameSource":"junction"},"sourceId":"osm"},{"id":"osm:node:2281094840","latitude":50.8716861,"longitude":-1.575822,"name":"Church Lane near High Street","properties":{"access":"unknown","bicycle_pa":"stands","capacity":6,"covered":"no","fee":"","operator":"","nameSource":"junction"},"sourceId":"osm"},{"id":"osm:node:307593959","latitude":50.8898885,"longitude":-1.5267792,"name":"Ashurst New Forest cycle parking","properties":{"access":"unknown","bicycle_pa":"wall_loops","capacity":10,"covered":"yes","fee":"","operator":"","nameSource":"landmark"},"sourceId":"osm"},{"id":"osm:node:480318695","latitude":50.8721681,"longitude":-1.5709321,"name":"High Street near Beaulieu Road","properties":{"access":"unknown","bicycle_pa":"stands","capacity":20,"covered":"no","fee":"","operator":"","nameSource":"junction"},"sourceId":"osm"},{"id":"osm:node:480318698","latitude":50.8714636,"longitude":-1.5743936,"name":"Southview near Gosport Lane","properties":{"access":"unknown","bicycle_pa":"stands","capacity":12,"covered":"no","fee":"","operator":"","nameSource":"junction"},"sourceId":"osm"},{"id":"osm:node:480318716","latitude":50.8717572,"longitude":-1.5747334,"name":"The Boltons by New Forest Museum","properties":{"access":"unknown","bicycle_pa":"stands","capacity":16,"covered":"no","fee":"","operator":"","nameSource":"landmark"},"sourceId":"osm"},{"id":"osm:node:5734955112","latitude":50.8550246,"longitude":-1.5048916,"name":"Beaulieu Road by Beaulieu Road","properties":{"access":"unknown","bicycle_pa":"stands","capacity":2,"covered":"no","fee":"","operator":"","nameSource":"landmark"},"sourceId":"osm"}],"schemaVersion":2}
