{"key":"12/2032/1297","points":[{"categories":["shop"],"id":"osm:node:3395065614","latitude":54.9075275,"longitude":-1.3812678,"name":"CycleWorld","properties":{"website":"http://www.cycleworldshop.co.uk/"},"sourceId":"osm"},{"categories":["shop"],"id":"osm:node:3856998943","latitude":54.9073838,"longitude":-1.3812314,"name":"Cycle World","properties":{},"sourceId":"osm"},{"categories":["shop"],"id":"osm:node:391438266","latitude":54.9025457,"longitude":-1.3992374,"name":"Kelly's Cycles","properties":{},"sourceId":"osm"},{"categories":["shop"],"id":"osm:node:393763247","latitude":54.9074306,"longitude":-1.3806226,"name":"Darke's Cycles","properties":{},"sourceId":"osm"},{"categories":["repair"],"id":"osm:way:1327260624","latitude":54.908889439999996,"longitude":-1.3933848800000002,"name":"Halfords","properties":{"brand":"Halfords","serviceRepair":"yes","website":"https://www.halfords.com/locations/sunderland-store/"},"sourceId":"osm"}],"schemaVersion":2}
