{"key":"12/2032/1372","points":[{"categories":["hire"],"id":"osm:node:10222057833","latitude":50.904913,"longitude":-1.403345,"name":"Pound Tree Road","properties":{"brand":"Beryl","fee":"yes","network":"Beryl","operator":"Beryl","website":"https://beryl.cc/scheme/southampton"},"sourceId":"osm"},{"categories":["hire"],"id":"osm:node:10222057834","latitude":50.911718,"longitude":-1.405993,"name":"Bedford Place","properties":{"brand":"Beryl","fee":"yes","network":"Beryl","operator":"Beryl","website":"https://beryl.cc/scheme/southampton"},"sourceId":"osm"},{"categories":["hire"],"id":"osm:node:10222057838","latitude":50.90701,"longitude":-1.405789,"name":"Civic Centre Road","properties":{"brand":"Beryl","fee":"yes","network":"Beryl","operator":"Beryl","website":"https://beryl.cc/scheme/southampton"},"sourceId":"osm"},{"categories":["hire"],"id":"osm:node:10222057842","latitude":50.937017,"longitude":-1.397936,"name":"Salisbury Road","properties":{"brand":"Beryl","fee":"yes","network":"Beryl","operator":"Beryl","website":"https://beryl.cc/scheme/southampton"},"sourceId":"osm"},{"categories":["hire"],"id":"osm:node:10222057844","latitude":50.910262,"longitude":-1.399609,"name":"Compton Walk","properties":{"brand":"Beryl","fee":"yes","network":"Beryl","operator":"Beryl","website":"https://beryl.cc/scheme/southampton"},"sourceId":"osm"},{"categories":["hire"],"id":"osm:node:10222057845","latitude":50.905357,"longitude":-1.397912,"name":"Kingsway","properties":{"brand":"Beryl","fee":"yes","network":"Beryl","operator":"Beryl","website":"https://beryl.cc/scheme/southampton"},"sourceId":"osm"},{"categories":["hire"],"id":"osm:node:10222057846","latitude":50.904325,"longitude":-1.402654,"name":"Vincent's Walk","properties":{"brand":"Beryl","fee":"yes","network":"Beryl","operator":"Beryl","website":"https://beryl.cc/scheme/southampton"},"sourceId":"osm"},{"categories":["hire"],"id":"osm:node:10222057847","latitude":50.934309,"longitude":-1.396086,"name":"Students Services Centre","properties":{"brand":"Beryl","fee":"yes","network":"Beryl","operator":"Beryl","website":"https://beryl.cc/scheme/southampton"},"sourceId":"osm"},{"categories":["hire"],"id":"osm:node:10222057849","latitude":50.937855,"longitude":-1.396695,"name":"University Road","properties":{"brand":"Beryl","fee":"yes","network":"Beryl","operator":"Beryl","website":"https://beryl.cc/scheme/southampton"},"sourceId":"osm"},{"categories":["hire"],"id":"osm:node:10222057850","latitude":50.913702,"longitude":-1.40252,"name":"London Road","properties":{"brand":"Beryl","fee":"yes","network":"Beryl","operator":"Beryl","website":"https://beryl.cc/scheme/southampton"},"sourceId":"osm"},{"categories":["hire"],"id":"osm:node:10222057851","latitude":50.941883,"longitude":-1.40287,"name":"Chamberlain Halls","properties":{"brand":"Beryl","fee":"yes","network":"Beryl","operator":"Beryl","website":"https://beryl.cc/scheme/southampton"},"sourceId":"osm"},{"categories":["hire"],"id":"osm:node:10222057852","latitude":50.9368299,"longitude":-1.4037719,"name":"Boldrewood Campus","properties":{"brand":"Beryl","fee":"yes","network":"Beryl","operator":"Beryl","website":"https://beryl.cc/scheme/southampton"},"sourceId":"osm"},{"categories":["hire"],"id":"osm:node:10222057853","latitude":50.905083,"longitude":-1.401275,"name":"Palmerston Park","properties":{"brand":"Beryl","fee":"yes","network":"Beryl","operator":"Beryl","website":"https://beryl.cc/scheme/southampton"},"sourceId":"osm"},{"categories":["hire"],"id":"osm:node:10222057854","latitude":50.934578,"longitude":-1.396641,"name":"Students Union","properties":{"brand":"Beryl","fee":"yes","network":"Beryl","operator":"Beryl","website":"https://beryl.cc/scheme/southampton"},"sourceId":"osm"},{"categories":["hire"],"id":"osm:node:10222057857","latitude":50.929145,"longitude":-1.403479,"name":"Avenue Campus","properties":{"brand":"Beryl","fee":"yes","network":"Beryl","operator":"Beryl","website":"https://beryl.cc/scheme/southampton"},"sourceId":"osm"},{"categories":["hire"],"id":"osm:node:10222057858","latitude":50.937568,"longitude":-1.375708,"name":"Wessex Lane Halls of Residence","properties":{"brand":"Beryl","fee":"yes","network":"Beryl","operator":"Beryl","website":"https://beryl.cc/scheme/southampton"},"sourceId":"osm"},{"categories":["hire"],"id":"osm:node:10222057861","latitude":50.908913,"longitude":-1.40507,"name":"Watts Park","properties":{"brand":"Beryl","fee":"yes","network":"Beryl","operator":"Beryl","website":"https://beryl.cc/scheme/southampton"},"sourceId":"osm"},{"categories":["hire"],"id":"osm:node:10653020870","latitude":50.9375081,"longitude":-1.3763332,"name":"Wessex Lane","properties":{"brand":"Beryl","fee":"yes","network":"Beryl","operator":"Beryl","website":"https://beryl.cc/scheme/southampton"},"sourceId":"osm"},{"categories":["hire"],"id":"osm:node:12444573044","latitude":50.9245142,"longitude":-1.3764104,"name":"Breeze Hire","properties":{"network":"Breeze"},"sourceId":"osm"},{"categories":["hire"],"id":"osm:node:12615481981","latitude":50.9213935,"longitude":-1.4050756,"name":"Cycle hire","properties":{},"sourceId":"osm"},{"categories":["hire"],"id":"osm:node:12615523104","latitude":50.9210615,"longitude":-1.4047285,"name":"Cycle hire","properties":{},"sourceId":"osm"},{"categories":["hire"],"id":"osm:node:12918780986","latitude":50.9287599,"longitude":-1.3569999,"name":"Breeze","properties":{"network":"Breeze","operator":"Breeze"},"sourceId":"osm"},{"categories":["hire"],"id":"osm:node:13055634702","latitude":50.9335404,"longitude":-1.363607,"name":"Breeze","properties":{"fee":"yes","network":"Breeze"},"sourceId":"osm"},{"categories":["hire"],"id":"osm:node:2127891415","latitude":50.9075135,"longitude":-1.3939343,"name":"Cycle hire","properties":{},"sourceId":"osm"},{"categories":["repair"],"id":"osm:node:6814162854","latitude":50.9367948,"longitude":-1.4038153,"name":"University of Southampton","properties":{"operator":"University of Southampton","servicePump":"yes"},"sourceId":"osm"},{"categories":["repair"],"id":"osm:node:7190643577","latitude":50.921424,"longitude":-1.405098,"name":"Bicycle repair station","properties":{"fee":"no","openingHours":"24/7","servicePump":"no","serviceTools":"yes"},"sourceId":"osm"},{"categories":["repair"],"id":"osm:node:8038154571","latitude":50.9371101,"longitude":-1.3955875,"name":"Bicycle repair station","properties":{"servicePump":"no"},"sourceId":"osm"},{"categories":["shop","repair"],"id":"osm:node:8084289715","latitude":50.9110051,"longitude":-1.4034196,"name":"Pure Electric","properties":{"brand":"Tern;Cube;Bergamont;Babboe;Riese & Müller","serviceRepair":"yes","website":"https://www.pureelectric.com/pages/southampton-store"},"sourceId":"osm"},{"categories":["shop","repair"],"id":"osm:way:208918418","latitude":50.91430083750001,"longitude":-1.3369925249999999,"name":"Giant","properties":{"brand":"Giant","openingHours":"Mo-Sa 09:00-18:00; Su 10:00-16:00","serviceRepair":"yes"},"sourceId":"osm"},{"categories":["shop"],"id":"osm:way:336968931","latitude":50.92485894285715,"longitude":-1.3760323285714284,"name":"Ride Ride Cycle Workshop","properties":{"openingHours":"Mo-Fr 09:00-17:00; Sa 09:00-13:00","website":"https://www.rideride.co.uk/"},"sourceId":"osm"}],"schemaVersion":2}
