{"key":"12/2032/1373","points":[{"categories":["hire"],"id":"osm:node:10222057831","latitude":50.902353,"longitude":-1.39818,"name":"Evans Street","properties":{"brand":"Beryl","fee":"yes","network":"Beryl","operator":"Beryl"},"sourceId":"osm"},{"categories":["hire"],"id":"osm:node:10222057832","latitude":50.899328,"longitude":-1.401532,"name":"Bernard Street","properties":{"brand":"Beryl","fee":"yes","network":"Beryl","operator":"Beryl"},"sourceId":"osm"},{"categories":["hire"],"id":"osm:node:10222057835","latitude":50.897931,"longitude":-1.400808,"name":"Briton Street/Orchard Place","properties":{"brand":"Beryl","fee":"yes","network":"Beryl","operator":"Beryl"},"sourceId":"osm"},{"categories":["hire"],"id":"osm:node:10222057836","latitude":50.89799,"longitude":-1.401823,"name":"Briton Street/Queensway","properties":{"brand":"Beryl","fee":"yes","network":"Beryl","operator":"Beryl"},"sourceId":"osm"},{"categories":["hire"],"id":"osm:node:10222057837","latitude":50.902409,"longitude":-1.394569,"name":"Chapel Road","properties":{"brand":"Beryl","fee":"yes","network":"Beryl","operator":"Beryl"},"sourceId":"osm"},{"categories":["hire"],"id":"osm:node:10222057840","latitude":50.896268,"longitude":-1.404255,"name":"Red Funnel Terminal","properties":{"brand":"Beryl","fee":"yes","network":"Beryl","operator":"Beryl"},"sourceId":"osm"},{"categories":["hire"],"id":"osm:node:10222057843","latitude":50.901421,"longitude":-1.402168,"name":"Back of the Walls","properties":{"brand":"Beryl","fee":"yes","network":"Beryl","operator":"Beryl"},"sourceId":"osm"},{"categories":["hire"],"id":"osm:node:10222057848","latitude":50.898753,"longitude":-1.39233,"name":"Central Bridge","properties":{"brand":"Beryl","fee":"yes","network":"Beryl","operator":"Beryl"},"sourceId":"osm"},{"categories":["hire"],"id":"osm:node:10222057859","latitude":50.898128,"longitude":-1.393614,"name":"Royal Crescent Road","properties":{"brand":"Beryl","fee":"yes","network":"Beryl","operator":"Beryl"},"sourceId":"osm"},{"categories":["shop"],"id":"osm:node:1602164296","latitude":50.8674385,"longitude":-1.3978215,"name":"Cyclexperience","properties":{},"sourceId":"osm"},{"categories":["hire"],"id":"osm:node:3398213262","latitude":50.8949788,"longitude":-1.405584,"name":"Cycle Hire Southampton","properties":{"operator":"Cycle Hire Southampton"},"sourceId":"osm"},{"categories":["repair"],"id":"osm:node:6848773730","latitude":50.8655682,"longitude":-1.4049112,"name":"Bicycle repair station","properties":{"servicePump":"yes","serviceRepair":"yes","serviceTools":"yes"},"sourceId":"osm"},{"categories":["repair"],"id":"osm:node:6858338316","latitude":50.8981098,"longitude":-1.3784794,"name":"Dero","properties":{"brand":"Dero","openingHours":"24/7","servicePump":"yes","serviceTools":"yes"},"sourceId":"osm"},{"categories":["shop","repair"],"id":"osm:way:1329249160","latitude":50.899336122222216,"longitude":-1.3380205555555555,"name":"Monty's Bike Hub","properties":{"openingHours":"We 17:00-20:30, Th 12:00-18:00","operator":"Monty's Community Hub","servicePump":"yes","serviceRepair":"yes"},"sourceId":"osm"}],"schemaVersion":2}
