{"key":"12/2062/1340","points":[{"categories":["hire"],"id":"osm:node:8693709117","latitude":52.6499481,"longitude":1.280551,"name":"Mile Cross Library","properties":{"brand":"Beryl","fee":"yes","network":"Beryl","operator":"Beryl","website":"https://beryl.cc/scheme/norwich"},"sourceId":"osm"},{"categories":["hire"],"id":"osm:node:8693709124","latitude":52.6432495,"longitude":1.292412,"name":"Angel Road","properties":{"fee":"yes","network":"Beryl - Norwich","operator":"Beryl","website":"https://beryl.cc/scheme/norwich"},"sourceId":"osm"},{"categories":["hire"],"id":"osm:node:8693709125","latitude":52.6529083,"longitude":1.283891,"name":"Bullard Road","properties":{"brand":"Beryl","fee":"yes","network":"Beryl","operator":"Beryl","website":"https://beryl.cc/scheme/norwich"},"sourceId":"osm"},{"categories":["hire"],"id":"osm:node:8693709126","latitude":52.6475105,"longitude":1.27154,"name":"Bignold Road","properties":{"brand":"Beryl","fee":"yes","network":"Beryl","operator":"Beryl","website":"https://beryl.cc/scheme/norwich"},"sourceId":"osm"},{"categories":["hire"],"id":"osm:node:8693709357","latitude":52.6503487,"longitude":1.308463,"name":"Shipfield shopping centre/Sprowston Road","properties":{"fee":"yes","network":"Beryl - Norwich","operator":"Beryl","website":"https://beryl.cc/scheme/norwich"},"sourceId":"osm"},{"categories":["hire"],"id":"osm:node:8693709362","latitude":52.66259,"longitude":1.28307,"name":"Diamond Road","properties":{"brand":"Beryl","fee":"yes","network":"Beryl","operator":"Beryl","website":"https://beryl.cc/scheme/norwich"},"sourceId":"osm"},{"categories":["hire"],"id":"osm:node:8693709365","latitude":52.6535057,"longitude":1.2999437,"name":"Chartwell Road","properties":{"fee":"yes","network":"Beryl - Norwich","operator":"Beryl","website":"https://beryl.cc/scheme/norwich"},"sourceId":"osm"},{"categories":["hire"],"id":"osm:node:8693709367","latitude":52.6455345,"longitude":1.2759399,"name":"Drayton Road Shops","properties":{"brand":"Beryl","fee":"yes","network":"Beryl","operator":"Beryl","website":"https://beryl.cc/scheme/norwich"},"sourceId":"osm"},{"categories":["hire"],"id":"osm:node:8693709368","latitude":52.6522408,"longitude":1.280987,"name":"Woodcock Road","properties":{"brand":"Beryl","fee":"yes","network":"Beryl","operator":"Beryl","website":"https://beryl.cc/scheme/norwich"},"sourceId":"osm"},{"categories":["hire"],"id":"osm:node:8693709370","latitude":52.6517448,"longitude":1.292107,"name":"Catton Grove Road","properties":{"brand":"Beryl","fee":"yes","network":"Beryl","operator":"Beryl","website":"https://beryl.cc/scheme/norwich"},"sourceId":"osm"},{"categories":["hire"],"id":"osm:node:8693709379","latitude":52.6663094,"longitude":1.306285,"name":"Spixworth Road","properties":{"fee":"yes","network":"Beryl - Norwich","operator":"Beryl","website":"https://beryl.cc/scheme/norwich"},"sourceId":"osm"},{"categories":["hire"],"id":"osm:node:8693709381","latitude":52.6566086,"longitude":1.314299,"name":"Recreation Ground Road","properties":{"fee":"yes","network":"Beryl - Norwich","operator":"Beryl","website":"https://beryl.cc/scheme/norwich"},"sourceId":"osm"},{"categories":["hire"],"id":"osm:node:8693709395","latitude":52.6451912,"longitude":1.30235,"name":"Gertrude Road/ Sprowston Road","properties":{"fee":"yes","network":"Beryl - Norwich","operator":"Beryl","website":"https://beryl.cc/scheme/norwich"},"sourceId":"osm"},{"categories":["hire"],"id":"osm:node:8693709401","latitude":52.6650887,"longitude":1.262931,"name":"Reepham Road","properties":{"brand":"Beryl","fee":"yes","network":"Beryl","operator":"Beryl","website":"https://beryl.cc/scheme/norwich"},"sourceId":"osm"},{"categories":["hire"],"id":"osm:node:9015358127","latitude":52.6679611,"longitude":1.2808959,"name":"International Aviation Academy","properties":{"brand":"Beryl","fee":"yes","network":"Beryl","operator":"Beryl","website":"https://beryl.cc/scheme/norwich"},"sourceId":"osm"},{"categories":["hire"],"id":"osm:node:9613076851","latitude":52.6580505,"longitude":1.30915,"name":"N Walsham Road/Allen's Lane","properties":{"fee":"yes","network":"Beryl - Norwich","operator":"Beryl","website":"https://beryl.cc/scheme/norwich"},"sourceId":"osm"},{"categories":["hire"],"id":"osm:node:9613076852","latitude":52.6686935,"longitude":1.298885,"name":"Lodge Lane","properties":{"fee":"yes","network":"Beryl - Norwich","operator":"Beryl","website":"https://beryl.cc/scheme/norwich"},"sourceId":"osm"},{"categories":["shop"],"id":"osm:way:708206028","latitude":52.64461132,"longitude":1.28509918,"name":"Mandarin Cycles","properties":{},"sourceId":"osm"}],"schemaVersion":2}
