{"key":"12/2062/1341","points":[{"categories":["hire"],"id":"osm:node:10220660539","latitude":52.598761,"longitude":1.2790992,"name":"University Technical College Norfolk","properties":{"fee":"yes","network":"Beryl - Norwich","operator":"Beryl","website":"https://beryl.cc/scheme/norwich"},"sourceId":"osm"},{"categories":["hire"],"id":"osm:node:10220680587","latitude":52.627803,"longitude":1.291864,"name":"The Forum - Scoot Happy Tour","properties":{"fee":"yes","network":"Beryl - Norwich","operator":"Beryl","website":"https://beryl.cc/scheme/norwich"},"sourceId":"osm"},{"categories":["hire"],"id":"osm:node:10220680588","latitude":52.6293481,"longitude":1.2863896,"name":"Upper St. Giles","properties":{"fee":"yes","network":"Beryl - Norwich","operator":"Beryl","website":"https://beryl.cc/scheme/norwich"},"sourceId":"osm"},{"categories":["repair"],"id":"osm:node:10969150299","latitude":52.6064123,"longitude":1.236161,"name":"AtoBetter","properties":{"brand":"turvec","openingHours":"24/7","operator":"The Willow Centre","servicePump":"yes","serviceTools":"yes"},"sourceId":"osm"},{"categories":["shop"],"id":"osm:node:11443582465","latitude":52.6266925,"longitude":1.2888712,"name":"Evans Cycles","properties":{"brand":"Evans Cycles","website":"https://www.evanscycles.com/norwich-fra-store-2045"},"sourceId":"osm"},{"categories":["shop","repair"],"id":"osm:node:13699920069","latitude":52.6286503,"longitude":1.3040283,"name":"Fettle","properties":{"serviceRepair":"yes"},"sourceId":"osm"},{"categories":["shop"],"id":"osm:node:3673527181","latitude":52.6362608,"longitude":1.2922946,"name":"The Bike Man","properties":{},"sourceId":"osm"},{"categories":["shop"],"id":"osm:node:5223683357","latitude":52.6260371,"longitude":1.2949094,"name":"Evans Cycles","properties":{"brand":"Evans Cycles","website":"https://www.evanscycles.com/norwich-ev-store-2112"},"sourceId":"osm"},{"categories":["hire"],"id":"osm:node:8693708908","latitude":52.6243591,"longitude":1.293788,"name":"Norwich Bus Station","properties":{"fee":"yes","network":"Beryl - Norwich","operator":"Beryl","website":"https://beryl.cc/scheme/norwich"},"sourceId":"osm"},{"categories":["hire"],"id":"osm:node:8693708909","latitude":52.6238708,"longitude":1.240661,"name":"Sports Park","properties":{"fee":"yes","network":"Beryl - Norwich","operator":"Beryl","website":"https://beryl.cc/scheme/norwich"},"sourceId":"osm"},{"categories":["hire"],"id":"osm:node:8693708910","latitude":52.6236038,"longitude":1.3065031,"name":"Albion Way","properties":{"fee":"yes","network":"Beryl - Norwich","operator":"Beryl","website":"https://beryl.cc/scheme/norwich"},"sourceId":"osm"},{"categories":["hire"],"id":"osm:node:8693708912","latitude":52.6391182,"longitude":1.29059,"name":"Wingfield Road/Aylsham Road","properties":{"brand":"Beryl","fee":"yes","network":"Beryl","operator":"Beryl","website":"https://beryl.cc/scheme/norwich"},"sourceId":"osm"},{"categories":["hire"],"id":"osm:node:8693708913","latitude":52.6071854,"longitude":1.287874,"name":"Hall Road","properties":{"fee":"yes","network":"Beryl - Norwich","operator":"Beryl","website":"https://beryl.cc/scheme/norwich"},"sourceId":"osm"},{"categories":["hire"],"id":"osm:node:8693708914","latitude":52.6290768,"longitude":1.2915536,"name":"St Giles Street","properties":{"fee":"yes","network":"Beryl - Norwich","operator":"Beryl","website":"https://beryl.cc/scheme/norwich"},"sourceId":"osm"},{"categories":["hire"],"id":"osm:node:8693708915","latitude":52.6142755,"longitude":1.2947744,"name":"St. Johns Close","properties":{"fee":"yes","network":"Beryl - Norwich","operator":"Beryl","website":"https://beryl.cc/scheme/norwich"},"sourceId":"osm"},{"categories":["hire"],"id":"osm:node:8693708916","latitude":52.6194572,"longitude":1.268293,"name":"Unthank Road/Colman Road","properties":{"fee":"yes","network":"Beryl - Norwich","operator":"Beryl","website":"https://beryl.cc/scheme/norwich"},"sourceId":"osm"},{"categories":["hire"],"id":"osm:node:8693709118","latitude":52.6211277,"longitude":1.2996468,"name":"Hall Road North","properties":{"fee":"yes","network":"Beryl - Norwich","operator":"Beryl","website":"https://beryl.cc/scheme/norwich"},"sourceId":"osm"},{"categories":["hire"],"id":"osm:node:8693709119","latitude":52.6318893,"longitude":1.298945,"name":"Tombland","properties":{"fee":"yes","network":"Beryl - Norwich","operator":"Beryl","website":"https://beryl.cc/scheme/norwich"},"sourceId":"osm"},{"categories":["hire"],"id":"osm:node:8693709123","latitude":52.6205025,"longitude":1.26239,"name":"South Park Avenue","properties":{"fee":"yes","network":"Beryl - Norwich","operator":"Beryl","website":"https://beryl.cc/scheme/norwich"},"sourceId":"osm"},{"categories":["hire"],"id":"osm:node:8693709127","latitude":52.6244011,"longitude":1.246314,"name":"Barton House","properties":{"fee":"yes","network":"Beryl - Norwich","operator":"Beryl","website":"https://beryl.cc/scheme/norwich"},"sourceId":"osm"},{"categories":["hire"],"id":"osm:node:8693709128","latitude":52.6408278,"longitude":1.2353482,"name":"Norwich Road/Dereham Road","properties":{"fee":"yes","network":"Beryl - Norwich","operator":"Beryl","website":"https://beryl.cc/scheme/norwich"},"sourceId":"osm"},{"categories":["hire"],"id":"osm:node:8693709129","latitude":52.6278076,"longitude":1.28908,"name":"Theatre Street","properties":{"fee":"yes","network":"Beryl - Norwich","operator":"Beryl","website":"https://beryl.cc/scheme/norwich"},"sourceId":"osm"},{"categories":["hire"],"id":"osm:node:8693709130","latitude":52.6250572,"longitude":1.283006,"name":"Vauxhall Street Shops","properties":{"fee":"yes","network":"Beryl - Norwich","operator":"Beryl","website":"https://beryl.cc/scheme/norwich"},"sourceId":"osm"},{"categories":["hire"],"id":"osm:node:8693709131","latitude":52.6356125,"longitude":1.2963541,"name":"Anglia Square Mobility Hub","properties":{"brand":"Beryl","fee":"yes","network":"Beryl","operator":"Beryl","website":"https://beryl.cc/scheme/norwich"},"sourceId":"osm"},{"categories":["hire"],"id":"osm:node:8693709348","latitude":52.6219902,"longitude":1.244512,"name":"Britten House","properties":{"fee":"yes","network":"Beryl - Norwich","operator":"Beryl","website":"https://beryl.cc/scheme/norwich"},"sourceId":"osm"},{"categories":["hire"],"id":"osm:node:8693709349","latitude":52.6315918,"longitude":1.290531,"name":"Coslany Street","properties":{"fee":"yes","network":"Beryl - Norwich","operator":"Beryl","website":"https://beryl.cc/scheme/norwich"},"sourceId":"osm"},{"categories":["hire"],"id":"osm:node:8693709351","latitude":52.6408577,"longitude":1.292815,"name":"Waterloo Road","properties":{"brand":"Beryl","fee":"yes","network":"Beryl","operator":"Beryl","website":"https://beryl.cc/scheme/norwich"},"sourceId":"osm"},{"categories":["hire"],"id":"osm:node:8693709352","latitude":52.621109,"longitude":1.291296,"name":"Grove Road/Southwell Road","properties":{"fee":"yes","network":"Beryl - Norwich","operator":"Beryl","website":"https://beryl.cc/scheme/norwich"},"sourceId":"osm"},{"categories":["hire"],"id":"osm:node:8693709353","latitude":52.6332474,"longitude":1.281179,"name":"Douro Place/Dereham Road","properties":{"fee":"yes","network":"Beryl - Norwich","operator":"Beryl","website":"https://beryl.cc/scheme/norwich"},"sourceId":"osm"},{"categories":["hire"],"id":"osm:node:8693709354","latitude":52.6371384,"longitude":1.2931091,"name":"St. Augustines Street","properties":{"fee":"yes","network":"Beryl - Norwich","operator":"Beryl","website":"https://beryl.cc/scheme/norwich"},"sourceId":"osm"},{"categories":["hire"],"id":"osm:node:8693709358","latitude":52.6309319,"longitude":1.278246,"name":"West Pottergate","properties":{"fee":"yes","network":"Beryl - Norwich","operator":"Beryl","website":"https://beryl.cc/scheme/norwich"},"sourceId":"osm"},{"categories":["hire"],"id":"osm:node:8693709360","latitude":52.6295967,"longitude":1.247941,"name":"Earlham Green Lane","properties":{"fee":"yes","network":"Beryl - Norwich","operator":"Beryl","website":"https://beryl.cc/scheme/norwich"},"sourceId":"osm"},{"categories":["hire"],"id":"osm:node:8693709361","latitude":52.6334534,"longitude":1.316327,"name":"Britannia Road","properties":{"fee":"yes","network":"Beryl - Norwich","operator":"Beryl","website":"https://beryl.cc/scheme/norwich"},"sourceId":"osm"},{"categories":["hire"],"id":"osm:node:8693709364","latitude":52.6411667,"longitude":1.296814,"name":"Churchill Road/Sprowston Road","properties":{"fee":"yes","network":"Beryl - Norwich","operator":"Beryl","website":"https://beryl.cc/scheme/norwich"},"sourceId":"osm"},{"categories":["hire"],"id":"osm:node:8693709366","latitude":52.6321602,"longitude":1.294816,"name":"St George's Street/Norwich Playhouse","properties":{"brand":"Beryl","fee":"yes","network":"Beryl","operator":"Beryl","website":"https://beryl.cc/scheme/norwich"},"sourceId":"osm"},{"categories":["hire"],"id":"osm:node:8693709369","latitude":52.6329384,"longitude":1.294463,"name":"St George Street","properties":{"brand":"Beryl","fee":"yes","network":"Beryl","operator":"Beryl","website":"https://beryl.cc/scheme/norwich"},"sourceId":"osm"},{"categories":["hire"],"id":"osm:node:8693709371","latitude":52.6260872,"longitude":1.298822,"name":"Rouen Road","properties":{"fee":"yes","network":"Beryl - Norwich","operator":"Beryl","website":"https://beryl.cc/scheme/norwich"},"sourceId":"osm"},{"categories":["hire"],"id":"osm:node:8693709372","latitude":52.6152115,"longitude":1.3071899,"name":"Norfolk County Council","properties":{"fee":"yes","network":"Beryl - Norwich","operator":"Beryl","website":"https://beryl.cc/scheme/norwich"},"sourceId":"osm"},{"categories":["hire"],"id":"osm:node:8693709373","latitude":52.6102257,"longitude":1.253541,"name":"Newmarket Road","properties":{"fee":"yes","network":"Beryl - Norwich","operator":"Beryl","website":"https://beryl.cc/scheme/norwich"},"sourceId":"osm"},{"categories":["hire"],"id":"osm:node:8693709374","latitude":52.60886,"longitude":1.2835979,"name":"Tuckswood Centre","properties":{"brand":"Beryl","fee":"yes","network":"Beryl","operator":"Beryl","website":"https://beryl.cc/scheme/norwich"},"sourceId":"osm"},{"categories":["hire"],"id":"osm:node:8693709376","latitude":52.6265373,"longitude":1.3055069,"name":"Riverside/Norwich Train Station","properties":{"fee":"yes","network":"Beryl - Norwich","operator":"Beryl","website":"https://beryl.cc/scheme/norwich"},"sourceId":"osm"},{"categories":["hire"],"id":"osm:node:8693709377","latitude":52.6281983,"longitude":1.2917826,"name":"Norwich City Council","properties":{"fee":"yes","network":"Beryl - Norwich","operator":"Beryl","website":"https://beryl.cc/scheme/norwich"},"sourceId":"osm"},{"categories":["hire"],"id":"osm:node:8693709378","latitude":52.6055641,"longitude":1.2316869,"name":"Cringleford Mobility Hub","properties":{"fee":"yes","network":"Beryl - Norwich","operator":"Beryl","website":"https://beryl.cc/scheme/norwich"},"sourceId":"osm"},{"categories":["hire"],"id":"osm:node:8693709380","latitude":52.6233101,"longitude":1.293277,"name":"Queens Road","properties":{"fee":"yes","network":"Beryl - Norwich","operator":"Beryl","website":"https://beryl.cc/scheme/norwich"},"sourceId":"osm"},{"categories":["hire"],"id":"osm:node:8693709382","latitude":52.6222801,"longitude":1.243435,"name":"UEA Mobility Hub","properties":{"fee":"yes","network":"Beryl - Norwich","operator":"Beryl","website":"https://beryl.cc/scheme/norwich"},"sourceId":"osm"},{"categories":["hire"],"id":"osm:node:8693709383","latitude":52.6285667,"longitude":1.3020279,"name":"Rose Lane","properties":{"fee":"yes","network":"Beryl - Norwich","operator":"Beryl","website":"https://beryl.cc/scheme/norwich"},"sourceId":"osm"},{"categories":["hire"],"id":"osm:node:8693709384","latitude":52.6319962,"longitude":1.241083,"name":"Earlham West Centre","properties":{"fee":"yes","network":"Beryl - Norwich","operator":"Beryl","website":"https://beryl.cc/scheme/norwich"},"sourceId":"osm"},{"categories":["hire"],"id":"osm:node:8693709386","latitude":52.6103477,"longitude":1.301584,"name":"Barrett Road","properties":{"fee":"yes","network":"Beryl - Norwich","operator":"Beryl","website":"https://beryl.cc/scheme/norwich"},"sourceId":"osm"},{"categories":["hire"],"id":"osm:node:8693709388","latitude":52.6296463,"longitude":1.2592649,"name":"Gipsy Lane","properties":{"fee":"yes","network":"Beryl - Norwich","operator":"Beryl","website":"https://beryl.cc/scheme/norwich"},"sourceId":"osm"},{"categories":["hire"],"id":"osm:node:8693709389","latitude":52.6333389,"longitude":1.261513,"name":"Norfolk Community Health and Care","properties":{"fee":"yes","network":"Beryl - Norwich","operator":"Beryl","website":"https://beryl.cc/scheme/norwich"},"sourceId":"osm"},{"categories":["hire"],"id":"osm:node:8693709390","latitude":52.6251335,"longitude":1.260359,"name":"Bunnett Square","properties":{"fee":"yes","network":"Beryl - Norwich","operator":"Beryl","website":"https://beryl.cc/scheme/norwich"},"sourceId":"osm"},{"categories":["hire"],"id":"osm:node:8693709391","latitude":52.6221113,"longitude":1.3062495,"name":"Riverside Leisure Centre","properties":{"fee":"yes","network":"Beryl - Norwich","operator":"Beryl","website":"https://beryl.cc/scheme/norwich"},"sourceId":"osm"},{"categories":["hire"],"id":"osm:node:8693709392","latitude":52.6389503,"longitude":1.243018,"name":"Dereham Road","properties":{"fee":"yes","network":"Beryl - Norwich","operator":"Beryl","website":"https://beryl.cc/scheme/norwich"},"sourceId":"osm"},{"categories":["hire"],"id":"osm:node:8693709393","latitude":52.6248055,"longitude":1.2952991,"name":"All Saints Green","properties":{"fee":"yes","network":"Beryl - Norwich","operator":"Beryl","website":"https://beryl.cc/scheme/norwich"},"sourceId":"osm"},{"categories":["hire"],"id":"osm:node:8693709394","latitude":52.625206,"longitude":1.29561,"name":"John Lewis","properties":{"fee":"yes","network":"Beryl - Norwich","operator":"Beryl","website":"https://beryl.cc/scheme/norwich"},"sourceId":"osm"},{"categories":["hire"],"id":"osm:node:8693709397","latitude":52.6281471,"longitude":1.237921,"name":"University Village","properties":{"fee":"yes","network":"Beryl - Norwich","operator":"Beryl","website":"https://beryl.cc/scheme/norwich"},"sourceId":"osm"},{"categories":["hire"],"id":"osm:node:8693709398","latitude":52.6317673,"longitude":1.2865191,"name":"St Swithins Street","properties":{"fee":"yes","network":"Beryl - Norwich","operator":"Beryl","website":"https://beryl.cc/scheme/norwich"},"sourceId":"osm"},{"categories":["hire"],"id":"osm:node:8693709399","latitude":52.6078606,"longitude":1.251791,"name":"Church Lane","properties":{"fee":"yes","network":"Beryl - Norwich","operator":"Beryl","website":"https://beryl.cc/scheme/norwich"},"sourceId":"osm"},{"categories":["hire"],"id":"osm:node:8693709400","latitude":52.6351242,"longitude":1.2935801,"name":"St Crispins Road","properties":{"brand":"Beryl","fee":"yes","network":"Beryl","operator":"Beryl","website":"https://beryl.cc/scheme/norwich"},"sourceId":"osm"},{"categories":["hire"],"id":"osm:node:8693709402","latitude":52.6350288,"longitude":1.26973,"name":"Hotblack Road/Dereham Road","properties":{"fee":"yes","network":"Beryl - Norwich","operator":"Beryl","website":"https://beryl.cc/scheme/norwich"},"sourceId":"osm"},{"categories":["hire"],"id":"osm:node:9613076848","latitude":52.6295332,"longitude":1.3006549,"name":"Prince of Wales Road","properties":{"brand":"Beryl","fee":"yes","network":"Beryl","operator":"Beryl","website":"https://beryl.cc/scheme/norwich"},"sourceId":"osm"},{"categories":["hire"],"id":"osm:node:9613076849","latitude":52.6406708,"longitude":1.276078,"name":"Heigham Street","properties":{"brand":"Beryl","fee":"yes","network":"Beryl","operator":"Beryl","website":"https://beryl.cc/scheme/norwich"},"sourceId":"osm"},{"categories":["shop"],"id":"osm:way:103273677","latitude":52.63711611333331,"longitude":1.2934819,"name":"Outspoken Cycles","properties":{"openingHours":"Tu-Fr 08:30-17:00; Sa 09:30-16:30"},"sourceId":"osm"},{"categories":["repair"],"id":"osm:way:112840140","latitude":52.63644480000001,"longitude":1.2865691399999999,"name":"Halfords","properties":{"brand":"Halfords","openingHours":"Mo-Fr 09:00-20:00; Sa 09:00-18:00; Su 10:00-17:00; Dec 25 off","serviceRepair":"yes","website":"https://www.halfords.com/locations/norwich-store/"},"sourceId":"osm"},{"categories":["shop"],"id":"osm:way:119212111","latitude":52.62219844000001,"longitude":1.24312918,"name":"Bicycle Repair Centre","properties":{"openingHours":"Mo-Fr 08:30-16:30"},"sourceId":"osm"},{"categories":["shop","repair"],"id":"osm:way:1226141595","latitude":52.60710861111111,"longitude":1.288239211111111,"name":"Cycle Revolution Norwich","properties":{"openingHours":"Mo-Sa 09:00-17:30","operator":"Cycle Revolution","serviceRepair":"yes","website":"https://www.cycle-revolution.net/blog/stores/specialized-norwich/"},"sourceId":"osm"},{"categories":["shop","repair"],"id":"osm:way:129052862","latitude":52.603512400000014,"longitude":1.28532878,"name":"Giant Store Norwich","properties":{"brand":"Giant & Liv","openingHours":"Mo-Sa 09:00-17:30","operator":"Cycle Revolution","serviceRepair":"yes","website":"https://www.giant-norwich.co.uk/gb"},"sourceId":"osm"},{"categories":["shop"],"id":"osm:way:137250659","latitude":52.62892973,"longitude":1.28792642,"name":"Pedal Revolution","properties":{},"sourceId":"osm"},{"categories":["shop"],"id":"osm:way:139918517","latitude":52.6338303,"longitude":1.2864138285714284,"name":"Freemans Cycles","properties":{"openingHours":"Mo-We,Fr 08:30-16:30, Th 08:30-12:00, Sa 08:30-15:00","servicePump":"no","website":"https://www.freemanscycles.co.uk/"},"sourceId":"osm"},{"categories":["shop"],"id":"osm:way:643187252","latitude":52.624768,"longitude":1.3021976,"name":"Bicycle Links","properties":{"openingHours":"Mo-Fr 10:00-18:00; Sa 10:00-17:00","servicePump":"yes","website":"http://www.bicyclelinks.org.uk/"},"sourceId":"osm"},{"categories":["shop"],"id":"osm:way:64962633","latitude":52.61400411999999,"longitude":1.25077428,"name":"All Lite / Leisure Cycles","properties":{"website":"http://www.leisure-cycles.com/"},"sourceId":"osm"},{"categories":["shop"],"id":"osm:way:886752442","latitude":52.6229446,"longitude":1.2834538399999997,"name":"Dodgers Bike Shop","properties":{},"sourceId":"osm"}],"schemaVersion":2}
