{"key":"12/1997/1277","points":[{"id":"osm:node:11210816361","latitude":55.887702,"longitude":-4.4284716,"name":"Greenock Road near Old Greenock Road","properties":{"access":"unknown","bicycle_pa":"stands","capacity":4,"covered":"no","fee":"","operator":"","nameSource":"junction"},"sourceId":"osm"},{"id":"osm:node:1469452174","latitude":55.9119206,"longitude":-4.4266072,"name":"The Crescent by Dalmuir","properties":{"access":"unknown","bicycle_pa":"stands","capacity":10,"covered":"no","fee":"","operator":"","nameSource":"landmark"},"sourceId":"osm"},{"id":"osm:node:1528725298","latitude":55.9075944,"longitude":-4.4055509,"name":"Second Avenue by Singer","properties":{"access":"unknown","bicycle_pa":"stands","capacity":10,"covered":"yes","fee":"","operator":"","nameSource":"landmark"},"sourceId":"osm"},{"id":"osm:node:1528735013","latitude":55.9004878,"longitude":-4.4042644,"name":"Chalmers Street by Clydebank","properties":{"access":"unknown","bicycle_pa":"","capacity":10,"covered":"no","fee":"","operator":"","nameSource":"landmark"},"sourceId":"osm"},{"id":"osm:node:1531249980","latitude":55.9029318,"longitude":-4.4024112,"name":"Forth and Clyde Canal Towpath cycle parking","properties":{"access":"unknown","bicycle_pa":"","capacity":8,"covered":"no","fee":"","operator":"","nameSource":"street"},"sourceId":"osm"},{"id":"osm:node:1531249985","latitude":55.9025604,"longitude":-4.4011056,"name":"Forth and Clyde Canal Towpath by McMonagles Fish & Chips","properties":{"access":"unknown","bicycle_pa":"","capacity":8,"covered":"no","fee":"","operator":"","nameSource":"landmark"},"sourceId":"osm"},{"id":"osm:node:2181771743","latitude":55.9061147,"longitude":-4.4248214,"name":"Dalmuir cycle parking","properties":{"access":"unknown","bicycle_pa":"wall_loops","capacity":10,"covered":"yes","fee":"","operator":"","nameSource":"place"},"sourceId":"osm"},{"id":"osm:node:2181771775","latitude":55.9062349,"longitude":-4.4241465,"name":"Caledonia Street cycle parking","properties":{"access":"unknown","bicycle_pa":"stands","capacity":36,"covered":"yes","fee":"","operator":"","nameSource":"street"},"sourceId":"osm"},{"id":"osm:node:2182243639","latitude":55.9036409,"longitude":-4.4192362,"name":"Cable Depot Road cycle parking","properties":{"access":"unknown","bicycle_pa":"stands","capacity":6,"covered":"no","fee":"","operator":"","nameSource":"street"},"sourceId":"osm"},{"id":"osm:node:2182243663","latitude":55.9036582,"longitude":-4.4194789,"name":"Clyde Gate cycle parking","properties":{"access":"unknown","bicycle_pa":"stands","capacity":6,"covered":"no","fee":"","operator":"","nameSource":"street"},"sourceId":"osm"},{"id":"osm:node:2182243787","latitude":55.9046646,"longitude":-4.4202213,"name":"Clyde Gate near Cable Depot Road","properties":{"access":"unknown","bicycle_pa":"stands","capacity":12,"covered":"yes","fee":"","operator":"","nameSource":"junction"},"sourceId":"osm"},{"id":"osm:node:2448753149","latitude":55.9026085,"longitude":-4.4034176,"name":"Forth and Clyde Canal Towpath near Sylvania Way South","properties":{"access":"unknown","bicycle_pa":"stands","capacity":8,"covered":"no","fee":"","operator":"","nameSource":"junction"},"sourceId":"osm"},{"id":"osm:node:2448753153","latitude":55.9027498,"longitude":-4.4042277,"name":"Sylvania Way South near Forth and Clyde Canal Towpath","properties":{"access":"unknown","bicycle_pa":"stands","capacity":20,"covered":"no","fee":"","operator":"","nameSource":"junction"},"sourceId":"osm"},{"id":"osm:node:2448753156","latitude":55.902619,"longitude":-4.4032057,"name":"Forth and Clyde Canal Towpath near Sylvania Way South","properties":{"access":"unknown","bicycle_pa":"stands","capacity":14,"covered":"no","fee":"","operator":"","nameSource":"junction"},"sourceId":"osm"},{"id":"osm:node:2448753159","latitude":55.9027228,"longitude":-4.4038817,"name":"Sylvania Way South near Forth and Clyde Canal Towpath","properties":{"access":"unknown","bicycle_pa":"stands","capacity":8,"covered":"no","fee":"","operator":"","nameSource":"junction"},"sourceId":"osm"},{"id":"osm:node:3597262265","latitude":55.9040849,"longitude":-4.4492134,"name":"Bridgewater Place by Aldi","properties":{"access":"unknown","bicycle_pa":"stands","capacity":8,"covered":"","fee":"","operator":"","nameSource":"landmark"},"sourceId":"osm"},{"id":"osm:node:3597262275","latitude":55.9045343,"longitude":-4.4499608,"name":"Bridgewater Place by Erskine Library","properties":{"access":"unknown","bicycle_pa":"stands","capacity":12,"covered":"","fee":"","operator":"","nameSource":"landmark"},"sourceId":"osm"},{"id":"osm:node:3732215858","latitude":55.9044195,"longitude":-4.4506603,"name":"Bridgewater Place cycle parking","properties":{"access":"unknown","bicycle_pa":"stands","capacity":10,"covered":"no","fee":"","operator":"","nameSource":"street"},"sourceId":"osm"},{"id":"osm:node:4374915248","latitude":55.9040524,"longitude":-4.4001894,"name":"Coldstream Road cycle parking","properties":{"access":"unknown","bicycle_pa":"stands","capacity":8,"covered":"no","fee":"","operator":"","nameSource":"street"},"sourceId":"osm"},{"id":"osm:node:4464177349","latitude":55.9172187,"longitude":-4.4806134,"name":"Bargarran cycle parking","properties":{"access":"private","bicycle_pa":"stands","capacity":6,"covered":"yes","fee":"","operator":"","nameSource":"place"},"sourceId":"osm"}],"schemaVersion":1}
