{"key":"12/2071/1529","points":[{"categories":["hire"],"id":"osm:node:10648189305","latitude":41.3769898,"longitude":2.0886107,"name":"TRAM Pont d'Esplugues","properties":{"brand":"AMBici","fee":"yes","network":"AMBici","operator":"Transports Metropolitans de Barcelona"},"sourceId":"osm"},{"categories":["hire"],"id":"osm:node:11020622487","latitude":41.3826913,"longitude":2.1001877,"name":"Hospital Sant Joan de Déu","properties":{"brand":"AMBici","fee":"yes","network":"AMBici","operator":"Transports Metropolitans de Barcelona"},"sourceId":"osm"},{"categories":["hire"],"id":"osm:node:11020622493","latitude":41.3787343,"longitude":2.0766547,"name":"TRAM Rambla de Sant Just","properties":{"brand":"AMBici","fee":"yes","network":"AMBici","operator":"Transports Metropolitans de Barcelona"},"sourceId":"osm"},{"categories":["hire"],"id":"osm:node:11020622496","latitude":41.3793242,"longitude":2.0940345,"name":"Av. dels Països Catalans - Residència Blume","properties":{"brand":"AMBici","fee":"yes","network":"AMBici","operator":"Transports Metropolitans de Barcelona"},"sourceId":"osm"},{"categories":["hire"],"id":"osm:node:11020622497","latitude":41.3818268,"longitude":2.0806593,"name":"Plaça Maragall","properties":{"brand":"AMBici","fee":"yes","network":"AMBici","operator":"Transports Metropolitans de Barcelona"},"sourceId":"osm"},{"categories":["hire"],"id":"osm:node:11020622498","latitude":41.3861511,"longitude":2.0807182,"name":"La Miranda – Canigó","properties":{"brand":"AMBici","fee":"yes","network":"AMBici","operator":"Transports Metropolitans de Barcelona"},"sourceId":"osm"},{"categories":["hire"],"id":"osm:node:11020622500","latitude":41.3857995,"longitude":2.0603968,"name":"Mas Lluí - Carmen Amaya","properties":{"brand":"AMBici","fee":"yes","network":"AMBici","operator":"Transports Metropolitans de Barcelona"},"sourceId":"osm"},{"categories":["hire"],"id":"osm:node:11020622502","latitude":41.4062181,"longitude":2.0257455,"name":"Les Guardioles","properties":{"brand":"AMBici","fee":"yes","network":"AMBici","operator":"Transports Metropolitans de Barcelona"},"sourceId":"osm"},{"categories":["repair"],"id":"osm:node:11513593769","latitude":41.3812014,"longitude":2.1075005,"name":"Punt Bici","properties":{"brand":"RACC","fee":"no","openingHours":"24/7","operator":"RACC"},"sourceId":"osm"},{"categories":["shop","repair"],"id":"osm:node:12249851700","latitude":41.3864527,"longitude":2.0532326,"name":"Ultra Bikes 54","properties":{"openingHours":"Mo-Sa 10:00-14:00 & Mo-Fr 17:00-20:30","serviceRepair":"yes"},"sourceId":"osm"},{"categories":["shop"],"id":"osm:node:2702316473","latitude":41.3823454,"longitude":2.0443825,"name":"Cicles Enric","properties":{},"sourceId":"osm"},{"categories":["shop"],"id":"osm:node:2702316474","latitude":41.3793643,"longitude":2.0499463,"name":"Sprint","properties":{},"sourceId":"osm"},{"categories":["shop"],"id":"osm:node:2705698159","latitude":41.3783704,"longitude":2.0707917,"name":"Bikestocks","properties":{},"sourceId":"osm"},{"categories":["repair"],"id":"osm:node:6370152862","latitude":41.3935808,"longitude":2.093883,"name":"RACC","properties":{"brand":"RACC","fee":"no","openingHours":"24/7","operator":"RACC","servicePump":"yes"},"sourceId":"osm"},{"categories":["hire"],"id":"osm:node:8196045782","latitude":41.3880559,"longitude":2.1093099,"name":"429 - Gran Capità 9","properties":{"brand":"bicing","network":"bicing","operator":"Pedalem Barcelona"},"sourceId":"osm"},{"categories":["hire"],"id":"osm:node:9557284921","latitude":41.3771776,"longitude":2.0600491,"name":"Centre Cívic Torreblanca","properties":{"brand":"AMBici","fee":"yes","network":"AMBici","operator":"Transports Metropolitans de Barcelona"},"sourceId":"osm"},{"categories":["hire"],"id":"osm:node:9557284925","latitude":41.3799613,"longitude":2.0666875,"name":"TRAM Walden","properties":{"brand":"AMBici","fee":"yes","network":"AMBici","operator":"Transports Metropolitans de Barcelona"},"sourceId":"osm"},{"categories":["hire"],"id":"osm:node:9557393556","latitude":41.3774451,"longitude":2.088946,"name":"712 Ajuntament","properties":{"fee":"yes","network":"e-BiciBox","openingHours":"Mo-Su 07:00-24:00","operator":"Movement"},"sourceId":"osm"},{"categories":["hire"],"id":"osm:node:9557393558","latitude":41.383279,"longitude":2.0736346,"name":"El Parador","properties":{"brand":"AMBici","fee":"yes","network":"AMBici","operator":"Transports Metropolitans de Barcelona"},"sourceId":"osm"}],"schemaVersion":2}
