{"key":"12/2050/1345","points":[{"id":"osm:node:12598560089","latitude":52.3995583,"longitude":0.2623745,"name":"Minster Place near High Street","properties":{"access":"unknown","bicycle_pa":"stands","capacity":0,"covered":"no","fee":"","operator":"","nameSource":"junction"},"sourceId":"osm"},{"id":"osm:node:12598616651","latitude":52.3992895,"longitude":0.2623577,"name":"Minster Place near Steeple Row","properties":{"access":"unknown","bicycle_pa":"stands","capacity":8,"covered":"no","fee":"","operator":"","nameSource":"junction"},"sourceId":"osm"},{"id":"osm:node:12598618345","latitude":52.400637,"longitude":0.2628075,"name":"Chapel Street near Lynn Road","properties":{"access":"unknown","bicycle_pa":"wall_loops","capacity":0,"covered":"no","fee":"","operator":"","nameSource":"junction"},"sourceId":"osm"},{"id":"osm:node:12598624309","latitude":52.3979489,"longitude":0.2576502,"name":"St Mary's Street near Cambridge Road","properties":{"access":"unknown","bicycle_pa":"stands","capacity":0,"covered":"yes","fee":"","operator":"","nameSource":"junction"},"sourceId":"osm"},{"id":"osm:node:1807489478","latitude":52.3992421,"longitude":0.2621598,"name":"The Gallery near Minster Place","properties":{"access":"customers","bicycle_pa":"wall_loops","capacity":6,"covered":"no","fee":"","operator":"","nameSource":"junction"},"sourceId":"osm"},{"id":"osm:node:2266782500","latitude":52.3988311,"longitude":0.2592462,"name":"St Mary's Street near Thomas Parsons Square","properties":{"access":"unknown","bicycle_pa":"stands","capacity":4,"covered":"no","fee":"","operator":"","nameSource":"junction"},"sourceId":"osm"},{"id":"osm:node:2267358918","latitude":52.3904498,"longitude":0.2634148,"name":"The Dock cycle parking","properties":{"access":"unknown","bicycle_pa":"wall_loops","capacity":6,"covered":"","fee":"","operator":"","nameSource":"street"},"sourceId":"osm"},{"id":"osm:node:2269975518","latitude":52.4005694,"longitude":0.2632441,"name":"Market Street near Lynn Road","properties":{"access":"unknown","bicycle_pa":"wall_loops","capacity":12,"covered":"yes","fee":"","operator":"","nameSource":"junction"},"sourceId":"osm"},{"id":"osm:node:2269975527","latitude":52.4078997,"longitude":0.2592685,"name":"Nene Road near Welland Place","properties":{"access":"destination","bicycle_pa":"stands","capacity":90,"covered":"yes","fee":"","operator":"","nameSource":"junction"},"sourceId":"osm"},{"id":"osm:node:2269975529","latitude":52.4081053,"longitude":0.2597357,"name":"Nene Road near Welland Place","properties":{"access":"destination","bicycle_pa":"stands","capacity":10,"covered":"yes","fee":"","operator":"","nameSource":"junction"},"sourceId":"osm"},{"id":"osm:node:2298644157","latitude":52.398784,"longitude":0.2589637,"name":"St Mary's Street near Thomas Parsons Square","properties":{"access":"unknown","bicycle_pa":"stands","capacity":2,"covered":"no","fee":"","operator":"","nameSource":"junction"},"sourceId":"osm"},{"id":"osm:node:5607977911","latitude":52.4099853,"longitude":0.2518912,"name":"Downham Road by Mangiare Ristorante Italiano","properties":{"access":"unknown","bicycle_pa":"stands","capacity":0,"covered":"no","fee":"","operator":"","nameSource":"landmark"},"sourceId":"osm"},{"id":"osm:node:5607977912","latitude":52.4101594,"longitude":0.2519025,"name":"Downham Road by Mangiare Ristorante Italiano","properties":{"access":"unknown","bicycle_pa":"stands","capacity":0,"covered":"yes","fee":"","operator":"","nameSource":"landmark"},"sourceId":"osm"},{"id":"osm:node:5607977920","latitude":52.4074259,"longitude":0.2484059,"name":"A10 by The Hive Leisure Centre","properties":{"access":"unknown","bicycle_pa":"stands","capacity":0,"covered":"","fee":"","operator":"","nameSource":"landmark"},"sourceId":"osm"}],"schemaVersion":2}
