{"key":"12/2050/1355","points":[{"id":"osm:node:10692113826","latitude":51.8796452,"longitude":0.2483288,"name":"Coopers End Road cycle parking","properties":{"access":"unknown","bicycle_pa":"shed","capacity":0,"covered":"yes","fee":"","operator":"","nameSource":"street"},"sourceId":"osm"},{"id":"osm:node:6549806509","latitude":51.8887241,"longitude":0.2622911,"name":"Terminal Road North cycle parking","properties":{"access":"yes","bicycle_pa":"","capacity":10,"covered":"yes","fee":"no","operator":"","nameSource":"street"},"sourceId":"osm"},{"id":"osm:node:8137722064","latitude":51.8765507,"longitude":0.2158052,"name":"Round Coppice Road cycle parking","properties":{"access":"unknown","bicycle_pa":"shed","capacity":0,"covered":"","fee":"","operator":"","nameSource":"street"},"sourceId":"osm"},{"id":"osm:node:8137722065","latitude":51.8763214,"longitude":0.2154404,"name":"Round Coppice Road cycle parking","properties":{"access":"private","bicycle_pa":"","capacity":0,"covered":"","fee":"","operator":"","nameSource":"street"},"sourceId":"osm"},{"id":"osm:node:8570237579","latitude":51.8848093,"longitude":0.2515654,"name":"Pincey Road cycle parking","properties":{"access":"unknown","bicycle_pa":"","capacity":0,"covered":"yes","fee":"no","operator":"","nameSource":"street"},"sourceId":"osm"},{"id":"osm:node:8681222614","latitude":51.8702671,"longitude":0.1801868,"name":"Dunmow Road cycle parking","properties":{"access":"unknown","bicycle_pa":"stands","capacity":0,"covered":"yes","fee":"","operator":"","nameSource":"street"},"sourceId":"osm"},{"id":"osm:node:8870747233","latitude":51.8756061,"longitude":0.2497773,"name":"Southgate Road by Starbucks","properties":{"access":"unknown","bicycle_pa":"","capacity":0,"covered":"no","fee":"","operator":"","nameSource":"landmark"},"sourceId":"osm"},{"id":"osm:node:8946687587","latitude":51.8894137,"longitude":0.2633284,"name":"Terminal Road North by Caffè Nero","properties":{"access":"unknown","bicycle_pa":"stands","capacity":10,"covered":"yes","fee":"","operator":"","nameSource":"landmark"},"sourceId":"osm"},{"id":"osm:node:9095174445","latitude":51.8778678,"longitude":0.2443222,"name":"Taylors End Road cycle parking","properties":{"access":"unknown","bicycle_pa":"","capacity":0,"covered":"yes","fee":"","operator":"","nameSource":"street"},"sourceId":"osm"},{"id":"osm:node:9669355630","latitude":51.8659541,"longitude":0.176996,"name":"Cavell Drive near Cavell Court","properties":{"access":"unknown","bicycle_pa":"stands","capacity":6,"covered":"no","fee":"","operator":"","nameSource":"junction"},"sourceId":"osm"}],"schemaVersion":2}
