{"key":"12/2050/1360","points":[{"id":"osm:node:10273090600","latitude":51.5799354,"longitude":0.1844047,"name":"Mercury Gardens near A118","properties":{"access":"unknown","bicycle_pa":"post_hoop","capacity":5,"covered":"no","fee":"","operator":"","nameSource":"junction"},"sourceId":"osm"},{"id":"osm:node:10273090601","latitude":51.581101,"longitude":0.1835333,"name":"Park End Road by Havering Town Hall","properties":{"access":"unknown","bicycle_pa":"stands","capacity":4,"covered":"","fee":"","operator":"","nameSource":"landmark"},"sourceId":"osm"},{"id":"osm:node:10273090602","latitude":51.580007,"longitude":0.1862467,"name":"Dolphin Approach cycle parking","properties":{"access":"unknown","bicycle_pa":"stands","capacity":54,"covered":"yes","fee":"","operator":"","nameSource":"street"},"sourceId":"osm"},{"id":"osm:node:10273090603","latitude":51.580027,"longitude":0.1836017,"name":"Romford Market near Liberty Square","properties":{"access":"unknown","bicycle_pa":"stands","capacity":6,"covered":"yes","fee":"","operator":"","nameSource":"junction"},"sourceId":"osm"},{"id":"osm:node:10273090604","latitude":51.5751616,"longitude":0.1835148,"name":"Eastern Road near South Street","properties":{"access":"unknown","bicycle_pa":"stands","capacity":4,"covered":"no","fee":"","operator":"","nameSource":"junction"},"sourceId":"osm"},{"id":"osm:node:10273090605","latitude":51.5772678,"longitude":0.1839882,"name":"Western Road near Lockwood Walk","properties":{"access":"unknown","bicycle_pa":"stands","capacity":6,"covered":"yes","fee":"","operator":"","nameSource":"junction"},"sourceId":"osm"},{"id":"osm:node:10273090606","latitude":51.5771976,"longitude":0.1838575,"name":"Liberty Square by WestHam Shop","properties":{"access":"unknown","bicycle_pa":"stands","capacity":6,"covered":"yes","fee":"","operator":"","nameSource":"landmark"},"sourceId":"osm"},{"id":"osm:node:10273090607","latitude":51.5744483,"longitude":0.1847826,"name":"Victoria Road by The Peri Peri Box","properties":{"access":"unknown","bicycle_pa":"stands","capacity":6,"covered":"","fee":"","operator":"","nameSource":"landmark"},"sourceId":"osm"},{"id":"osm:node:10273090608","latitude":51.5740298,"longitude":0.1838254,"name":"South Street near Atlanta Boulevard","properties":{"access":"unknown","bicycle_pa":"stands","capacity":4,"covered":"","fee":"","operator":"","nameSource":"junction"},"sourceId":"osm"},{"id":"osm:node:10273108557","latitude":51.5754472,"longitude":0.1832546,"name":"South Street near Havana Close","properties":{"access":"unknown","bicycle_pa":"stands","capacity":6,"covered":"no","fee":"","operator":"","nameSource":"junction"},"sourceId":"osm"},{"id":"osm:node:10273108558","latitude":51.5750104,"longitude":0.1836147,"name":"South Street near Eastern Road","properties":{"access":"unknown","bicycle_pa":"stands","capacity":2,"covered":"yes","fee":"","operator":"","nameSource":"junction"},"sourceId":"osm"},{"id":"osm:node:10273108559","latitude":51.5742028,"longitude":0.1844029,"name":"Victoria Road near Atlanta Boulevard","properties":{"access":"unknown","bicycle_pa":"stands","capacity":4,"covered":"","fee":"","operator":"","nameSource":"junction"},"sourceId":"osm"},{"id":"osm:node:10273108560","latitude":51.5743193,"longitude":0.1843708,"name":"Victoria Road near Atlanta Boulevard","properties":{"access":"unknown","bicycle_pa":"stands","capacity":6,"covered":"","fee":"","operator":"","nameSource":"junction"},"sourceId":"osm"},{"id":"osm:node:10273108676","latitude":51.5807723,"longitude":0.1832857,"name":"Park End Road by Romford Central Library","properties":{"access":"unknown","bicycle_pa":"stands","capacity":12,"covered":"","fee":"","operator":"","nameSource":"landmark"},"sourceId":"osm"},{"id":"osm:node:10273108677","latitude":51.5799266,"longitude":0.1827355,"name":"Market Place by British Heart Foundation","properties":{"access":"unknown","bicycle_pa":"stands","capacity":4,"covered":"","fee":"","operator":"","nameSource":"landmark"},"sourceId":"osm"},{"id":"osm:node:10273108678","latitude":51.5798688,"longitude":0.1826359,"name":"Market Place by British Heart Foundation","properties":{"access":"unknown","bicycle_pa":"stands","capacity":4,"covered":"","fee":"","operator":"","nameSource":"landmark"},"sourceId":"osm"},{"id":"osm:node:10273108679","latitude":51.5795713,"longitude":0.1848199,"name":"Mercury Gardens by Lumiere Cinema Romford","properties":{"access":"unknown","bicycle_pa":"post_hoop","capacity":1,"covered":"","fee":"","operator":"","nameSource":"landmark"},"sourceId":"osm"},{"id":"osm:node:10273108680","latitude":51.5748766,"longitude":0.1836991,"name":"South Street near Eastern Road","properties":{"access":"unknown","bicycle_pa":"stands","capacity":18,"covered":"yes","fee":"","operator":"","nameSource":"junction"},"sourceId":"osm"},{"id":"osm:node:10273108681","latitude":51.577233,"longitude":0.1839223,"name":"Western Road near Lockwood Walk","properties":{"access":"unknown","bicycle_pa":"stands","capacity":6,"covered":"yes","fee":"","operator":"","nameSource":"junction"},"sourceId":"osm"},{"id":"osm:node:10273108682","latitude":51.5756999,"longitude":0.1830268,"name":"South Street near Havana Close","properties":{"access":"unknown","bicycle_pa":"stands","capacity":8,"covered":"no","fee":"","operator":"","nameSource":"junction"},"sourceId":"osm"},{"id":"osm:node:10273108683","latitude":51.5733461,"longitude":0.1839729,"name":"South Street near Marden Road","properties":{"access":"unknown","bicycle_pa":"stands","capacity":6,"covered":"","fee":"","operator":"","nameSource":"junction"},"sourceId":"osm"},{"id":"osm:node:10273109033","latitude":51.5808555,"longitude":0.1832454,"name":"Park End Road by Romford Central Library","properties":{"access":"unknown","bicycle_pa":"stands","capacity":6,"covered":"","fee":"","operator":"","nameSource":"landmark"},"sourceId":"osm"},{"id":"osm:node:10273109034","latitude":51.5765265,"longitude":0.1825452,"name":"Western Road near South Street","properties":{"access":"unknown","bicycle_pa":"stands","capacity":20,"covered":"","fee":"","operator":"","nameSource":"junction"},"sourceId":"osm"},{"id":"osm:node:10273109127","latitude":51.5798446,"longitude":0.1825928,"name":"Market Place by British Heart Foundation","properties":{"access":"unknown","bicycle_pa":"stands","capacity":8,"covered":"","fee":"","operator":"","nameSource":"landmark"},"sourceId":"osm"},{"id":"osm:node:10273109128","latitude":51.5795738,"longitude":0.1848467,"name":"Mercury Gardens by Lumiere Cinema Romford","properties":{"access":"unknown","bicycle_pa":"post_hoop","capacity":1,"covered":"","fee":"","operator":"","nameSource":"landmark"},"sourceId":"osm"},{"id":"osm:node:10273109129","latitude":51.5753883,"longitude":0.183307,"name":"South Street near Havana Close","properties":{"access":"unknown","bicycle_pa":"stands","capacity":6,"covered":"no","fee":"","operator":"","nameSource":"junction"},"sourceId":"osm"},{"id":"osm:node:10273109130","latitude":51.5764675,"longitude":0.1826118,"name":"Western Road near South Street","properties":{"access":"unknown","bicycle_pa":"stands","capacity":4,"covered":"","fee":"","operator":"","nameSource":"junction"},"sourceId":"osm"},{"id":"osm:node:10273109316","latitude":51.5750873,"longitude":0.1835608,"name":"South Street near Eastern Road","properties":{"access":"unknown","bicycle_pa":"stands","capacity":12,"covered":"yes","fee":"","operator":"","nameSource":"junction"},"sourceId":"osm"},{"id":"osm:node:10273109514","latitude":51.5790117,"longitude":0.184698,"name":"Liberty Square by The Perfume Shop","properties":{"access":"unknown","bicycle_pa":"stands","capacity":8,"covered":"yes","fee":"","operator":"","nameSource":"landmark"},"sourceId":"osm"},{"id":"osm:node:10273109628","latitude":51.5799467,"longitude":0.1827667,"name":"Market Place by British Heart Foundation","properties":{"access":"unknown","bicycle_pa":"stands","capacity":4,"covered":"","fee":"","operator":"","nameSource":"landmark"},"sourceId":"osm"},{"id":"osm:node:10275588956","latitude":51.5671111,"longitude":0.2202408,"name":"North Street near Burnway","properties":{"access":"unknown","bicycle_pa":"stands","capacity":4,"covered":"","fee":"","operator":"","nameSource":"junction"},"sourceId":"osm"},{"id":"osm:node:10275589719","latitude":51.5648866,"longitude":0.2208431,"name":"Wedlake Close near North Street","properties":{"access":"unknown","bicycle_pa":"stands","capacity":8,"covered":"","fee":"","operator":"","nameSource":"junction"},"sourceId":"osm"},{"id":"osm:node:10275609962","latitude":51.6019839,"longitude":0.2240067,"name":"Kingsbridge Circus near Kingsbridge Road","properties":{"access":"unknown","bicycle_pa":"lockers","capacity":2,"covered":"","fee":"","operator":"","nameSource":"junction"},"sourceId":"osm"},{"id":"osm:node:10275609963","latitude":51.6010861,"longitude":0.2250563,"name":"Leyburn Crescent near Keighley Road","properties":{"access":"unknown","bicycle_pa":"lockers","capacity":4,"covered":"","fee":"","operator":"","nameSource":"junction"},"sourceId":"osm"},{"id":"osm:node:10275609964","latitude":51.6011748,"longitude":0.2249242,"name":"Kingsbridge Circus near Kingsbridge Road","properties":{"access":"unknown","bicycle_pa":"lockers","capacity":3,"covered":"","fee":"","operator":"","nameSource":"junction"},"sourceId":"osm"},{"id":"osm:node:10275609965","latitude":51.6012083,"longitude":0.2229134,"name":"Kingsbridge Circus near Leyburn Road","properties":{"access":"unknown","bicycle_pa":"lockers","capacity":1,"covered":"","fee":"","operator":"","nameSource":"junction"},"sourceId":"osm"},{"id":"osm:node:10275609966","latitude":51.6009382,"longitude":0.2228595,"name":"Leyburn Road near Kingsbridge Circus","properties":{"access":"unknown","bicycle_pa":"lockers","capacity":1,"covered":"","fee":"","operator":"","nameSource":"junction"},"sourceId":"osm"},{"id":"osm:node:10275609967","latitude":51.6016591,"longitude":0.2230749,"name":"Kingsbridge Circus cycle parking","properties":{"access":"unknown","bicycle_pa":"lockers","capacity":1,"covered":"","fee":"","operator":"","nameSource":"street"},"sourceId":"osm"},{"id":"osm:node:10275609968","latitude":51.6015409,"longitude":0.2230813,"name":"Kingsbridge Circus near Leyburn Road","properties":{"access":"unknown","bicycle_pa":"lockers","capacity":4,"covered":"","fee":"","operator":"","nameSource":"junction"},"sourceId":"osm"},{"id":"osm:node:10275609969","latitude":51.6007161,"longitude":0.224069,"name":"Kingsbridge Circus near Leyburn Road","properties":{"access":"unknown","bicycle_pa":"lockers","capacity":3,"covered":"","fee":"","operator":"","nameSource":"junction"},"sourceId":"osm"},{"id":"osm:node:10275609970","latitude":51.6048808,"longitude":0.2367991,"name":"Leamington Close cycle parking","properties":{"access":"unknown","bicycle_pa":"stands","capacity":10,"covered":"yes","fee":"","operator":"","nameSource":"street"},"sourceId":"osm"},{"id":"osm:node:10275609971","latitude":51.6014923,"longitude":0.235549,"name":"St Neots Road near Paines Brook Way","properties":{"access":"unknown","bicycle_pa":"stands","capacity":10,"covered":"","fee":"","operator":"","nameSource":"junction"},"sourceId":"osm"},{"id":"osm:node:10275609972","latitude":51.6031033,"longitude":0.2474592,"name":"Colchester Road near Harold Court Road","properties":{"access":"unknown","bicycle_pa":"stands","capacity":4,"covered":"","fee":"","operator":"","nameSource":"junction"},"sourceId":"osm"},{"id":"osm:node:10275610231","latitude":51.6020391,"longitude":0.2243208,"name":"Kingsbridge Road near Kingsbridge Circus","properties":{"access":"unknown","bicycle_pa":"lockers","capacity":2,"covered":"","fee":"","operator":"","nameSource":"junction"},"sourceId":"osm"},{"id":"osm:node:10275610232","latitude":51.6008452,"longitude":0.2247012,"name":"Kingsbridge Circus cycle parking","properties":{"access":"unknown","bicycle_pa":"lockers","capacity":3,"covered":"","fee":"","operator":"","nameSource":"street"},"sourceId":"osm"},{"id":"osm:node:10275610233","latitude":51.6051075,"longitude":0.2350684,"name":"Petersfield Avenue near Hucknall Close","properties":{"access":"unknown","bicycle_pa":"stands","capacity":4,"covered":"","fee":"","operator":"","nameSource":"junction"},"sourceId":"osm"},{"id":"osm:node:10275610234","latitude":51.6055735,"longitude":0.2343653,"name":"Petersfield Avenue near Redruth Road","properties":{"access":"unknown","bicycle_pa":"stands","capacity":4,"covered":"","fee":"","operator":"","nameSource":"junction"},"sourceId":"osm"},{"id":"osm:node:10275610235","latitude":51.6030963,"longitude":0.234518,"name":"Paines Brook Court near Paines Brook Way","properties":{"access":"unknown","bicycle_pa":"stands","capacity":8,"covered":"","fee":"","operator":"","nameSource":"junction"},"sourceId":"osm"},{"id":"osm:node:10280248246","latitude":51.6128317,"longitude":0.222016,"name":"Whitchurch Road near Woodbridge Lane","properties":{"access":"unknown","bicycle_pa":"stands","capacity":2,"covered":"","fee":"","operator":"","nameSource":"junction"},"sourceId":"osm"},{"id":"osm:node:10280248247","latitude":51.6127633,"longitude":0.2217926,"name":"Whitchurch Road near Woodbridge Lane","properties":{"access":"unknown","bicycle_pa":"stands","capacity":2,"covered":"","fee":"","operator":"","nameSource":"junction"},"sourceId":"osm"},{"id":"osm:node:10280248248","latitude":51.6070245,"longitude":0.2181517,"name":"Farnham Road by William Hill","properties":{"access":"unknown","bicycle_pa":"stands","capacity":4,"covered":"","fee":"","operator":"","nameSource":"landmark"},"sourceId":"osm"},{"id":"osm:node:10280252430","latitude":51.6032458,"longitude":0.214026,"name":"Myrtle Road near Honeysuckle Close","properties":{"access":"unknown","bicycle_pa":"stands","capacity":10,"covered":"","fee":"","operator":"","nameSource":"junction"},"sourceId":"osm"},{"id":"osm:node:10280252431","latitude":51.6062186,"longitude":0.2188055,"name":"Farnham Road near The Arcade","properties":{"access":"unknown","bicycle_pa":"stands","capacity":8,"covered":"","fee":"","operator":"","nameSource":"junction"},"sourceId":"osm"},{"id":"osm:node:10280252432","latitude":51.6076279,"longitude":0.218538,"name":"Hilldene Avenue near Hilldene Close","properties":{"access":"unknown","bicycle_pa":"stands","capacity":12,"covered":"","fee":"","operator":"","nameSource":"junction"},"sourceId":"osm"},{"id":"osm:node:10280252433","latitude":51.6069514,"longitude":0.217542,"name":"Farnham Road near West Dene Drive","properties":{"access":"unknown","bicycle_pa":"stands","capacity":4,"covered":"","fee":"","operator":"","nameSource":"junction"},"sourceId":"osm"},{"id":"osm:node:10280252434","latitude":51.6075249,"longitude":0.2197777,"name":"Farnham Road near East Dene Drive","properties":{"access":"unknown","bicycle_pa":"stands","capacity":4,"covered":"","fee":"","operator":"","nameSource":"junction"},"sourceId":"osm"},{"id":"osm:node:10280259087","latitude":51.5772029,"longitude":0.1794897,"name":"Malt House Place by Costa","properties":{"access":"unknown","bicycle_pa":"stands","capacity":10,"covered":"yes","fee":"","operator":"","nameSource":"landmark"},"sourceId":"osm"},{"id":"osm:node:10280259088","latitude":51.5776634,"longitude":0.1786727,"name":"High Street near Angel Way","properties":{"access":"unknown","bicycle_pa":"stands","capacity":8,"covered":"","fee":"","operator":"","nameSource":"junction"},"sourceId":"osm"},{"id":"osm:node:10280259089","latitude":51.5686189,"longitude":0.1804756,"name":"Rom Valley Way cycle parking","properties":{"access":"unknown","bicycle_pa":"stands","capacity":10,"covered":"","fee":"","operator":"","nameSource":"street"},"sourceId":"osm"},{"id":"osm:node:10280259090","latitude":51.5684357,"longitude":0.1808179,"name":"Rom Valley Way cycle parking","properties":{"access":"unknown","bicycle_pa":"stands","capacity":20,"covered":"yes","fee":"","operator":"","nameSource":"street"},"sourceId":"osm"},{"id":"osm:node:10280259091","latitude":51.5685641,"longitude":0.1805221,"name":"Rom Valley Way cycle parking","properties":{"access":"unknown","bicycle_pa":"stands","capacity":10,"covered":"","fee":"","operator":"","nameSource":"street"},"sourceId":"osm"},{"id":"osm:node:10280259092","latitude":51.5679286,"longitude":0.1808734,"name":"Rom Valley Way cycle parking","properties":{"access":"unknown","bicycle_pa":"stands","capacity":10,"covered":"yes","fee":"","operator":"","nameSource":"street"},"sourceId":"osm"},{"id":"osm:node:10280260222","latitude":51.5769466,"longitude":0.1775546,"name":"High Street near Logan Mews","properties":{"access":"unknown","bicycle_pa":"stands","capacity":10,"covered":"","fee":"","operator":"","nameSource":"junction"},"sourceId":"osm"},{"id":"osm:node:10280260293","latitude":51.5717386,"longitude":0.1892719,"name":"Brentwood Road near Craigdale Road","properties":{"access":"unknown","bicycle_pa":"post_hoop","capacity":4,"covered":"","fee":"","operator":"","nameSource":"junction"},"sourceId":"osm"},{"id":"osm:node:10280260294","latitude":51.5653233,"longitude":0.1881655,"name":"Roneo Corner near Roneo Link","properties":{"access":"unknown","bicycle_pa":"stands","capacity":6,"covered":"","fee":"","operator":"","nameSource":"junction"},"sourceId":"osm"},{"id":"osm:node:10280260295","latitude":51.5689557,"longitude":0.1932901,"name":"Park Lane near Hillcrest Road","properties":{"access":"unknown","bicycle_pa":"post_hoop","capacity":2,"covered":"","fee":"","operator":"","nameSource":"junction"},"sourceId":"osm"},{"id":"osm:node:10280263011","latitude":51.606321,"longitude":0.2193923,"name":"Farnham Road near The Arcade","properties":{"access":"unknown","bicycle_pa":"stands","capacity":10,"covered":"","fee":"","operator":"","nameSource":"junction"},"sourceId":"osm"},{"id":"osm:node:10280263609","latitude":51.6127141,"longitude":0.2216409,"name":"Whitchurch Road near Woodbridge Lane","properties":{"access":"unknown","bicycle_pa":"stands","capacity":2,"covered":"","fee":"","operator":"","nameSource":"junction"},"sourceId":"osm"},{"id":"osm:node:10280281641","latitude":51.5659418,"longitude":0.1911958,"name":"Hornchurch Road cycle parking","properties":{"access":"unknown","bicycle_pa":"","capacity":18,"covered":"","fee":"","operator":"","nameSource":"street"},"sourceId":"osm"},{"id":"osm:node:10280282720","latitude":51.5687588,"longitude":0.1933977,"name":"Park Lane near Hillcrest Road","properties":{"access":"unknown","bicycle_pa":"post_hoop","capacity":2,"covered":"","fee":"","operator":"","nameSource":"junction"},"sourceId":"osm"},{"id":"osm:node:10280282721","latitude":51.5692198,"longitude":0.1931725,"name":"Park Lane near Park Crescent","properties":{"access":"unknown","bicycle_pa":"post_hoop","capacity":2,"covered":"","fee":"","operator":"","nameSource":"junction"},"sourceId":"osm"},{"id":"osm:node:10280282722","latitude":51.5693968,"longitude":0.19309,"name":"Park Crescent near Park Lane","properties":{"access":"unknown","bicycle_pa":"post_hoop","capacity":2,"covered":"","fee":"","operator":"","nameSource":"junction"},"sourceId":"osm"},{"id":"osm:node:10281975256","latitude":51.5949507,"longitude":0.2126773,"name":"Masefield Crescent near Straight Road","properties":{"access":"unknown","bicycle_pa":"stands","capacity":4,"covered":"","fee":"","operator":"","nameSource":"junction"},"sourceId":"osm"},{"id":"osm:node:10281975257","latitude":51.5950231,"longitude":0.2126534,"name":"Masefield Crescent near Straight Road","properties":{"access":"unknown","bicycle_pa":"stands","capacity":4,"covered":"","fee":"","operator":"","nameSource":"junction"},"sourceId":"osm"},{"id":"osm:node:10281975258","latitude":51.5932598,"longitude":0.2136131,"name":"Straight Road near Colchester Road","properties":{"access":"unknown","bicycle_pa":"stands","capacity":8,"covered":"","fee":"","operator":"","nameSource":"junction"},"sourceId":"osm"},{"id":"osm:node:10281975259","latitude":51.5928094,"longitude":0.2153767,"name":"Colchester Road by Halfords","properties":{"access":"unknown","bicycle_pa":"stands","capacity":8,"covered":"yes","fee":"","operator":"","nameSource":"landmark"},"sourceId":"osm"},{"id":"osm:node:10281975260","latitude":51.5928455,"longitude":0.216646,"name":"Bryant Avenue cycle parking","properties":{"access":"unknown","bicycle_pa":"stands","capacity":12,"covered":"","fee":"","operator":"","nameSource":"street"},"sourceId":"osm"},{"id":"osm:node:10281975297","latitude":51.5983511,"longitude":0.1769913,"name":"Moray Way near Tweed Way","properties":{"access":"unknown","bicycle_pa":"stands","capacity":2,"covered":"","fee":"","operator":"","nameSource":"junction"},"sourceId":"osm"},{"id":"osm:node:10281997767","latitude":51.5984955,"longitude":0.1764965,"name":"Moray Way near Havering Road","properties":{"access":"unknown","bicycle_pa":"stands","capacity":2,"covered":"no","fee":"","operator":"","nameSource":"junction"},"sourceId":"osm"},{"id":"osm:node:10281998391","latitude":51.5856134,"longitude":0.2162143,"name":"Stafford Avenue cycle parking","properties":{"access":"unknown","bicycle_pa":"stands","capacity":10,"covered":"yes","fee":"","operator":"","nameSource":"street"},"sourceId":"osm"},{"id":"osm:node:10281998392","latitude":51.5855825,"longitude":0.2160918,"name":"Stafford Avenue cycle parking","properties":{"access":"unknown","bicycle_pa":"stands","capacity":10,"covered":"yes","fee":"","operator":"","nameSource":"street"},"sourceId":"osm"},{"id":"osm:node:10281998393","latitude":51.5833192,"longitude":0.2131324,"name":"Elvet Avenue near Kidman Close","properties":{"access":"unknown","bicycle_pa":"wall_loops","capacity":6,"covered":"","fee":"","operator":"","nameSource":"junction"},"sourceId":"osm"},{"id":"osm:node:10281999017","latitude":51.6008469,"longitude":0.1758254,"name":"Gobions Avenue near Swansea Close","properties":{"access":"unknown","bicycle_pa":"stands","capacity":2,"covered":"","fee":"","operator":"","nameSource":"junction"},"sourceId":"osm"},{"id":"osm:node:10282005190","latitude":51.5812906,"longitude":0.2084069,"name":"Station Road near Brentwood Road","properties":{"access":"unknown","bicycle_pa":"stands","capacity":4,"covered":"","fee":"","operator":"","nameSource":"junction"},"sourceId":"osm"},{"id":"osm:node:10282006520","latitude":51.5879643,"longitude":0.2386265,"name":"Teenage Area cycle parking","properties":{"access":"unknown","bicycle_pa":"","capacity":4,"covered":"","fee":"","operator":"","nameSource":"landmark"},"sourceId":"osm"},{"id":"osm:node:10282007319","latitude":51.580494,"longitude":0.1781572,"name":"North Street near A118","properties":{"access":"unknown","bicycle_pa":"post_hoop","capacity":1,"covered":"","fee":"","operator":"","nameSource":"junction"},"sourceId":"osm"},{"id":"osm:node:10282007320","latitude":51.5805406,"longitude":0.1781489,"name":"North Street near A118","properties":{"access":"unknown","bicycle_pa":"post_hoop","capacity":1,"covered":"","fee":"","operator":"","nameSource":"junction"},"sourceId":"osm"},{"id":"osm:node:10282007321","latitude":51.5793344,"longitude":0.1786828,"name":"Angel Way near A118","properties":{"access":"unknown","bicycle_pa":"stands","capacity":8,"covered":"","fee":"","operator":"","nameSource":"junction"},"sourceId":"osm"},{"id":"osm:node:10282007322","latitude":51.5780825,"longitude":0.1806799,"name":"South Street near High Street","properties":{"access":"unknown","bicycle_pa":"stands","capacity":8,"covered":"","fee":"","operator":"","nameSource":"junction"},"sourceId":"osm"},{"id":"osm:node:10282007808","latitude":51.5929799,"longitude":0.1811217,"name":"Rise Park Parade near Pettits Lane North","properties":{"access":"unknown","bicycle_pa":"stands","capacity":6,"covered":"no","fee":"","operator":"","nameSource":"junction"},"sourceId":"osm"},{"id":"osm:node:10282007836","latitude":51.565558,"longitude":0.175898,"name":"Rush Green Road near Dagenham Road","properties":{"access":"unknown","bicycle_pa":"stands","capacity":2,"covered":"","fee":"","operator":"","nameSource":"junction"},"sourceId":"osm"},{"id":"osm:node:10282007856","latitude":51.5842451,"longitude":0.220431,"name":"Ardleigh Green Road near Helen Road","properties":{"access":"unknown","bicycle_pa":"stands","capacity":4,"covered":"","fee":"","operator":"","nameSource":"junction"},"sourceId":"osm"},{"id":"osm:node:10282007888","latitude":51.5999709,"longitude":0.2219403,"name":"Camborne Avenue near Faringdon Avenue","properties":{"access":"unknown","bicycle_pa":"stands","capacity":4,"covered":"","fee":"","operator":"","nameSource":"junction"},"sourceId":"osm"},{"id":"osm:node:10282007893","latitude":51.6003095,"longitude":0.2112213,"name":"Briar Road near Straight Road","properties":{"access":"unknown","bicycle_pa":"stands","capacity":6,"covered":"","fee":"","operator":"","nameSource":"junction"},"sourceId":"osm"},{"id":"osm:node:10282007896","latitude":51.6112316,"longitude":0.2104365,"name":"Brick Kiln Road near Leaf Hill Drive","properties":{"access":"unknown","bicycle_pa":"stands","capacity":12,"covered":"yes","fee":"","operator":"","nameSource":"junction"},"sourceId":"osm"},{"id":"osm:node:10282007897","latitude":51.6109898,"longitude":0.2101264,"name":"Brick Kiln Road near Le Noke Avenue","properties":{"access":"unknown","bicycle_pa":"stands","capacity":6,"covered":"","fee":"","operator":"","nameSource":"junction"},"sourceId":"osm"},{"id":"osm:node:10282007910","latitude":51.5804678,"longitude":0.1781819,"name":"North Street near A118","properties":{"access":"unknown","bicycle_pa":"post_hoop","capacity":1,"covered":"","fee":"","operator":"","nameSource":"junction"},"sourceId":"osm"},{"id":"osm:node:10282008811","latitude":51.5762831,"longitude":0.2153561,"name":"Slewins Close cycle parking","properties":{"access":"unknown","bicycle_pa":"stands","capacity":4,"covered":"","fee":"","operator":"","nameSource":"street"},"sourceId":"osm"},{"id":"osm:node:10282008819","latitude":51.59309,"longitude":0.2179376,"name":"Bryant Avenue cycle parking","properties":{"access":"unknown","bicycle_pa":"","capacity":14,"covered":"","fee":"","operator":"","nameSource":"street"},"sourceId":"osm"},{"id":"osm:node:10282008841","latitude":51.5909487,"longitude":0.2102935,"name":"Upper Brentwood Road near Farnes Drive","properties":{"access":"unknown","bicycle_pa":"stands","capacity":6,"covered":"","fee":"","operator":"","nameSource":"junction"},"sourceId":"osm"},{"id":"osm:node:10282009635","latitude":51.5833684,"longitude":0.2205743,"name":"Ardleigh Green Road near Squirrels Heath Lane","properties":{"access":"unknown","bicycle_pa":"stands","capacity":4,"covered":"","fee":"","operator":"","nameSource":"junction"},"sourceId":"osm"},{"id":"osm:node:10282009636","latitude":51.5684641,"longitude":0.2198289,"name":"North Street near Billet Lane","properties":{"access":"unknown","bicycle_pa":"stands","capacity":4,"covered":"","fee":"","operator":"","nameSource":"junction"},"sourceId":"osm"},{"id":"osm:node:10282009657","latitude":51.5648354,"longitude":0.202699,"name":"Hornchurch Road near Hyland Way","properties":{"access":"unknown","bicycle_pa":"stands","capacity":4,"covered":"","fee":"","operator":"","nameSource":"junction"},"sourceId":"osm"},{"id":"osm:node:10282009658","latitude":51.6084163,"longitude":0.2236075,"name":"Dagnam Park Drive by myplace","properties":{"access":"unknown","bicycle_pa":"stands","capacity":20,"covered":"yes","fee":"","operator":"","nameSource":"landmark"},"sourceId":"osm"},{"id":"osm:node:10282009663","latitude":51.6026634,"longitude":0.213778,"name":"Myrtle Road near Honeysuckle Close","properties":{"access":"unknown","bicycle_pa":"stands","capacity":8,"covered":"","fee":"","operator":"","nameSource":"junction"},"sourceId":"osm"},{"id":"osm:node:10282010009","latitude":51.5953353,"longitude":0.1849577,"name":"Rise Park cycle parking","properties":{"access":"unknown","bicycle_pa":"stands","capacity":10,"covered":"","fee":"","operator":"","nameSource":"landmark"},"sourceId":"osm"},{"id":"osm:node:10282010010","latitude":51.5957962,"longitude":0.1866708,"name":"Beauly Way cycle parking","properties":{"access":"unknown","bicycle_pa":"stands","capacity":6,"covered":"","fee":"","operator":"","nameSource":"street"},"sourceId":"osm"},{"id":"osm:node:10282010011","latitude":51.5953371,"longitude":0.1858386,"name":"Beauly Way cycle parking","properties":{"access":"unknown","bicycle_pa":"stands","capacity":10,"covered":"","fee":"","operator":"","nameSource":"street"},"sourceId":"osm"},{"id":"osm:node:10282010489","latitude":51.5828302,"longitude":0.1918326,"name":"Kingston Road by Lodge Farm Park","properties":{"access":"unknown","bicycle_pa":"stands","capacity":10,"covered":"","fee":"","operator":"","nameSource":"landmark"},"sourceId":"osm"},{"id":"osm:node:10282010492","latitude":51.5800221,"longitude":0.2061012,"name":"Balgores Lane near Mulberry Close","properties":{"access":"unknown","bicycle_pa":"stands","capacity":12,"covered":"yes","fee":"","operator":"","nameSource":"junction"},"sourceId":"osm"},{"id":"osm:node:10282010507","latitude":51.5925124,"longitude":0.2142904,"name":"Colchester Road cycle parking","properties":{"access":"unknown","bicycle_pa":"stands","capacity":10,"covered":"","fee":"","operator":"","nameSource":"street"},"sourceId":"osm"},{"id":"osm:node:10282013824","latitude":51.5716331,"longitude":0.2189745,"name":"Butts Green Road near Wykeham Avenue","properties":{"access":"unknown","bicycle_pa":"stands","capacity":6,"covered":"","fee":"","operator":"","nameSource":"junction"},"sourceId":"osm"},{"id":"osm:node:10282013834","latitude":51.6109132,"longitude":0.2398982,"name":"Settle Road cycle parking","properties":{"access":"unknown","bicycle_pa":"stands","capacity":60,"covered":"yes","fee":"","operator":"","nameSource":"street"},"sourceId":"osm"},{"id":"osm:node:10282013860","latitude":51.58708,"longitude":0.2020748,"name":"Main Road near Crossways","properties":{"access":"unknown","bicycle_pa":"post_hoop","capacity":2,"covered":"","fee":"","operator":"","nameSource":"junction"},"sourceId":"osm"},{"id":"osm:node:10282018909","latitude":51.5777271,"longitude":0.2075348,"name":"Brentwood Road by Tesco Express","properties":{"access":"unknown","bicycle_pa":"stands","capacity":6,"covered":"","fee":"","operator":"","nameSource":"landmark"},"sourceId":"osm"},{"id":"osm:node:10282021839","latitude":51.5998554,"longitude":0.2222755,"name":"Camborne Avenue near Leyburn Road","properties":{"access":"unknown","bicycle_pa":"stands","capacity":4,"covered":"","fee":"","operator":"","nameSource":"junction"},"sourceId":"osm"},{"id":"osm:node:10282021841","latitude":51.5650721,"longitude":0.1999801,"name":"Babington Road near Hornchurch Road","properties":{"access":"unknown","bicycle_pa":"post_hoop","capacity":2,"covered":"","fee":"","operator":"","nameSource":"junction"},"sourceId":"osm"},{"id":"osm:node:10282021842","latitude":51.5933078,"longitude":0.2187886,"name":"Bryant Avenue cycle parking","properties":{"access":"unknown","bicycle_pa":"","capacity":22,"covered":"yes","fee":"","operator":"","nameSource":"street"},"sourceId":"osm"},{"id":"osm:node:10282027033","latitude":51.5635649,"longitude":0.2343238,"name":"Lee Gardens Avenue near Wingletye Lane","properties":{"access":"unknown","bicycle_pa":"stands","capacity":4,"covered":"no","fee":"","operator":"","nameSource":"junction"},"sourceId":"osm"},{"id":"osm:node:3104472651","latitude":51.5810805,"longitude":0.252502,"name":"Hall Lane cycle parking","properties":{"access":"unknown","bicycle_pa":"","capacity":0,"covered":"","fee":"","operator":"","nameSource":"street"},"sourceId":"osm"},{"id":"osm:node:3104472670","latitude":51.5944099,"longitude":0.2356086,"name":"Avenue Road near Queens Park Road","properties":{"access":"unknown","bicycle_pa":"","capacity":0,"covered":"","fee":"","operator":"","nameSource":"junction"},"sourceId":"osm"},{"id":"osm:node:3749182495","latitude":51.5898794,"longitude":0.1912415,"name":"Meadway cycle parking","properties":{"access":"unknown","bicycle_pa":"","capacity":0,"covered":"","fee":"","operator":"","nameSource":"street"},"sourceId":"osm"},{"id":"osm:node:6187762394","latitude":51.6085194,"longitude":0.1934371,"name":"Chase Cross cycle parking","properties":{"access":"unknown","bicycle_pa":"","capacity":8,"covered":"","fee":"","operator":"","nameSource":"place"},"sourceId":"osm"},{"id":"osm:node:6683958576","latitude":51.5817195,"longitude":0.2040525,"name":"Balgores Lane near Crossways","properties":{"access":"yes","bicycle_pa":"stands","capacity":4,"covered":"no","fee":"no","operator":"","nameSource":"junction"},"sourceId":"osm"},{"id":"osm:node:6906050644","latitude":51.5813521,"longitude":0.2053434,"name":"Station Road near Balgores Lane","properties":{"access":"yes","bicycle_pa":"stands","capacity":10,"covered":"no","fee":"no","operator":"","nameSource":"junction"},"sourceId":"osm"},{"id":"osm:node:7873176927","latitude":51.5641018,"longitude":0.175835,"name":"Dagenham Road cycle parking","properties":{"access":"unknown","bicycle_pa":"stands","capacity":4,"covered":"","fee":"","operator":"","nameSource":"street"},"sourceId":"osm"},{"id":"osm:node:7873176928","latitude":51.5654109,"longitude":0.1851107,"name":"Rom Crescent near Rush Green Road","properties":{"access":"unknown","bicycle_pa":"wall_loops","capacity":14,"covered":"yes","fee":"","operator":"","nameSource":"junction"},"sourceId":"osm"},{"id":"osm:node:7873176929","latitude":51.5652445,"longitude":0.1848614,"name":"Rush Green Road near Rom Crescent","properties":{"access":"unknown","bicycle_pa":"stands","capacity":14,"covered":"","fee":"","operator":"","nameSource":"junction"},"sourceId":"osm"},{"id":"osm:node:9880905257","latitude":51.5814066,"longitude":0.2055046,"name":"Station Road near Balgores Lane","properties":{"access":"yes","bicycle_pa":"stands","capacity":10,"covered":"no","fee":"no","operator":"","nameSource":"junction"},"sourceId":"osm"},{"id":"osm:node:9880905258","latitude":51.5811147,"longitude":0.2051275,"name":"Balgores Lane near Station Road","properties":{"access":"yes","bicycle_pa":"stands","capacity":4,"covered":"no","fee":"no","operator":"","nameSource":"junction"},"sourceId":"osm"},{"id":"osm:node:9880905259","latitude":51.5819639,"longitude":0.2050489,"name":"Crossways near Balgores Square","properties":{"access":"unknown","bicycle_pa":"two-tier","capacity":32,"covered":"yes","fee":"no","operator":"TFL","nameSource":"junction"},"sourceId":"osm"},{"id":"osm:node:9888153746","latitude":51.5930725,"longitude":0.2332507,"name":"Station Road near Gubbins Lane","properties":{"access":"yes","bicycle_pa":"stands","capacity":12,"covered":"no","fee":"no","operator":"","nameSource":"junction"},"sourceId":"osm"},{"id":"osm:node:9888153747","latitude":51.5929108,"longitude":0.2330004,"name":"Station Road near Gubbins Lane","properties":{"access":"yes","bicycle_pa":"two-tier","capacity":64,"covered":"yes","fee":"no","operator":"","nameSource":"junction"},"sourceId":"osm"},{"id":"osm:node:9888153748","latitude":51.5933644,"longitude":0.2331507,"name":"Station Road near Gubbins Lane","properties":{"access":"yes","bicycle_pa":"stands","capacity":8,"covered":"no","fee":"no","operator":"","nameSource":"junction"},"sourceId":"osm"},{"id":"osm:node:9888153749","latitude":51.5935863,"longitude":0.2338234,"name":"Station Road by Harold Wood Post Office","properties":{"access":"yes","bicycle_pa":"stands","capacity":4,"covered":"no","fee":"no","operator":"","nameSource":"landmark"},"sourceId":"osm"},{"id":"osm:way:860751389","latitude":51.572711459999994,"longitude":0.17694011999999998,"name":"Union Road cycle parking","properties":{"access":"private","bicycle_pa":"","capacity":0,"covered":"yes","fee":"","operator":"","nameSource":"street"},"sourceId":"osm"}],"schemaVersion":2}
