{"key":"12/2050/1363","points":[{"id":"osm:node:10273115031","latitude":51.4500713,"longitude":0.1804504,"name":"Crayford Road by Crayford Town Surgery","properties":{"access":"unknown","bicycle_pa":"stands","capacity":6,"covered":"","fee":"","operator":"","nameSource":"landmark"},"sourceId":"osm"},{"id":"osm:node:10273115032","latitude":51.450019,"longitude":0.1805116,"name":"Crayford Road by Crayford Town Surgery","properties":{"access":"unknown","bicycle_pa":"stands","capacity":6,"covered":"","fee":"","operator":"","nameSource":"landmark"},"sourceId":"osm"},{"id":"osm:node:10273115033","latitude":51.450625,"longitude":0.1779548,"name":"Roman Way near Stadium Way","properties":{"access":"unknown","bicycle_pa":"stands","capacity":6,"covered":"yes","fee":"","operator":"","nameSource":"junction"},"sourceId":"osm"},{"id":"osm:node:10273115034","latitude":51.4509541,"longitude":0.1804141,"name":"Crayford Road near Roman Way","properties":{"access":"unknown","bicycle_pa":"stands","capacity":14,"covered":"","fee":"","operator":"","nameSource":"junction"},"sourceId":"osm"},{"id":"osm:node:10273115120","latitude":51.4502118,"longitude":0.1800414,"name":"Crayford Road near Roman Way","properties":{"access":"unknown","bicycle_pa":"stands","capacity":6,"covered":"","fee":"","operator":"","nameSource":"junction"},"sourceId":"osm"},{"id":"osm:node:10273115121","latitude":51.4502823,"longitude":0.1801653,"name":"Crayford Road near Roman Way","properties":{"access":"unknown","bicycle_pa":"stands","capacity":8,"covered":"","fee":"","operator":"","nameSource":"junction"},"sourceId":"osm"},{"id":"osm:node:10273115122","latitude":51.4502726,"longitude":0.1802858,"name":"Crayford Road near Roman Way","properties":{"access":"unknown","bicycle_pa":"stands","capacity":6,"covered":"","fee":"","operator":"","nameSource":"junction"},"sourceId":"osm"},{"id":"osm:node:10273115123","latitude":51.4513732,"longitude":0.1874664,"name":"Holm Road near Sessile Road","properties":{"access":"unknown","bicycle_pa":"stands","capacity":8,"covered":"","fee":"","operator":"","nameSource":"junction"},"sourceId":"osm"},{"id":"osm:node:10273115124","latitude":51.4507188,"longitude":0.1885628,"name":"Willow Road cycle parking","properties":{"access":"unknown","bicycle_pa":"stands","capacity":4,"covered":"","fee":"","operator":"","nameSource":"street"},"sourceId":"osm"},{"id":"osm:node:10273115239","latitude":51.4513372,"longitude":0.1823947,"name":"Swaislands Drive near Tower Park Road","properties":{"access":"unknown","bicycle_pa":"stands","capacity":24,"covered":"","fee":"","operator":"","nameSource":"junction"},"sourceId":"osm"},{"id":"osm:node:10273115240","latitude":51.4510834,"longitude":0.178023,"name":"Roman Way near Maxim Road","properties":{"access":"unknown","bicycle_pa":"stands","capacity":60,"covered":"yes","fee":"","operator":"","nameSource":"junction"},"sourceId":"osm"},{"id":"osm:node:10273115241","latitude":51.4506353,"longitude":0.1880629,"name":"Willow Road cycle parking","properties":{"access":"unknown","bicycle_pa":"stands","capacity":4,"covered":"","fee":"","operator":"","nameSource":"street"},"sourceId":"osm"},{"id":"osm:node:10273115242","latitude":51.4523736,"longitude":0.1889992,"name":"Vimy Way cycle parking","properties":{"access":"unknown","bicycle_pa":"stands","capacity":20,"covered":"","fee":"","operator":"","nameSource":"street"},"sourceId":"osm"},{"id":"osm:node:10273115340","latitude":51.4512488,"longitude":0.1874413,"name":"Holm Road near Sessile Road","properties":{"access":"unknown","bicycle_pa":"stands","capacity":8,"covered":"","fee":"","operator":"","nameSource":"junction"},"sourceId":"osm"},{"id":"osm:node:10273115341","latitude":51.450434,"longitude":0.1868045,"name":"Holm Road near Willow Road","properties":{"access":"unknown","bicycle_pa":"stands","capacity":10,"covered":"","fee":"","operator":"","nameSource":"junction"},"sourceId":"osm"},{"id":"osm:node:10273115342","latitude":51.450464,"longitude":0.1867118,"name":"Holm Road near Willow Road","properties":{"access":"unknown","bicycle_pa":"stands","capacity":4,"covered":"","fee":"","operator":"","nameSource":"junction"},"sourceId":"osm"},{"id":"osm:node:10273115343","latitude":51.4519077,"longitude":0.187421,"name":"Holm Road near Willow Road","properties":{"access":"unknown","bicycle_pa":"stands","capacity":8,"covered":"","fee":"","operator":"","nameSource":"junction"},"sourceId":"osm"},{"id":"osm:node:10273115344","latitude":51.4507654,"longitude":0.1888975,"name":"Willow Road cycle parking","properties":{"access":"unknown","bicycle_pa":"stands","capacity":4,"covered":"","fee":"","operator":"","nameSource":"street"},"sourceId":"osm"},{"id":"osm:node:10273115716","latitude":51.4513122,"longitude":0.1791108,"name":"Crayford Road near Crayford Way","properties":{"access":"unknown","bicycle_pa":"stands","capacity":4,"covered":"","fee":"","operator":"","nameSource":"junction"},"sourceId":"osm"},{"id":"osm:node:10273115717","latitude":51.450405,"longitude":0.1851195,"name":"Acorn Road near Holm Road","properties":{"access":"unknown","bicycle_pa":"stands","capacity":4,"covered":"","fee":"","operator":"","nameSource":"junction"},"sourceId":"osm"},{"id":"osm:node:10273115718","latitude":51.4498805,"longitude":0.1852724,"name":"Crayford Road near Acorn Road","properties":{"access":"unknown","bicycle_pa":"stands","capacity":4,"covered":"","fee":"","operator":"","nameSource":"junction"},"sourceId":"osm"},{"id":"osm:node:10273115719","latitude":51.450878,"longitude":0.1875191,"name":"Willow Road near Holm Road","properties":{"access":"unknown","bicycle_pa":"stands","capacity":8,"covered":"","fee":"","operator":"","nameSource":"junction"},"sourceId":"osm"},{"id":"osm:node:10273115822","latitude":51.4502342,"longitude":0.1802302,"name":"Crayford Road near Roman Way","properties":{"access":"unknown","bicycle_pa":"stands","capacity":6,"covered":"","fee":"","operator":"","nameSource":"junction"},"sourceId":"osm"},{"id":"osm:node:10273115916","latitude":51.4505741,"longitude":0.1780218,"name":"Roman Way near Stadium Way","properties":{"access":"unknown","bicycle_pa":"stands","capacity":6,"covered":"","fee":"","operator":"","nameSource":"junction"},"sourceId":"osm"},{"id":"osm:node:10273115917","latitude":51.4509248,"longitude":0.1794704,"name":"Crayford Road near Roman Way","properties":{"access":"unknown","bicycle_pa":"stands","capacity":4,"covered":"","fee":"","operator":"","nameSource":"junction"},"sourceId":"osm"},{"id":"osm:node:10273115918","latitude":51.4506738,"longitude":0.1827814,"name":"Tower Park Road near Crayford Road","properties":{"access":"unknown","bicycle_pa":"stands","capacity":10,"covered":"","fee":"","operator":"","nameSource":"junction"},"sourceId":"osm"},{"id":"osm:node:10273125609","latitude":51.4506903,"longitude":0.1778712,"name":"Roman Way near Stadium Way","properties":{"access":"unknown","bicycle_pa":"stands","capacity":6,"covered":"","fee":"","operator":"","nameSource":"junction"},"sourceId":"osm"},{"id":"osm:node:10273126509","latitude":51.4484469,"longitude":0.1793063,"name":"Lower Station Road cycle parking","properties":{"access":"unknown","bicycle_pa":"stands","capacity":22,"covered":"","fee":"","operator":"","nameSource":"street"},"sourceId":"osm"},{"id":"osm:node:10273126510","latitude":51.450685,"longitude":0.1879655,"name":"Willow Road cycle parking","properties":{"access":"unknown","bicycle_pa":"stands","capacity":10,"covered":"","fee":"","operator":"","nameSource":"street"},"sourceId":"osm"},{"id":"osm:node:10967922642","latitude":51.4471048,"longitude":0.2192532,"name":"Station Approach by NoteMachine","properties":{"access":"unknown","bicycle_pa":"streetpod","capacity":16,"covered":"","fee":"","operator":"","nameSource":"landmark"},"sourceId":"osm"},{"id":"osm:node:11279879320","latitude":51.4437689,"longitude":0.2203099,"name":"High Street near Overy Liberty","properties":{"access":"unknown","bicycle_pa":"","capacity":4,"covered":"","fee":"","operator":"","nameSource":"junction"},"sourceId":"osm"},{"id":"osm:node:11279879325","latitude":51.4437308,"longitude":0.2208209,"name":"Overy Liberty near St Saviours Walk","properties":{"access":"unknown","bicycle_pa":"","capacity":6,"covered":"","fee":"","operator":"","nameSource":"junction"},"sourceId":"osm"},{"id":"osm:node:11919268326","latitude":51.4470509,"longitude":0.2190413,"name":"Station Approach by NoteMachine","properties":{"access":"unknown","bicycle_pa":"stands","capacity":16,"covered":"no","fee":"","operator":"","nameSource":"landmark"},"sourceId":"osm"},{"id":"osm:node:11919272705","latitude":51.4470442,"longitude":0.2187683,"name":"Station Approach by NoteMachine","properties":{"access":"unknown","bicycle_pa":"streetpod","capacity":7,"covered":"no","fee":"","operator":"","nameSource":"landmark"},"sourceId":"osm"},{"id":"osm:node:1535911856","latitude":51.4354452,"longitude":0.2580355,"name":"M&S Food cycle parking","properties":{"access":"unknown","bicycle_pa":"stands","capacity":20,"covered":"yes","fee":"","operator":"","nameSource":"landmark"},"sourceId":"osm"},{"id":"osm:node:1697789500","latitude":51.4444564,"longitude":0.2215344,"name":"Overy Street near Home Gardens","properties":{"access":"unknown","bicycle_pa":"stands","capacity":6,"covered":"no","fee":"","operator":"","nameSource":"junction"},"sourceId":"osm"},{"id":"osm:node:414251891","latitude":51.401554,"longitude":0.2353763,"name":"Station Road by Farningham Road","properties":{"access":"unknown","bicycle_pa":"stands","capacity":6,"covered":"no","fee":"","operator":"","nameSource":"landmark"},"sourceId":"osm"},{"id":"osm:node:447979888","latitude":51.4479118,"longitude":0.2142719,"name":"Priory Road cycle parking","properties":{"access":"unknown","bicycle_pa":"","capacity":10,"covered":"","fee":"","operator":"","nameSource":"street"},"sourceId":"osm"},{"id":"osm:node:447979924","latitude":51.4469832,"longitude":0.2143466,"name":"Westgate Road near Junction Road","properties":{"access":"unknown","bicycle_pa":"stands","capacity":10,"covered":"no","fee":"","operator":"","nameSource":"junction"},"sourceId":"osm"},{"id":"osm:node:447994528","latitude":51.4470028,"longitude":0.2155548,"name":"Westgate Road near Kent Road","properties":{"access":"unknown","bicycle_pa":"stands","capacity":10,"covered":"no","fee":"","operator":"","nameSource":"junction"},"sourceId":"osm"},{"id":"osm:node:448555291","latitude":51.4434231,"longitude":0.2153406,"name":"The Priory Centre cycle parking","properties":{"access":"unknown","bicycle_pa":"stands","capacity":10,"covered":"","fee":"","operator":"","nameSource":"street"},"sourceId":"osm"},{"id":"osm:node:448555699","latitude":51.4445167,"longitude":0.2166726,"name":"High Street near Hythe Street","properties":{"access":"unknown","bicycle_pa":"","capacity":20,"covered":"","fee":"","operator":"","nameSource":"junction"},"sourceId":"osm"},{"id":"osm:node:448568635","latitude":51.4435999,"longitude":0.2177097,"name":"Market Street near Lowfield Street","properties":{"access":"unknown","bicycle_pa":"stands","capacity":6,"covered":"no","fee":"","operator":"","nameSource":"junction"},"sourceId":"osm"},{"id":"osm:node:448577788","latitude":51.445811,"longitude":0.2183919,"name":"Suffolk Road near Home Orchard","properties":{"access":"unknown","bicycle_pa":"stands","capacity":8,"covered":"no","fee":"","operator":"","nameSource":"junction"},"sourceId":"osm"},{"id":"osm:node:8036326050","latitude":51.4453666,"longitude":0.2180804,"name":"Suffolk Road near Home Orchard","properties":{"access":"unknown","bicycle_pa":"stands","capacity":12,"covered":"yes","fee":"","operator":"","nameSource":"junction"},"sourceId":"osm"},{"id":"osm:node:8863511182","latitude":51.4342977,"longitude":0.2275794,"name":"Chalk Close near James Clubb Way","properties":{"access":"unknown","bicycle_pa":"stands","capacity":4,"covered":"","fee":"","operator":"","nameSource":"junction"},"sourceId":"osm"},{"id":"osm:node:9721131441","latitude":51.410739,"longitude":0.1820992,"name":"College Road near Main Road","properties":{"access":"unknown","bicycle_pa":"stands","capacity":8,"covered":"yes","fee":"","operator":"","nameSource":"junction"},"sourceId":"osm"},{"id":"osm:node:992565967","latitude":51.4480792,"longitude":0.1785815,"name":"Lower Station Road near Heathview Avenue","properties":{"access":"unknown","bicycle_pa":"stands","capacity":20,"covered":"yes","fee":"","operator":"","nameSource":"junction"},"sourceId":"osm"},{"id":"osm:way:1004690938","latitude":51.45285958000001,"longitude":0.22077534000000001,"name":"Central Road cycle parking","properties":{"access":"private","bicycle_pa":"","capacity":0,"covered":"yes","fee":"","operator":"","nameSource":"street"},"sourceId":"osm"},{"id":"osm:way:1004690939","latitude":51.45290048,"longitude":0.22076919999999997,"name":"Central Road cycle parking","properties":{"access":"private","bicycle_pa":"","capacity":0,"covered":"yes","fee":"","operator":"","nameSource":"street"},"sourceId":"osm"},{"id":"osm:way:471929318","latitude":51.447198920000005,"longitude":0.21840856000000003,"name":"Station Approach by Dartford Rail Station","properties":{"access":"permissive","bicycle_pa":"streetpod","capacity":96,"covered":"no","fee":"","operator":"","nameSource":"landmark"},"sourceId":"osm"},{"id":"osm:way:471929319","latitude":51.447249420000006,"longitude":0.21817636,"name":"Station Approach by Dartford Rail Station","properties":{"access":"customers","bicycle_pa":"shed","capacity":0,"covered":"yes","fee":"","operator":"","nameSource":"landmark"},"sourceId":"osm"}],"schemaVersion":2}
