{"key":"12/2016/1283","points":[{"id":"osm:node:10033148854","latitude":55.6054022,"longitude":-2.7576188,"name":"The Black Path by Coffee End","properties":{"access":"unknown","bicycle_pa":"stands","capacity":20,"covered":"yes","fee":"","operator":"","nameSource":"landmark"},"sourceId":"osm"},{"id":"osm:node:3623797079","latitude":55.6053275,"longitude":-2.7574266,"name":"The Black Path by Coffee End","properties":{"access":"yes","bicycle_pa":"stands","capacity":20,"covered":"yes","fee":"no","operator":"","nameSource":"landmark"},"sourceId":"osm"},{"id":"osm:node:3623809239","latitude":55.6176533,"longitude":-2.8052917,"name":"Ladhope Vale near Currie Road","properties":{"access":"unknown","bicycle_pa":"stands","capacity":10,"covered":"yes","fee":"","operator":"","nameSource":"junction"},"sourceId":"osm"},{"id":"osm:node:3750861692","latitude":55.600301,"longitude":-2.7792388,"name":"Abbotsford link by Ochiltree's","properties":{"access":"unknown","bicycle_pa":"stands","capacity":12,"covered":"no","fee":"","operator":"","nameSource":"landmark"},"sourceId":"osm"},{"id":"osm:node:3752155935","latitude":55.6177172,"longitude":-2.8059734,"name":"Ladhope Vale near Currie Road","properties":{"access":"yes","bicycle_pa":"stands","capacity":10,"covered":"no","fee":"","operator":"","nameSource":"junction"},"sourceId":"osm"},{"id":"osm:node:3752155947","latitude":55.6177608,"longitude":-2.8059767,"name":"Ladhope Vale near Currie Road","properties":{"access":"unknown","bicycle_pa":"lockers","capacity":5,"covered":"","fee":"","operator":"","nameSource":"junction"},"sourceId":"osm"},{"id":"osm:node:5194417021","latitude":55.6144154,"longitude":-2.8071566,"name":"Lawyer's Brae near St. John Street","properties":{"access":"unknown","bicycle_pa":"stands","capacity":4,"covered":"no","fee":"","operator":"","nameSource":"junction"},"sourceId":"osm"},{"id":"osm:node:8909754017","latitude":55.6148607,"longitude":-2.8054794,"name":"Green Street near Market Street","properties":{"access":"yes","bicycle_pa":"stands","capacity":22,"covered":"no","fee":"","operator":"","nameSource":"junction"},"sourceId":"osm"},{"id":"osm:node:9278945718","latitude":55.595938,"longitude":-2.7432457,"name":"Drop-Off by Margaret Kerr Unit","properties":{"access":"unknown","bicycle_pa":"","capacity":0,"covered":"yes","fee":"","operator":"","nameSource":"landmark"},"sourceId":"osm"},{"id":"osm:way:1256621907","latitude":55.60558958,"longitude":-2.7560280400000003,"name":"Tweedside Park cycle parking","properties":{"access":"unknown","bicycle_pa":"shed","capacity":0,"covered":"","fee":"","operator":"","nameSource":"street"},"sourceId":"osm"},{"id":"osm:way:1311924402","latitude":55.604786319999995,"longitude":-2.75143734,"name":"B6374 near Lowood Bridge","properties":{"access":"unknown","bicycle_pa":"shed","capacity":0,"covered":"","fee":"","operator":"","nameSource":"junction"},"sourceId":"osm"}],"schemaVersion":1}
