{"key":"12/2055/1360","points":[{"id":"osm:node:10935365275","latitude":51.5749046,"longitude":0.6850043,"name":"The Quad cycle parking","properties":{"access":"unknown","bicycle_pa":"stands","capacity":0,"covered":"yes","fee":"","operator":"","nameSource":"street"},"sourceId":"osm"},{"id":"osm:node:10935365276","latitude":51.5745701,"longitude":0.6849883,"name":"The Quad cycle parking","properties":{"access":"unknown","bicycle_pa":"","capacity":0,"covered":"yes","fee":"","operator":"","nameSource":"street"},"sourceId":"osm"},{"id":"osm:node:10935365277","latitude":51.5743637,"longitude":0.6849562,"name":"The Quad cycle parking","properties":{"access":"unknown","bicycle_pa":"","capacity":0,"covered":"yes","fee":"","operator":"","nameSource":"street"},"sourceId":"osm"},{"id":"osm:node:10935365278","latitude":51.5741545,"longitude":0.6849471,"name":"The Quad cycle parking","properties":{"access":"unknown","bicycle_pa":"","capacity":0,"covered":"yes","fee":"","operator":"","nameSource":"street"},"sourceId":"osm"},{"id":"osm:node:10935365279","latitude":51.5745957,"longitude":0.685728,"name":"The Quad cycle parking","properties":{"access":"unknown","bicycle_pa":"","capacity":0,"covered":"yes","fee":"","operator":"","nameSource":"street"},"sourceId":"osm"},{"id":"osm:node:10935365280","latitude":51.5745786,"longitude":0.6862341,"name":"The Quad cycle parking","properties":{"access":"unknown","bicycle_pa":"","capacity":0,"covered":"yes","fee":"","operator":"","nameSource":"street"},"sourceId":"osm"},{"id":"osm:node:10935365281","latitude":51.5744633,"longitude":0.685444,"name":"The Quad cycle parking","properties":{"access":"unknown","bicycle_pa":"","capacity":0,"covered":"yes","fee":"","operator":"","nameSource":"street"},"sourceId":"osm"},{"id":"osm:node:11212573018","latitude":51.5730751,"longitude":0.6385695,"name":"Eastwood Rise near Rayleigh Road","properties":{"access":"unknown","bicycle_pa":"stands","capacity":4,"covered":"no","fee":"","operator":"","nameSource":"junction"},"sourceId":"osm"},{"id":"osm:node:1808273440","latitude":51.5704392,"longitude":0.6469616,"name":"Rayleigh Road near Footpath 16","properties":{"access":"yes","bicycle_pa":"stands","capacity":2,"covered":"no","fee":"","operator":"","nameSource":"junction"},"sourceId":"osm"},{"id":"osm:node:1922815401","latitude":51.5698761,"longitude":0.6491005,"name":"Rayleigh Road near Flamboro Walk","properties":{"access":"yes","bicycle_pa":"stands","capacity":6,"covered":"no","fee":"no","operator":"","nameSource":"junction"},"sourceId":"osm"},{"id":"osm:node:5388017879","latitude":51.5650084,"longitude":0.6415171,"name":"Eastwood Old Road near The Fairway","properties":{"access":"yes","bicycle_pa":"stands","capacity":2,"covered":"no","fee":"","operator":"Byfords","nameSource":"junction"},"sourceId":"osm"},{"id":"osm:node:6537775191","latitude":51.5669581,"longitude":0.7009042,"name":"Holiday Inn","properties":{"access":"unknown","bicycle_pa":"","capacity":24,"covered":"","fee":"","operator":"","nameSource":"source"},"sourceId":"osm"},{"id":"osm:way:118036269","latitude":51.60345960000001,"longitude":0.65946,"name":"Station Bike Parking","properties":{"access":"unknown","bicycle_pa":"","capacity":0,"covered":"","fee":"","operator":"","nameSource":"source"},"sourceId":"osm"},{"id":"osm:way:118036366","latitude":51.60364238333333,"longitude":0.6586238333333334,"name":"Footbridge by Hockley","properties":{"access":"unknown","bicycle_pa":"","capacity":0,"covered":"","fee":"","operator":"","nameSource":"landmark"},"sourceId":"osm"}],"schemaVersion":2}
