{"key":"12/2055/1526","points":[{"id":"osm:node:11094272792","latitude":41.6174639,"longitude":0.6253079,"name":"Jardins de Pompeu Fabra near Plaça d'Hispanoamèrica","properties":{"access":"unknown","bicycle_pa":"wall_loops","capacity":0,"covered":"no","fee":"","operator":"","nameSource":"junction"},"sourceId":"osm"},{"id":"osm:node:11100011319","latitude":41.613071,"longitude":0.6198669,"name":"Carrer del Governador de Montcada near Rambla d'Aragó","properties":{"access":"unknown","bicycle_pa":"stands","capacity":0,"covered":"no","fee":"","operator":"","nameSource":"junction"},"sourceId":"osm"},{"id":"osm:node:11100032572","latitude":41.6154856,"longitude":0.6210635,"name":"Rambla d'Aragó near Carrer de Ramón y Cajal","properties":{"access":"unknown","bicycle_pa":"stands","capacity":4,"covered":"no","fee":"","operator":"","nameSource":"junction"},"sourceId":"osm"},{"id":"osm:node:11100034389","latitude":41.6164794,"longitude":0.6211445,"name":"Carrer de la Ronda de Sant Martí near Plaça de Cervantes","properties":{"access":"unknown","bicycle_pa":"stands","capacity":8,"covered":"no","fee":"","operator":"","nameSource":"junction"},"sourceId":"osm"},{"id":"osm:node:11100037685","latitude":41.6146115,"longitude":0.6185617,"name":"Carrer del Bisbe Messeguer near Carrer de Maragall","properties":{"access":"unknown","bicycle_pa":"stands","capacity":6,"covered":"no","fee":"","operator":"","nameSource":"junction"},"sourceId":"osm"},{"id":"osm:node:11100041619","latitude":41.6148605,"longitude":0.6197323,"name":"Plaça de Víctor Siurana by Universitat de Lleida - Campus del Rectorat","properties":{"access":"unknown","bicycle_pa":"stands","capacity":18,"covered":"no","fee":"","operator":"","nameSource":"landmark"},"sourceId":"osm"},{"id":"osm:node:11100041810","latitude":41.6144156,"longitude":0.6201898,"name":"Plaça de Víctor Siurana by El rincón de Maia","properties":{"access":"unknown","bicycle_pa":"stands","capacity":8,"covered":"no","fee":"","operator":"","nameSource":"landmark"},"sourceId":"osm"},{"id":"osm:node:11100042606","latitude":41.6131844,"longitude":0.6196349,"name":"Rambla d'Aragó near Carrer del Governador de Montcada","properties":{"access":"unknown","bicycle_pa":"stands","capacity":8,"covered":"no","fee":"","operator":"","nameSource":"junction"},"sourceId":"osm"},{"id":"osm:node:11103182512","latitude":41.6184573,"longitude":0.6217894,"name":"Carrer del Camp de Mart near Carrer de Sant Martí","properties":{"access":"unknown","bicycle_pa":"stands","capacity":6,"covered":"no","fee":"","operator":"","nameSource":"junction"},"sourceId":"osm"},{"id":"osm:node:11105840091","latitude":41.6122056,"longitude":0.617037,"name":"Plaça d'Esteve Cuito by Plaça de l'Escorxador","properties":{"access":"unknown","bicycle_pa":"stands","capacity":8,"covered":"no","fee":"","operator":"","nameSource":"landmark"},"sourceId":"osm"},{"id":"osm:node:11105860772","latitude":41.616069,"longitude":0.6187772,"name":"Carrer del Mestre Emili Pujol near Carrer de Maragall","properties":{"access":"unknown","bicycle_pa":"stands","capacity":10,"covered":"no","fee":"","operator":"","nameSource":"junction"},"sourceId":"osm"},{"id":"osm:node:11105869806","latitude":41.6161212,"longitude":0.6212781,"name":"Carrer de Múrcia near Plaça de Cervantes","properties":{"access":"unknown","bicycle_pa":"stands","capacity":4,"covered":"no","fee":"","operator":"","nameSource":"junction"},"sourceId":"osm"},{"id":"osm:node:11105878053","latitude":41.6170889,"longitude":0.6206204,"name":"Plaça de Josep Boneu by Centre d'Atenció Primària de l'Eixample","properties":{"access":"unknown","bicycle_pa":"stands","capacity":10,"covered":"no","fee":"","operator":"","nameSource":"landmark"},"sourceId":"osm"},{"id":"osm:node:11105881692","latitude":41.6119232,"longitude":0.6162461,"name":"Plaça d'Esteve Cuito by ONCE","properties":{"access":"unknown","bicycle_pa":"stands","capacity":6,"covered":"no","fee":"","operator":"","nameSource":"landmark"},"sourceId":"osm"},{"id":"osm:node:11105891905","latitude":41.6167138,"longitude":0.6204236,"name":"Avinguda de Balmes near Carrer de Pleyan de Porta","properties":{"access":"unknown","bicycle_pa":"stands","capacity":6,"covered":"no","fee":"","operator":"","nameSource":"junction"},"sourceId":"osm"},{"id":"osm:node:11112735094","latitude":41.6164298,"longitude":0.6239492,"name":"Plaça de la Font dels Tritons by Font dels Tritons","properties":{"access":"unknown","bicycle_pa":"stands","capacity":6,"covered":"no","fee":"","operator":"","nameSource":"landmark"},"sourceId":"osm"},{"id":"osm:node:11112835255","latitude":41.6108056,"longitude":0.635886,"name":"Carrer dels Agustins near Carrer del Doctor Trueta","properties":{"access":"unknown","bicycle_pa":"","capacity":0,"covered":"","fee":"","operator":"","nameSource":"junction"},"sourceId":"osm"},{"id":"osm:node:11115180619","latitude":41.6115562,"longitude":0.6267856,"name":"Carrer de Jaume II near Plaça de Blas Infante","properties":{"access":"unknown","bicycle_pa":"stands","capacity":8,"covered":"no","fee":"","operator":"","nameSource":"junction"},"sourceId":"osm"},{"id":"osm:node:11115183029","latitude":41.6089759,"longitude":0.6276265,"name":"Carrer del Riu Besòs near Carrer de la Doctora Castells","properties":{"access":"unknown","bicycle_pa":"stands","capacity":4,"covered":"no","fee":"","operator":"","nameSource":"junction"},"sourceId":"osm"},{"id":"osm:node:11119094878","latitude":41.6084205,"longitude":0.623359,"name":"Carrer de Jaume II cycle parking","properties":{"access":"unknown","bicycle_pa":"stands","capacity":4,"covered":"no","fee":"","operator":"","nameSource":"street"},"sourceId":"osm"},{"id":"osm:node:11119094879","latitude":41.6063991,"longitude":0.622834,"name":"Carrer de Pere de Cabrera near Carrer de Guillem de Bessiers","properties":{"access":"unknown","bicycle_pa":"","capacity":0,"covered":"","fee":"","operator":"","nameSource":"junction"},"sourceId":"osm"},{"id":"osm:node:11119094881","latitude":41.6072368,"longitude":0.6219903,"name":"Carrer de Jaume II near Carrer de Pere de Cabrera","properties":{"access":"unknown","bicycle_pa":"stands","capacity":10,"covered":"no","fee":"","operator":"","nameSource":"junction"},"sourceId":"osm"},{"id":"osm:node:11119094882","latitude":41.6076728,"longitude":0.6224621,"name":"Carrer de Jaume II cycle parking","properties":{"access":"unknown","bicycle_pa":"stands","capacity":10,"covered":"no","fee":"","operator":"","nameSource":"street"},"sourceId":"osm"},{"id":"osm:node:11119094884","latitude":41.6088497,"longitude":0.6238879,"name":"Carrer de Jaume II near Avinguda de l'Estudi General","properties":{"access":"unknown","bicycle_pa":"stands","capacity":10,"covered":"no","fee":"","operator":"","nameSource":"junction"},"sourceId":"osm"},{"id":"osm:node:11811124669","latitude":41.6191372,"longitude":0.6314749,"name":"Carrer del Nord near Rambla de Ferran","properties":{"access":"yes","bicycle_pa":"rack","capacity":6,"covered":"no","fee":"no","operator":"","nameSource":"junction"},"sourceId":"osm"},{"id":"osm:node:11811129549","latitude":41.6173962,"longitude":0.6298952,"name":"Rambla de Ferran near Carrer de l'Alcalde Fuster","properties":{"access":"yes","bicycle_pa":"rack","capacity":6,"covered":"no","fee":"no","operator":"","nameSource":"junction"},"sourceId":"osm"},{"id":"osm:node:11811129551","latitude":41.6205052,"longitude":0.6325793,"name":"Carrer del Princep de Viana near Plaça de Ramon Berenguer IV","properties":{"access":"yes","bicycle_pa":"rack","capacity":28,"covered":"no","fee":"no","operator":"","nameSource":"junction"},"sourceId":"osm"},{"id":"osm:node:11811140264","latitude":41.6191194,"longitude":0.6316609,"name":"Carrer del Nord near Rambla de Ferran","properties":{"access":"yes","bicycle_pa":"rack","capacity":6,"covered":"no","fee":"no","operator":"","nameSource":"junction"},"sourceId":"osm"},{"id":"osm:node:11811140265","latitude":41.6157663,"longitude":0.628646,"name":"Avinguda del Segre near Avinguda de Francesc Macià","properties":{"access":"yes","bicycle_pa":"rack","capacity":8,"covered":"no","fee":"no","operator":"","nameSource":"junction"},"sourceId":"osm"},{"id":"osm:node:11811140266","latitude":41.6359488,"longitude":0.6266695,"name":"Carrer de Jordi Solé Tura by Pavelló Juanjo Garra","properties":{"access":"yes","bicycle_pa":"rack","capacity":10,"covered":"no","fee":"no","operator":"","nameSource":"landmark"},"sourceId":"osm"},{"id":"osm:node:11811140267","latitude":41.6354362,"longitude":0.6263577,"name":"Carrer de Jordi Solé Tura cycle parking","properties":{"access":"yes","bicycle_pa":"rack","capacity":8,"covered":"no","fee":"no","operator":"","nameSource":"street"},"sourceId":"osm"},{"id":"osm:node:11811140268","latitude":41.6146309,"longitude":0.627023,"name":"Avinguda de Blondel near Avinguda de Francesc Macià","properties":{"access":"yes","bicycle_pa":"rack","capacity":6,"covered":"no","fee":"no","operator":"","nameSource":"junction"},"sourceId":"osm"},{"id":"osm:node:11811152769","latitude":41.6117338,"longitude":0.6236614,"name":"Avinguda de Madrid near Carrer de Saracíbar","properties":{"access":"yes","bicycle_pa":"rack","capacity":6,"covered":"no","fee":"no","operator":"","nameSource":"junction"},"sourceId":"osm"},{"id":"osm:node:11811820549","latitude":41.6111434,"longitude":0.6217483,"name":"Avinguda de Blondel near Carrer de la Paloma","properties":{"access":"yes","bicycle_pa":"rack","capacity":6,"covered":"no","fee":"no","operator":"","nameSource":"junction"},"sourceId":"osm"},{"id":"osm:node:11811820550","latitude":41.610753,"longitude":0.6222413,"name":"Plaça d'Espanya near Avinguda de Catalunya","properties":{"access":"yes","bicycle_pa":"rack","capacity":4,"covered":"no","fee":"no","operator":"","nameSource":"junction"},"sourceId":"osm"},{"id":"osm:node:11811820551","latitude":41.6110875,"longitude":0.6211224,"name":"Avinguda de Catalunya near Avinguda de Blondel","properties":{"access":"yes","bicycle_pa":"rack","capacity":18,"covered":"no","fee":"no","operator":"","nameSource":"junction"},"sourceId":"osm"},{"id":"osm:node:11811820552","latitude":41.6004441,"longitude":0.6336459,"name":"Carrer de Cal Bernet cycle parking","properties":{"access":"yes","bicycle_pa":"rack","capacity":52,"covered":"no","fee":"no","operator":"","nameSource":"street"},"sourceId":"osm"},{"id":"osm:node:11811820553","latitude":41.6197355,"longitude":0.6372641,"name":"Avinguda de Tortosa near Passatge de Sant Jeroni","properties":{"access":"yes","bicycle_pa":"rack","capacity":8,"covered":"no","fee":"no","operator":"","nameSource":"junction"},"sourceId":"osm"},{"id":"osm:node:11811820554","latitude":41.6198814,"longitude":0.6374125,"name":"Avinguda de Tortosa near Passatge de Sant Jeroni","properties":{"access":"yes","bicycle_pa":"rack","capacity":8,"covered":"no","fee":"no","operator":"","nameSource":"junction"},"sourceId":"osm"},{"id":"osm:node:11811820555","latitude":41.6213628,"longitude":0.6391751,"name":"Carrer de Girona near Avinguda de Tortosa","properties":{"access":"yes","bicycle_pa":"rack","capacity":42,"covered":"no","fee":"no","operator":"","nameSource":"junction"},"sourceId":"osm"},{"id":"osm:node:11811820556","latitude":41.6214496,"longitude":0.6392283,"name":"Carrer de Girona near Avinguda de Tortosa","properties":{"access":"yes","bicycle_pa":"rack","capacity":8,"covered":"no","fee":"no","operator":"","nameSource":"junction"},"sourceId":"osm"},{"id":"osm:node:11813595696","latitude":41.6115122,"longitude":0.62011,"name":"Carrer de l'Acadèmia near Carrer de Ramon Soldevila","properties":{"access":"yes","bicycle_pa":"rack","capacity":4,"covered":"no","fee":"no","operator":"","nameSource":"junction"},"sourceId":"osm"},{"id":"osm:node:11813595697","latitude":41.6110987,"longitude":0.6191349,"name":"Carrer de l'Acadèmia by Acadèmia Mariana","properties":{"access":"yes","bicycle_pa":"rack","capacity":2,"covered":"no","fee":"no","operator":"","nameSource":"landmark"},"sourceId":"osm"},{"id":"osm:node:11818205644","latitude":41.6146012,"longitude":0.6222587,"name":"Plaça de l'Ensenyança near Carrer de la Palma","properties":{"access":"yes","bicycle_pa":"rack","capacity":10,"covered":"no","fee":"no","operator":"","nameSource":"junction"},"sourceId":"osm"},{"id":"osm:node:11821814631","latitude":41.6109807,"longitude":0.6304441,"name":"Carrer de la Doctora Castells near Carrer del Bruc","properties":{"access":"yes","bicycle_pa":"rack","capacity":6,"covered":"no","fee":"no","operator":"","nameSource":"junction"},"sourceId":"osm"},{"id":"osm:node:11821814632","latitude":41.6107582,"longitude":0.6298716,"name":"Carrer de la Doctora Castells near Carrer de Sant Joan de Mata","properties":{"access":"yes","bicycle_pa":"rack","capacity":2,"covered":"no","fee":"no","operator":"","nameSource":"junction"},"sourceId":"osm"},{"id":"osm:node:11821814633","latitude":41.6113497,"longitude":0.6305441,"name":"Carrer de la Doctora Castells near Carrer del Bruc","properties":{"access":"yes","bicycle_pa":"rack","capacity":2,"covered":"no","fee":"no","operator":"","nameSource":"junction"},"sourceId":"osm"},{"id":"osm:node:11868604929","latitude":41.6228563,"longitude":0.6230659,"name":"Avinguda de l'Alcalde Porqueres near Carrer de Ramon Llull","properties":{"access":"yes","bicycle_pa":"rack","capacity":6,"covered":"no","fee":"no","operator":"","nameSource":"junction"},"sourceId":"osm"},{"id":"osm:node:11881085647","latitude":41.6224141,"longitude":0.616246,"name":"Carrer de Màrius Torres near Avinguda de l'Alcalde Rovira Roure","properties":{"access":"yes","bicycle_pa":"rack","capacity":16,"covered":"no","fee":"no","operator":"","nameSource":"junction"},"sourceId":"osm"},{"id":"osm:node:12182669492","latitude":41.6259301,"longitude":0.6358508,"name":"Plaça de Josep Piñol cycle parking","properties":{"access":"yes","bicycle_pa":"building","capacity":4,"covered":"","fee":"","operator":"","nameSource":"street"},"sourceId":"osm"},{"id":"osm:node:12373612100","latitude":41.6136792,"longitude":0.6341303,"name":"Avinguda d'Alacant by Mercadona","properties":{"access":"unknown","bicycle_pa":"rack","capacity":12,"covered":"","fee":"","operator":"","nameSource":"landmark"},"sourceId":"osm"},{"id":"osm:node:12581558439","latitude":41.6123862,"longitude":0.634004,"name":"Carrer del Camí de Picos near Carrer de Vilaller","properties":{"access":"customers","bicycle_pa":"rack","capacity":3,"covered":"yes","fee":"no","operator":"","nameSource":"junction"},"sourceId":"osm"},{"id":"osm:node:12802083340","latitude":41.6155451,"longitude":0.6190321,"name":"Carrer de Ramón y Cajal near Passatge de Ramon i Cajal","properties":{"access":"unknown","bicycle_pa":"lockers","capacity":0,"covered":"yes","fee":"","operator":"","nameSource":"junction"},"sourceId":"osm"},{"id":"osm:node:12806000095","latitude":41.6172417,"longitude":0.6221564,"name":"Plaça Panera by Centre d'Art la Panera","properties":{"access":"unknown","bicycle_pa":"wall_loops","capacity":6,"covered":"yes","fee":"","operator":"","nameSource":"landmark"},"sourceId":"osm"},{"id":"osm:node:12809262384","latitude":41.6128808,"longitude":0.62449,"name":"Avinguda de Blondel near Carrer del Baró de Casa Fleix","properties":{"access":"unknown","bicycle_pa":"stands","capacity":6,"covered":"no","fee":"","operator":"","nameSource":"junction"},"sourceId":"osm"},{"id":"osm:node:12809314851","latitude":41.6124886,"longitude":0.6238111,"name":"Avinguda de Blondel near Plaça del Pati de les Comèdies","properties":{"access":"unknown","bicycle_pa":"stands","capacity":8,"covered":"no","fee":"","operator":"","nameSource":"junction"},"sourceId":"osm"},{"id":"osm:node:12883783065","latitude":41.61289,"longitude":0.6314298,"name":"Carrer de Santa Cecília near Avinguda de les Garrigues","properties":{"access":"yes","bicycle_pa":"rack","capacity":6,"covered":"no","fee":"no","operator":"","nameSource":"junction"},"sourceId":"osm"},{"id":"osm:node:13061815579","latitude":41.6162326,"longitude":0.6229973,"name":"Carrer de la Universitat near Plaça dels Gramàtics","properties":{"access":"unknown","bicycle_pa":"stands","capacity":6,"covered":"no","fee":"","operator":"","nameSource":"junction"},"sourceId":"osm"},{"id":"osm:node:13072906901","latitude":41.6157007,"longitude":0.6271527,"name":"Plaça de Sant Joan near Carrer de Saragossa","properties":{"access":"unknown","bicycle_pa":"stands","capacity":12,"covered":"no","fee":"","operator":"","nameSource":"junction"},"sourceId":"osm"},{"id":"osm:node:13072916701","latitude":41.615985,"longitude":0.6267155,"name":"Carrer del Canyeret near Carrer de les Escales de Sant Joan","properties":{"access":"unknown","bicycle_pa":"stands","capacity":4,"covered":"no","fee":"","operator":"","nameSource":"junction"},"sourceId":"osm"},{"id":"osm:node:13089432522","latitude":41.620997,"longitude":0.6285521,"name":"Avinguda de Sant Ruf near Carrer d'Anselm Clavé","properties":{"access":"unknown","bicycle_pa":"stands","capacity":2,"covered":"no","fee":"","operator":"","nameSource":"junction"},"sourceId":"osm"},{"id":"osm:node:13150146410","latitude":41.6323802,"longitude":0.6214135,"name":"Avinguda de l'Alcalde Porqueres near Carrer d'Almacelles","properties":{"access":"yes","bicycle_pa":"rack","capacity":60,"covered":"no","fee":"","operator":"","nameSource":"junction"},"sourceId":"osm"},{"id":"osm:node:13158714146","latitude":41.6084681,"longitude":0.6250895,"name":"Avinguda de l'Estudi General cycle parking","properties":{"access":"unknown","bicycle_pa":"stands","capacity":15,"covered":"no","fee":"","operator":"","nameSource":"street"},"sourceId":"osm"},{"id":"osm:node:13158979165","latitude":41.6144202,"longitude":0.6220505,"name":"Plaça de Sant Llorenç near Plaça de Sant Josep","properties":{"access":"unknown","bicycle_pa":"wall_loops","capacity":11,"covered":"yes","fee":"","operator":"","nameSource":"junction"},"sourceId":"osm"},{"id":"osm:node:13171648478","latitude":41.6192989,"longitude":0.6222729,"name":"Carrer de Bonaire near Carrer d'Onofre Cerveró","properties":{"access":"unknown","bicycle_pa":"stands","capacity":2,"covered":"no","fee":"","operator":"","nameSource":"junction"},"sourceId":"osm"},{"id":"osm:node:13195368524","latitude":41.6174927,"longitude":0.6200077,"name":"Avinguda de Balmes near Carrer de les Torres de Sanui","properties":{"access":"unknown","bicycle_pa":"stands","capacity":4,"covered":"no","fee":"","operator":"","nameSource":"junction"},"sourceId":"osm"},{"id":"osm:node:13195377502","latitude":41.6198371,"longitude":0.6214616,"name":"Carrer de les Teuleries near Avinguda de Prat de la Riba","properties":{"access":"unknown","bicycle_pa":"stands","capacity":4,"covered":"no","fee":"","operator":"","nameSource":"junction"},"sourceId":"osm"},{"id":"osm:node:13195409507","latitude":41.613744,"longitude":0.6225832,"name":"Carrer Nou near Carrer de Lluís Besa","properties":{"access":"unknown","bicycle_pa":"stands","capacity":6,"covered":"no","fee":"","operator":"","nameSource":"junction"},"sourceId":"osm"},{"id":"osm:node:13246218387","latitude":41.6123302,"longitude":0.6304918,"name":"Carrer de Cappont near Avinguda de València","properties":{"access":"unknown","bicycle_pa":"stands","capacity":4,"covered":"no","fee":"","operator":"","nameSource":"junction"},"sourceId":"osm"},{"id":"osm:node:13286246583","latitude":41.6234294,"longitude":0.6229276,"name":"Avinguda de l'Alcalde Porqueres near Carrer del Mossèn Reig","properties":{"access":"unknown","bicycle_pa":"stands","capacity":4,"covered":"no","fee":"","operator":"","nameSource":"junction"},"sourceId":"osm"},{"id":"osm:node:13286254005","latitude":41.6228409,"longitude":0.6230194,"name":"Avinguda de l'Alcalde Porqueres near Carrer de Ramon Llull","properties":{"access":"unknown","bicycle_pa":"stands","capacity":8,"covered":"no","fee":"","operator":"","nameSource":"junction"},"sourceId":"osm"},{"id":"osm:node:13289495074","latitude":41.6224069,"longitude":0.6275722,"name":"Carrer del Riu Essera near Avinguda de Prat de la Riba","properties":{"access":"unknown","bicycle_pa":"stands","capacity":4,"covered":"no","fee":"","operator":"","nameSource":"junction"},"sourceId":"osm"},{"id":"osm:node:13289495827","latitude":41.6219297,"longitude":0.626417,"name":"Avinguda de Prat de la Riba near Carrer de Pi i Margall","properties":{"access":"unknown","bicycle_pa":"stands","capacity":4,"covered":"no","fee":"","operator":"","nameSource":"junction"},"sourceId":"osm"},{"id":"osm:node:13289498350","latitude":41.6223843,"longitude":0.6270524,"name":"Avinguda de Prat de la Riba near Carrer de Pi i Margall","properties":{"access":"unknown","bicycle_pa":"stands","capacity":4,"covered":"no","fee":"","operator":"","nameSource":"junction"},"sourceId":"osm"},{"id":"osm:node:13319688947","latitude":41.6205642,"longitude":0.6251698,"name":"Carrer del Camp de Mart near Carrer de Bonaire","properties":{"access":"unknown","bicycle_pa":"stands","capacity":2,"covered":"no","fee":"","operator":"","nameSource":"junction"},"sourceId":"osm"},{"id":"osm:node:13334415366","latitude":41.6201474,"longitude":0.6280781,"name":"Plaça de Josep Prenafeta by Auditorium","properties":{"access":"unknown","bicycle_pa":"stands","capacity":20,"covered":"no","fee":"","operator":"","nameSource":"landmark"},"sourceId":"osm"},{"id":"osm:node:13339434641","latitude":41.6160426,"longitude":0.6188874,"name":"Carrer del Mestre Emili Pujol near Carrer de Maragall","properties":{"access":"unknown","bicycle_pa":"stands","capacity":10,"covered":"no","fee":"","operator":"","nameSource":"junction"},"sourceId":"osm"},{"id":"osm:node:13507184973","latitude":41.6217462,"longitude":0.6212514,"name":"Carrer d'Humbert Torres near Carrer de Pau Claris","properties":{"access":"unknown","bicycle_pa":"stands","capacity":2,"covered":"no","fee":"","operator":"","nameSource":"junction"},"sourceId":"osm"},{"id":"osm:node:13507217815","latitude":41.6218828,"longitude":0.6211564,"name":"Carrer d'Humbert Torres near Carrer de Pau Claris","properties":{"access":"unknown","bicycle_pa":"stands","capacity":2,"covered":"no","fee":"","operator":"","nameSource":"junction"},"sourceId":"osm"},{"id":"osm:node:13507227482","latitude":41.6198091,"longitude":0.6208597,"name":"Avinguda de Prat de la Riba near Carrer de les Teuleries","properties":{"access":"unknown","bicycle_pa":"stands","capacity":4,"covered":"no","fee":"","operator":"","nameSource":"junction"},"sourceId":"osm"},{"id":"osm:node:13581558495","latitude":41.6110353,"longitude":0.6274232,"name":"Avinguda de València near Carrer del Riu Ebre","properties":{"access":"unknown","bicycle_pa":"stands","capacity":2,"covered":"no","fee":"","operator":"","nameSource":"junction"},"sourceId":"osm"},{"id":"osm:node:13604176815","latitude":41.6102659,"longitude":0.6187403,"name":"Carrer de la República del Paraguay near Carrer de l'Alcalde Costa","properties":{"access":"unknown","bicycle_pa":"stands","capacity":2,"covered":"no","fee":"","operator":"","nameSource":"junction"},"sourceId":"osm"},{"id":"osm:node:13624871342","latitude":41.6114829,"longitude":0.6207774,"name":"Avinguda de Catalunya near Carrer de l'Alcalde Costa","properties":{"access":"unknown","bicycle_pa":"stands","capacity":4,"covered":"no","fee":"","operator":"","nameSource":"junction"},"sourceId":"osm"},{"id":"osm:node:13659350864","latitude":41.6221106,"longitude":0.6395887,"name":"Avinguda de Tortosa near Carrer del Corregidor Escofet","properties":{"access":"unknown","bicycle_pa":"stands","capacity":8,"covered":"no","fee":"","operator":"","nameSource":"junction"},"sourceId":"osm"},{"id":"osm:node:13728035884","latitude":41.6169721,"longitude":0.6275878,"name":"Carrer del Canyeret near Carrer del Paer Rufes","properties":{"access":"unknown","bicycle_pa":"stands","capacity":8,"covered":"no","fee":"","operator":"","nameSource":"junction"},"sourceId":"osm"},{"id":"osm:node:13746010613","latitude":41.6206402,"longitude":0.6206428,"name":"Carrer d'Alfred Perenya near Carrer d'Enric Granados","properties":{"access":"unknown","bicycle_pa":"stands","capacity":2,"covered":"no","fee":"","operator":"","nameSource":"junction"},"sourceId":"osm"},{"id":"osm:node:13786674425","latitude":41.6193941,"longitude":0.6196433,"name":"Avinguda de Prat de la Riba near Passatge de Pompeu","properties":{"access":"unknown","bicycle_pa":"stands","capacity":4,"covered":"no","fee":"","operator":"","nameSource":"junction"},"sourceId":"osm"},{"id":"osm:node:13897560856","latitude":41.6207091,"longitude":0.6229788,"name":"Avinguda de Prat de la Riba near Avinguda de l'Alcalde Porqueres","properties":{"access":"unknown","bicycle_pa":"stands","capacity":6,"covered":"no","fee":"","operator":"","nameSource":"junction"},"sourceId":"osm"},{"id":"osm:node:13978331390","latitude":41.6221268,"longitude":0.6237387,"name":"Carrer d'Alfred Perenya near Carrer de Pallars","properties":{"access":"unknown","bicycle_pa":"stands","capacity":2,"covered":"no","fee":"","operator":"","nameSource":"junction"},"sourceId":"osm"},{"id":"osm:node:13978336482","latitude":41.6226822,"longitude":0.624896,"name":"Carrer d'Alfred Perenya near Carrer del Paer Casanovas","properties":{"access":"unknown","bicycle_pa":"stands","capacity":2,"covered":"no","fee":"","operator":"","nameSource":"junction"},"sourceId":"osm"},{"id":"osm:node:13978373696","latitude":41.6220723,"longitude":0.6237708,"name":"Carrer d'Alfred Perenya near Carrer de Pallars","properties":{"access":"unknown","bicycle_pa":"stands","capacity":2,"covered":"no","fee":"","operator":"","nameSource":"junction"},"sourceId":"osm"},{"id":"osm:node:13978379663","latitude":41.6227259,"longitude":0.6248577,"name":"Carrer d'Alfred Perenya near Carrer del Paer Casanovas","properties":{"access":"unknown","bicycle_pa":"stands","capacity":2,"covered":"no","fee":"","operator":"","nameSource":"junction"},"sourceId":"osm"},{"id":"osm:node:13978380844","latitude":41.6232495,"longitude":0.6259602,"name":"Carrer d'Alfred Perenya near Carrer de Pi i Margall","properties":{"access":"unknown","bicycle_pa":"stands","capacity":8,"covered":"no","fee":"","operator":"","nameSource":"junction"},"sourceId":"osm"},{"id":"osm:node:13978425552","latitude":41.6210352,"longitude":0.6238133,"name":"Avinguda de Prat de la Riba near Carrer del Bisbe Galindo","properties":{"access":"unknown","bicycle_pa":"stands","capacity":4,"covered":"no","fee":"","operator":"","nameSource":"junction"},"sourceId":"osm"},{"id":"osm:node:13983838276","latitude":41.6210296,"longitude":0.6215739,"name":"Carrer d'Alfred Perenya near Carrer d'Humbert Torres","properties":{"access":"unknown","bicycle_pa":"stands","capacity":2,"covered":"no","fee":"","operator":"","nameSource":"junction"},"sourceId":"osm"},{"id":"osm:node:13988693796","latitude":41.6126844,"longitude":0.6195921,"name":"Rambla d'Aragó near Carrer d'Isabel II","properties":{"access":"unknown","bicycle_pa":"stands","capacity":4,"covered":"no","fee":"","operator":"","nameSource":"junction"},"sourceId":"osm"},{"id":"osm:node:2935926129","latitude":41.6098108,"longitude":0.6292694,"name":"Carrer del Riu Ebre near Carrer de la Doctora Castells","properties":{"access":"unknown","bicycle_pa":"stands","capacity":6,"covered":"","fee":"","operator":"","nameSource":"junction"},"sourceId":"osm"},{"id":"osm:node:5552534910","latitude":41.6202896,"longitude":0.6229165,"name":"Carrer de l'Ensenyança near Avinguda de Prat de la Riba","properties":{"access":"unknown","bicycle_pa":"stands","capacity":8,"covered":"no","fee":"","operator":"","nameSource":"junction"},"sourceId":"osm"},{"id":"osm:node:8259438267","latitude":41.6185825,"longitude":0.6194624,"name":"Plaça de Ricard Vinyes near Avinguda de Balmes","properties":{"access":"yes","bicycle_pa":"stands","capacity":6,"covered":"no","fee":"no","operator":"","nameSource":"junction"},"sourceId":"osm"}],"schemaVersion":2}
