{"key":"12/2007/1277","points":[{"id":"osm:node:10291702215","latitude":55.8780471,"longitude":-3.5194632,"name":"Dedridge North Road by Cedarbank School","properties":{"access":"unknown","bicycle_pa":"stands","capacity":6,"covered":"no","fee":"","operator":"","nameSource":"landmark"},"sourceId":"osm"},{"id":"osm:node:10681557156","latitude":55.8761144,"longitude":-3.518239,"name":"Dedridge West Road near Ravenswood Rise","properties":{"access":"unknown","bicycle_pa":"stands","capacity":6,"covered":"","fee":"","operator":"","nameSource":"junction"},"sourceId":"osm"},{"id":"osm:node:10979596938","latitude":55.8920629,"longitude":-3.5210927,"name":"Howden cycle parking","properties":{"access":"unknown","bicycle_pa":"lockers","capacity":0,"covered":"","fee":"","operator":"","nameSource":"place"},"sourceId":"osm"},{"id":"osm:node:10979596939","latitude":55.892026,"longitude":-3.5210913,"name":"Howden cycle parking","properties":{"access":"unknown","bicycle_pa":"shed","capacity":0,"covered":"","fee":"","operator":"","nameSource":"place"},"sourceId":"osm"},{"id":"osm:node:11582162452","latitude":55.8894638,"longitude":-3.5548966,"name":"Appleton Parkway by Marionville Models Ltd","properties":{"access":"unknown","bicycle_pa":"stands","capacity":0,"covered":"yes","fee":"","operator":"","nameSource":"landmark"},"sourceId":"osm"},{"id":"osm:node:12173122863","latitude":55.8753752,"longitude":-3.5243884,"name":"Waverley Path by West Lothian Bike Library","properties":{"access":"unknown","bicycle_pa":"stands","capacity":8,"covered":"no","fee":"no","operator":"","nameSource":"landmark"},"sourceId":"osm"},{"id":"osm:node:12952362383","latitude":55.8840469,"longitude":-3.5158671,"name":"Almondvale Boulevard by Elite Smile Dental Clinic","properties":{"access":"unknown","bicycle_pa":"stands","capacity":8,"covered":"no","fee":"","operator":"","nameSource":"landmark"},"sourceId":"osm"},{"id":"osm:node:12952362511","latitude":55.8825117,"longitude":-3.5156404,"name":"Almondvale Court by Flannels","properties":{"access":"unknown","bicycle_pa":"stands","capacity":10,"covered":"no","fee":"","operator":"","nameSource":"landmark"},"sourceId":"osm"},{"id":"osm:node:12985834009","latitude":55.8829621,"longitude":-3.517556,"name":"Almondvale Avenue by Photo-Me","properties":{"access":"unknown","bicycle_pa":"stands","capacity":8,"covered":"no","fee":"","operator":"","nameSource":"landmark"},"sourceId":"osm"},{"id":"osm:node:12985880642","latitude":55.8837224,"longitude":-3.5173999,"name":"Almondvale Avenue by Wingstop","properties":{"access":"unknown","bicycle_pa":"stands","capacity":10,"covered":"no","fee":"","operator":"","nameSource":"landmark"},"sourceId":"osm"},{"id":"osm:node:12986019653","latitude":55.8767121,"longitude":-3.5270481,"name":"Folly Burn Path by Morrisons","properties":{"access":"unknown","bicycle_pa":"stands","capacity":18,"covered":"yes","fee":"","operator":"","nameSource":"landmark"},"sourceId":"osm"},{"id":"osm:node:1300937252","latitude":55.8821341,"longitude":-3.5168745,"name":"Almondvale Avenue near Multiplex Roundabout","properties":{"access":"unknown","bicycle_pa":"stands","capacity":10,"covered":"no","fee":"","operator":"","nameSource":"junction"},"sourceId":"osm"},{"id":"osm:node:13482512069","latitude":55.8927448,"longitude":-3.5240942,"name":"Howden West Road cycle parking","properties":{"access":"customers","bicycle_pa":"stands","capacity":10,"covered":"no","fee":"no","operator":"","nameSource":"street"},"sourceId":"osm"},{"id":"osm:node:13482533707","latitude":55.8925564,"longitude":-3.5254597,"name":"Howden West Road cycle parking","properties":{"access":"permissive","bicycle_pa":"shed","capacity":0,"covered":"yes","fee":"no","operator":"","nameSource":"street"},"sourceId":"osm"},{"id":"osm:node:13777897933","latitude":55.8784343,"longitude":-3.5892093,"name":"Redhouse Road near Heather Park","properties":{"access":"unknown","bicycle_pa":"stands","capacity":12,"covered":"no","fee":"","operator":"","nameSource":"junction"},"sourceId":"osm"},{"id":"osm:node:1467631706","latitude":55.9033359,"longitude":-3.5462499,"name":"Carmondean Path by Ladbrokes","properties":{"access":"unknown","bicycle_pa":"","capacity":0,"covered":"","fee":"","operator":"","nameSource":"landmark"},"sourceId":"osm"},{"id":"osm:node:1729560491","latitude":55.9022209,"longitude":-3.5407952,"name":"Railway Path South cycle parking","properties":{"access":"unknown","bicycle_pa":"","capacity":0,"covered":"","fee":"","operator":"","nameSource":"street"},"sourceId":"osm"},{"id":"osm:node:1922648471","latitude":55.9005112,"longitude":-3.5205446,"name":"Willowbank by Inveralmond Community High School","properties":{"access":"unknown","bicycle_pa":"stands","capacity":30,"covered":"yes","fee":"","operator":"","nameSource":"landmark"},"sourceId":"osm"},{"id":"osm:node:2131496943","latitude":55.9004996,"longitude":-3.5679028,"name":"St Andrew's Way by Livingston Station Community Centre","properties":{"access":"unknown","bicycle_pa":"","capacity":10,"covered":"","fee":"","operator":"","nameSource":"landmark"},"sourceId":"osm"},{"id":"osm:node:2149011209","latitude":55.8816628,"longitude":-3.5163943,"name":"Almondvale Road near Multiplex Roundabout","properties":{"access":"unknown","bicycle_pa":"stands","capacity":12,"covered":"no","fee":"","operator":"","nameSource":"junction"},"sourceId":"osm"},{"id":"osm:node:2252456596","latitude":55.8951699,"longitude":-3.5354738,"name":"Beech Place near Garden Place","properties":{"access":"unknown","bicycle_pa":"stands","capacity":0,"covered":"","fee":"","operator":"","nameSource":"junction"},"sourceId":"osm"},{"id":"osm:node:2266702304","latitude":55.8870046,"longitude":-3.5420942,"name":"Kirkton North Road by Livingston Village Primary School","properties":{"access":"unknown","bicycle_pa":"stands","capacity":0,"covered":"yes","fee":"","operator":"","nameSource":"landmark"},"sourceId":"osm"},{"id":"osm:node:2282405971","latitude":55.9033025,"longitude":-3.5556867,"name":"Nell Burn Path cycle parking","properties":{"access":"unknown","bicycle_pa":"stands","capacity":24,"covered":"","fee":"","operator":"","nameSource":"street"},"sourceId":"osm"},{"id":"osm:node:2332346765","latitude":55.9010938,"longitude":-3.5385115,"name":"Waverley Crescent near Eliburn North Roundabout","properties":{"access":"unknown","bicycle_pa":"stands","capacity":10,"covered":"","fee":"","operator":"","nameSource":"junction"},"sourceId":"osm"},{"id":"osm:node:2332346780","latitude":55.903546,"longitude":-3.5379257,"name":"Waverley Crescent cycle parking","properties":{"access":"unknown","bicycle_pa":"stands","capacity":10,"covered":"","fee":"","operator":"","nameSource":"street"},"sourceId":"osm"},{"id":"osm:node:2466788794","latitude":55.9025577,"longitude":-3.5475262,"name":"Pentland View Court by Carmondean Health Centre","properties":{"access":"unknown","bicycle_pa":"stands","capacity":12,"covered":"","fee":"","operator":"","nameSource":"landmark"},"sourceId":"osm"},{"id":"osm:node:2647160484","latitude":55.9086889,"longitude":-3.5187226,"name":"Knightsridge East Road cycle parking","properties":{"access":"unknown","bicycle_pa":"stands","capacity":14,"covered":"no","fee":"","operator":"","nameSource":"street"},"sourceId":"osm"},{"id":"osm:node:3020101612","latitude":55.8825406,"longitude":-3.525399,"name":"Almondvale Crescent near College Roundabout","properties":{"access":"unknown","bicycle_pa":"rack","capacity":8,"covered":"no","fee":"","operator":"","nameSource":"junction"},"sourceId":"osm"},{"id":"osm:node:3149075456","latitude":55.8915759,"longitude":-3.5238886,"name":"Amigo cycle parking","properties":{"access":"unknown","bicycle_pa":"shed","capacity":8,"covered":"","fee":"","operator":"","nameSource":"landmark"},"sourceId":"osm"},{"id":"osm:node:3781580554","latitude":55.8925259,"longitude":-3.5191931,"name":"Hospital Path by Howden Park Centre","properties":{"access":"unknown","bicycle_pa":"stands","capacity":8,"covered":"no","fee":"no","operator":"","nameSource":"landmark"},"sourceId":"osm"},{"id":"osm:node:3948025434","latitude":55.8889523,"longitude":-3.526662,"name":"Alderstone Road cycle parking","properties":{"access":"unknown","bicycle_pa":"","capacity":10,"covered":"","fee":"","operator":"","nameSource":"street"},"sourceId":"osm"},{"id":"osm:node:4576965010","latitude":55.8831241,"longitude":-3.5176855,"name":"Almondvale Avenue by las IGUANAS","properties":{"access":"unknown","bicycle_pa":"stands","capacity":10,"covered":"no","fee":"","operator":"","nameSource":"landmark"},"sourceId":"osm"},{"id":"osm:node:4743341770","latitude":55.8810345,"longitude":-3.5251711,"name":"Almondvale Business Park by B&M Bargains","properties":{"access":"unknown","bicycle_pa":"stands","capacity":6,"covered":"no","fee":"","operator":"","nameSource":"landmark"},"sourceId":"osm"},{"id":"osm:node:4826008724","latitude":55.9014528,"longitude":-3.5434731,"name":"Railway Path South by Livingston North","properties":{"access":"unknown","bicycle_pa":"","capacity":0,"covered":"yes","fee":"","operator":"","nameSource":"landmark"},"sourceId":"osm"},{"id":"osm:node:5607551148","latitude":55.8794027,"longitude":-3.5203215,"name":"Dedridge North Road by Home Bargains","properties":{"access":"unknown","bicycle_pa":"stands","capacity":14,"covered":"","fee":"","operator":"","nameSource":"landmark"},"sourceId":"osm"},{"id":"osm:node:5607893517","latitude":55.8790991,"longitude":-3.524141,"name":"Almondvale Road cycle parking","properties":{"access":"unknown","bicycle_pa":"stands","capacity":0,"covered":"","fee":"","operator":"","nameSource":"street"},"sourceId":"osm"},{"id":"osm:node:6946105269","latitude":55.881934,"longitude":-3.538928,"name":"Killandean Path cycle parking","properties":{"access":"unknown","bicycle_pa":"stands","capacity":20,"covered":"yes","fee":"","operator":"","nameSource":"street"},"sourceId":"osm"},{"id":"osm:node:7352361603","latitude":55.8799273,"longitude":-3.527654,"name":"Alderstone Road cycle parking","properties":{"access":"unknown","bicycle_pa":"stands","capacity":6,"covered":"no","fee":"","operator":"","nameSource":"street"},"sourceId":"osm"},{"id":"osm:node:9383857546","latitude":55.889372,"longitude":-3.556876,"name":"Appleton Place near Appleton Parkway","properties":{"access":"unknown","bicycle_pa":"stands","capacity":0,"covered":"yes","fee":"","operator":"","nameSource":"junction"},"sourceId":"osm"},{"id":"osm:node:9383857548","latitude":55.8890163,"longitude":-3.5584796,"name":"Appleton Parkway cycle parking","properties":{"access":"unknown","bicycle_pa":"stands","capacity":8,"covered":"yes","fee":"","operator":"","nameSource":"street"},"sourceId":"osm"},{"id":"osm:node:943038197","latitude":55.8957608,"longitude":-3.552246,"name":"Houstoun Road cycle parking","properties":{"access":"unknown","bicycle_pa":"stands","capacity":22,"covered":"no","fee":"","operator":"","nameSource":"street"},"sourceId":"osm"},{"id":"osm:way:360931494","latitude":55.8784729,"longitude":-3.5265369166666662,"name":"Almondvale Road cycle parking","properties":{"access":"unknown","bicycle_pa":"stands","capacity":16,"covered":"yes","fee":"no","operator":"","nameSource":"street"},"sourceId":"osm"},{"id":"osm:way:818100805","latitude":55.901734340000004,"longitude":-3.5437165,"name":"Railway Path North by Livingston North","properties":{"access":"unknown","bicycle_pa":"stands","capacity":0,"covered":"yes","fee":"","operator":"","nameSource":"landmark"},"sourceId":"osm"}],"schemaVersion":1}
