{"key":"12/2013/1268","points":[{"id":"osm:node:12320280764","latitude":56.3183749,"longitude":-3.0317368,"name":"Carslogie Road cycle parking","properties":{"access":"permit","bicycle_pa":"shed","capacity":0,"covered":"yes","fee":"no","operator":"SRUC","nameSource":"street"},"sourceId":"osm"},{"id":"osm:node:1458167182","latitude":56.3202584,"longitude":-3.0086061,"name":"East Bridge near East Burnside","properties":{"access":"unknown","bicycle_pa":"stands","capacity":10,"covered":"no","fee":"","operator":"","nameSource":"junction"},"sourceId":"osm"},{"id":"osm:node:1512691341","latitude":56.316999,"longitude":-3.009579,"name":"South Road near Railway Place","properties":{"access":"unknown","bicycle_pa":"","capacity":8,"covered":"no","fee":"","operator":"","nameSource":"junction"},"sourceId":"osm"},{"id":"osm:node:1512691348","latitude":56.3175498,"longitude":-3.0094036,"name":"Station Road near South Bridge","properties":{"access":"unknown","bicycle_pa":"stands","capacity":2,"covered":"no","fee":"","operator":"","nameSource":"junction"},"sourceId":"osm"},{"id":"osm:node:1512691455","latitude":56.317426,"longitude":-3.0089542,"name":"Station Road by Cupar Heritage Centre","properties":{"access":"unknown","bicycle_pa":"lockers","capacity":8,"covered":"yes","fee":"","operator":"","nameSource":"landmark"},"sourceId":"osm"},{"id":"osm:node:5394552953","latitude":56.3193428,"longitude":-3.0117734,"name":"Bell Close near Bonnygate","properties":{"access":"unknown","bicycle_pa":"stands","capacity":6,"covered":"no","fee":"","operator":"","nameSource":"junction"},"sourceId":"osm"},{"id":"osm:way:1009282323","latitude":56.31740028,"longitude":-3.0283952999999997,"name":"Bell Baxter High School cycle parking","properties":{"access":"unknown","bicycle_pa":"","capacity":0,"covered":"","fee":"","operator":"","nameSource":"landmark"},"sourceId":"osm"},{"id":"osm:way:1009282324","latitude":56.31746158000001,"longitude":-3.02839842,"name":"Carslogie Road cycle parking","properties":{"access":"unknown","bicycle_pa":"","capacity":0,"covered":"","fee":"","operator":"","nameSource":"street"},"sourceId":"osm"}],"schemaVersion":2}
