{"key":"12/2013/1276","points":[{"id":"osm:node:10934119226","latitude":55.9319616,"longitude":-3.0731554,"name":"University Square by Queen Margaret University","properties":{"access":"unknown","bicycle_pa":"stands","capacity":108,"covered":"yes","fee":"","operator":"","nameSource":"landmark"},"sourceId":"osm"},{"id":"osm:node:10934119227","latitude":55.9318734,"longitude":-3.0731597,"name":"University Square cycle parking","properties":{"access":"unknown","bicycle_pa":"stands","capacity":36,"covered":"no","fee":"","operator":"","nameSource":"street"},"sourceId":"osm"},{"id":"osm:node:11178808556","latitude":55.9505539,"longitude":-3.0449728,"name":"Musselburgh Monarchs BMX Track cycle parking","properties":{"access":"unknown","bicycle_pa":"stands","capacity":8,"covered":"no","fee":"no","operator":"","nameSource":"landmark"},"sourceId":"osm"},{"id":"osm:node:11178832522","latitude":55.9527703,"longitude":-3.0100866,"name":"B1348 cycle parking","properties":{"access":"unknown","bicycle_pa":"stands","capacity":8,"covered":"no","fee":"no","operator":"","nameSource":"street"},"sourceId":"osm"},{"id":"osm:node:1417066933","latitude":55.943647,"longitude":-3.0572244,"name":"Ladywell Way near Bridge Street","properties":{"access":"unknown","bicycle_pa":"stands","capacity":10,"covered":"no","fee":"","operator":"","nameSource":"junction"},"sourceId":"osm"},{"id":"osm:node:1621703718","latitude":55.9402187,"longitude":-3.0149817,"name":"Wallyford cycle parking","properties":{"access":"unknown","bicycle_pa":"stands","capacity":8,"covered":"no","fee":"","operator":"","nameSource":"landmark"},"sourceId":"osm"},{"id":"osm:node:1621703722","latitude":55.9402485,"longitude":-3.0150339,"name":"Wallyford cycle parking","properties":{"access":"unknown","bicycle_pa":"lockers","capacity":1,"covered":"","fee":"","operator":"","nameSource":"landmark"},"sourceId":"osm"},{"id":"osm:node:1621703736","latitude":55.9402606,"longitude":-3.014997,"name":"Wallyford cycle parking","properties":{"access":"unknown","bicycle_pa":"stands","capacity":8,"covered":"yes","fee":"","operator":"","nameSource":"landmark"},"sourceId":"osm"},{"id":"osm:node:1621712787","latitude":55.9336919,"longitude":-3.0735224,"name":"Denholm Drive cycle parking","properties":{"access":"unknown","bicycle_pa":"stands","capacity":4,"covered":"no","fee":"","operator":"","nameSource":"street"},"sourceId":"osm"},{"id":"osm:node:2404233060","latitude":55.9390006,"longitude":-3.0545076,"name":"Inveresk Road by Greggs","properties":{"access":"unknown","bicycle_pa":"stands","capacity":48,"covered":"no","fee":"","operator":"","nameSource":"landmark"},"sourceId":"osm"},{"id":"osm:node:2609696167","latitude":55.9382268,"longitude":-3.0534398,"name":"Church Lane by Riverside Medical Practice","properties":{"access":"unknown","bicycle_pa":"stands","capacity":10,"covered":"yes","fee":"","operator":"","nameSource":"landmark"},"sourceId":"osm"},{"id":"osm:node:2609696174","latitude":55.938275,"longitude":-3.0533765,"name":"Church Lane by Riverside Medical Practice","properties":{"access":"unknown","bicycle_pa":"stands","capacity":10,"covered":"yes","fee":"","operator":"","nameSource":"landmark"},"sourceId":"osm"},{"id":"osm:node:2609696195","latitude":55.93855,"longitude":-3.0531563,"name":"Church Lane by Riverside Medical Practice","properties":{"access":"unknown","bicycle_pa":"stands","capacity":10,"covered":"yes","fee":"","operator":"","nameSource":"landmark"},"sourceId":"osm"},{"id":"osm:node:3212636938","latitude":55.9331494,"longitude":-3.0722669,"name":"Whitehill Farm Road near Mucklets Road","properties":{"access":"unknown","bicycle_pa":"stands","capacity":8,"covered":"yes","fee":"","operator":"","nameSource":"junction"},"sourceId":"osm"},{"id":"osm:node:3803171484","latitude":55.9504594,"longitude":-3.0294735,"name":"Westpans cycle parking","properties":{"access":"yes","bicycle_pa":"stands","capacity":4,"covered":"no","fee":"no","operator":"","nameSource":"place"},"sourceId":"osm"},{"id":"osm:node:3962469689","latitude":55.9385059,"longitude":-3.0521855,"name":"Church Lane by Inveresk Medical Practice","properties":{"access":"unknown","bicycle_pa":"stands","capacity":6,"covered":"yes","fee":"","operator":"","nameSource":"landmark"},"sourceId":"osm"},{"id":"osm:node:3996397572","latitude":55.9434913,"longitude":-3.0516642,"name":"Eskside East near Shorthope Street","properties":{"access":"unknown","bicycle_pa":"stands","capacity":10,"covered":"no","fee":"","operator":"","nameSource":"junction"},"sourceId":"osm"},{"id":"osm:node:3996409470","latitude":55.9424406,"longitude":-3.0510305,"name":"High Street near Shorthope Street","properties":{"access":"unknown","bicycle_pa":"stands","capacity":4,"covered":"no","fee":"","operator":"","nameSource":"junction"},"sourceId":"osm"},{"id":"osm:node:8176629291","latitude":55.9416281,"longitude":-3.0521798,"name":"Mansfield Road by Musselburgh Police Station","properties":{"access":"unknown","bicycle_pa":"stands","capacity":20,"covered":"no","fee":"","operator":"","nameSource":"landmark"},"sourceId":"osm"},{"id":"osm:node:8176903590","latitude":55.9417536,"longitude":-3.0336975,"name":"Moray Way near Pinkie Road","properties":{"access":"yes","bicycle_pa":"stands","capacity":10,"covered":"no","fee":"no","operator":"","nameSource":"junction"},"sourceId":"osm"},{"id":"osm:node:8176903592","latitude":55.9432377,"longitude":-3.047712,"name":"High Street near Newbigging","properties":{"access":"yes","bicycle_pa":"stands","capacity":10,"covered":"no","fee":"no","operator":"East Lothian Council","nameSource":"junction"},"sourceId":"osm"},{"id":"osm:node:8176903593","latitude":55.9424168,"longitude":-3.0511426,"name":"High Street near Shorthope Street","properties":{"access":"yes","bicycle_pa":"stands","capacity":4,"covered":"no","fee":"no","operator":"East Lothian Council","nameSource":"junction"},"sourceId":"osm"},{"id":"osm:node:8176903594","latitude":55.9431506,"longitude":-3.0472775,"name":"High Street near Ambassador Court","properties":{"access":"unknown","bicycle_pa":"stands","capacity":8,"covered":"no","fee":"no","operator":"","nameSource":"junction"},"sourceId":"osm"},{"id":"osm:node:8200252023","latitude":55.9413105,"longitude":-3.0507751,"name":"Mansfield Avenue near Mansfield Road","properties":{"access":"school","bicycle_pa":"stands","capacity":10,"covered":"yes","fee":"no","operator":"Musselburgh Burgh Primary School","nameSource":"junction"},"sourceId":"osm"},{"id":"osm:node:8200252024","latitude":55.9393434,"longitude":-3.048215,"name":"Newbigging near Rothesay Place","properties":{"access":"yes","bicycle_pa":"stands","capacity":20,"covered":"no","fee":"no","operator":"East Lothian Council","nameSource":"junction"},"sourceId":"osm"},{"id":"osm:node:8200252025","latitude":55.9385164,"longitude":-3.0492946,"name":"St Michael's Avenue by Musselburgh Grammar School","properties":{"access":"unknown","bicycle_pa":"stands","capacity":20,"covered":"no","fee":"no","operator":"Musselburgh Grammar School","nameSource":"landmark"},"sourceId":"osm"},{"id":"osm:node:8200252026","latitude":55.9441052,"longitude":-3.022274,"name":"Haddington Road near Ravensheugh Brae","properties":{"access":"unknown","bicycle_pa":"stands","capacity":6,"covered":"no","fee":"no","operator":"east lothian council","nameSource":"junction"},"sourceId":"osm"},{"id":"osm:node:8200252027","latitude":55.9451536,"longitude":-3.0695452,"name":"New Street cycle parking","properties":{"access":"unknown","bicycle_pa":"stands","capacity":6,"covered":"","fee":"","operator":"","nameSource":"street"},"sourceId":"osm"},{"id":"osm:node:8200252028","latitude":55.9450402,"longitude":-3.067779,"name":"Raised Pavement cycle parking","properties":{"access":"unknown","bicycle_pa":"stands","capacity":10,"covered":"","fee":"","operator":"","nameSource":"street"},"sourceId":"osm"},{"id":"osm:node:8200252029","latitude":55.9451172,"longitude":-3.0683556,"name":"New Street by Sizzlers","properties":{"access":"unknown","bicycle_pa":"stands","capacity":6,"covered":"","fee":"","operator":"","nameSource":"landmark"},"sourceId":"osm"},{"id":"osm:node:8200252030","latitude":55.9453484,"longitude":-3.068007,"name":"Raised Pavement by Sizzlers","properties":{"access":"unknown","bicycle_pa":"stands","capacity":4,"covered":"","fee":"","operator":"","nameSource":"landmark"},"sourceId":"osm"},{"id":"osm:node:8200252031","latitude":55.9433455,"longitude":-3.0668208,"name":"Market Street by Lidl","properties":{"access":"unknown","bicycle_pa":"rack","capacity":5,"covered":"no","fee":"no","operator":"Lidl","nameSource":"landmark"},"sourceId":"osm"},{"id":"osm:node:8200252032","latitude":55.9393547,"longitude":-3.0593763,"name":"Station Road by Company Bakery","properties":{"access":"unknown","bicycle_pa":"stands","capacity":6,"covered":"","fee":"","operator":"","nameSource":"landmark"},"sourceId":"osm"},{"id":"osm:node:8846743917","latitude":55.9454548,"longitude":-3.0728419,"name":"Edinburgh Road near Maitland Park Road","properties":{"access":"unknown","bicycle_pa":"stands","capacity":8,"covered":"","fee":"","operator":"","nameSource":"junction"},"sourceId":"osm"},{"id":"osm:node:9341204796","latitude":55.9419978,"longitude":-3.0676259,"name":"Olive Bank Road by Iceland","properties":{"access":"yes","bicycle_pa":"stands","capacity":6,"covered":"","fee":"","operator":"","nameSource":"landmark"},"sourceId":"osm"},{"id":"osm:node:9341204797","latitude":55.9447342,"longitude":-3.0666825,"name":"New Street near Harbour Road","properties":{"access":"yes","bicycle_pa":"stands","capacity":6,"covered":"no","fee":"no","operator":"East Lothian Council","nameSource":"junction"},"sourceId":"osm"},{"id":"osm:node:9341253055","latitude":55.9440357,"longitude":-3.0585724,"name":"North High Street near Bridge Street","properties":{"access":"yes","bicycle_pa":"stands","capacity":6,"covered":"no","fee":"no","operator":"East Lothian Council","nameSource":"junction"},"sourceId":"osm"},{"id":"osm:node:9879680627","latitude":55.9498294,"longitude":-3.0307191,"name":"Levenhall cycle parking","properties":{"access":"yes","bicycle_pa":"stands","capacity":0,"covered":"no","fee":"","operator":"","nameSource":"place"},"sourceId":"osm"},{"id":"osm:node:9879680639","latitude":55.9506826,"longitude":-3.0291285,"name":"Westpans cycle parking","properties":{"access":"yes","bicycle_pa":"stands","capacity":4,"covered":"no","fee":"","operator":"","nameSource":"place"},"sourceId":"osm"},{"id":"osm:node:9961607938","latitude":55.9527798,"longitude":-3.0100211,"name":"B1348 cycle parking","properties":{"access":"unknown","bicycle_pa":"stands","capacity":8,"covered":"no","fee":"no","operator":"","nameSource":"street"},"sourceId":"osm"},{"id":"osm:way:580255978","latitude":55.9414479,"longitude":-3.03795316,"name":"Pinkie Road near Edenhall Road","properties":{"access":"yes","bicycle_pa":"stands","capacity":104,"covered":"yes","fee":"no","operator":"","nameSource":"junction"},"sourceId":"osm"}],"schemaVersion":2}
