{"key":"12/2013/1334","points":[{"id":"osm:node:12290618911","latitude":52.9652808,"longitude":-3.0691286,"name":"Cae Gwilym Lane by Hell's Kitchen","properties":{"access":"unknown","bicycle_pa":"","capacity":0,"covered":"no","fee":"","operator":"","nameSource":"landmark"},"sourceId":"osm"},{"id":"osm:node:12427001482","latitude":52.9729589,"longitude":-3.0707556,"name":"Oxford Street by Tesco","properties":{"access":"unknown","bicycle_pa":"stands","capacity":0,"covered":"yes","fee":"no","operator":"","nameSource":"landmark"},"sourceId":"osm"},{"id":"osm:node:13373959534","latitude":53.0114914,"longitude":-3.0253499,"name":"Hafod Road by Bonc yr Hafod Country Park","properties":{"access":"unknown","bicycle_pa":"","capacity":0,"covered":"","fee":"","operator":"","nameSource":"landmark"},"sourceId":"osm"},{"id":"osm:node:13953493860","latitude":52.9728662,"longitude":-3.072879,"name":"Mount Pleasant near High Street","properties":{"access":"unknown","bicycle_pa":"stands","capacity":7,"covered":"no","fee":"","operator":"","nameSource":"junction"},"sourceId":"osm"},{"id":"osm:node:5865250895","latitude":52.9730702,"longitude":-3.0710203,"name":"Oxford Street cycle parking","properties":{"access":"permissive","bicycle_pa":"stands","capacity":0,"covered":"no","fee":"","operator":"","nameSource":"street"},"sourceId":"osm"},{"id":"osm:node:5865250896","latitude":52.9729913,"longitude":-3.0709032,"name":"Oxford Street by Tesco","properties":{"access":"permissive","bicycle_pa":"stands","capacity":12,"covered":"yes","fee":"","operator":"","nameSource":"landmark"},"sourceId":"osm"}],"schemaVersion":2}
