{"key":"12/2013/1356","points":[{"id":"osm:node:12438747383","latitude":51.823307,"longitude":-3.017913,"name":"King Street near Lion Street","properties":{"access":"unknown","bicycle_pa":"stands","capacity":8,"covered":"no","fee":"no","operator":"","nameSource":"junction"},"sourceId":"osm"},{"id":"osm:node:13741937970","latitude":51.8174971,"longitude":-3.0092335,"name":"Station Road by Abergavenny","properties":{"access":"unknown","bicycle_pa":"stands","capacity":10,"covered":"no","fee":"","operator":"","nameSource":"landmark"},"sourceId":"osm"},{"id":"osm:node:2705342715","latitude":51.8225644,"longitude":-3.0194992,"name":"Nevill Street near St. John's Lane","properties":{"access":"yes","bicycle_pa":"stands","capacity":4,"covered":"no","fee":"","operator":"","nameSource":"junction"},"sourceId":"osm"},{"id":"osm:node:2705366193","latitude":51.8216615,"longitude":-3.0198899,"name":"Nevill Street near St John's Street","properties":{"access":"unknown","bicycle_pa":"stands","capacity":8,"covered":"no","fee":"","operator":"","nameSource":"junction"},"sourceId":"osm"},{"id":"osm:node:299402764","latitude":51.8201245,"longitude":-3.0154239,"name":"Monmouth Road near Cross Street","properties":{"access":"unknown","bicycle_pa":"","capacity":8,"covered":"","fee":"","operator":"","nameSource":"junction"},"sourceId":"osm"},{"id":"osm:node:8647604509","latitude":51.8174667,"longitude":-3.009095,"name":"Station Road by Abergavenny","properties":{"access":"unknown","bicycle_pa":"rack","capacity":20,"covered":"yes","fee":"","operator":"","nameSource":"landmark"},"sourceId":"osm"}],"schemaVersion":2}
