{"key":"12/2013/1358","points":[{"id":"osm:node:10006308567","latitude":51.7004399,"longitude":-3.0402558,"name":"St James' Field cycle parking","properties":{"access":"unknown","bicycle_pa":"","capacity":0,"covered":"","fee":"","operator":"","nameSource":"street"},"sourceId":"osm"},{"id":"osm:node:10985396262","latitude":51.6968353,"longitude":-3.0140785,"name":"Pontypool Station Road cycle parking","properties":{"access":"yes","bicycle_pa":"stands","capacity":10,"covered":"","fee":"","operator":"Transport for Wales","nameSource":"street"},"sourceId":"osm"},{"id":"osm:node:10985396263","latitude":51.6971383,"longitude":-3.0140983,"name":"Pontypool Station Road by Pontypool and New Inn","properties":{"access":"yes","bicycle_pa":"stands","capacity":10,"covered":"","fee":"","operator":"Transport for Wales","nameSource":"landmark"},"sourceId":"osm"},{"id":"osm:node:11246711134","latitude":51.6975657,"longitude":-3.0140512,"name":"A4042 by Pontypool and New Inn","properties":{"access":"yes","bicycle_pa":"stands","capacity":10,"covered":"no","fee":"","operator":"","nameSource":"landmark"},"sourceId":"osm"},{"id":"osm:node:11247582682","latitude":51.6973822,"longitude":-3.0138403,"name":"A4042 by Pontypool and New Inn","properties":{"access":"yes","bicycle_pa":"stands","capacity":5,"covered":"no","fee":"","operator":"","nameSource":"landmark"},"sourceId":"osm"},{"id":"osm:node:11593048097","latitude":51.7013564,"longitude":-3.0394211,"name":"Hanbury Road near St James' Field","properties":{"access":"yes","bicycle_pa":"stands","capacity":4,"covered":"yes","fee":"no","operator":"Torfaen County Borough Council","nameSource":"junction"},"sourceId":"osm"},{"id":"osm:node:724053399","latitude":51.7006497,"longitude":-3.0346551,"name":"Canolfan Byw'n Egnïol Pont-y-pŵl cycle parking","properties":{"access":"unknown","bicycle_pa":"stands","capacity":6,"covered":"no","fee":"","operator":"","nameSource":"landmark"},"sourceId":"osm"}],"schemaVersion":2}
