{"key":"12/2013/1366","points":[{"id":"osm:node:5607992577","latitude":51.2354318,"longitude":-2.9992302,"name":"Adam Street near Esplanade","properties":{"access":"unknown","bicycle_pa":"","capacity":1,"covered":"","fee":"","operator":"","nameSource":"junction"},"sourceId":"osm"},{"id":"osm:node:5700437903","latitude":51.2363546,"longitude":-2.9974568,"name":"Cross Street near High Street","properties":{"access":"unknown","bicycle_pa":"","capacity":2,"covered":"","fee":"","operator":"","nameSource":"junction"},"sourceId":"osm"},{"id":"osm:node:5700437904","latitude":51.2344351,"longitude":-2.9975641,"name":"High Street near Technical Street","properties":{"access":"unknown","bicycle_pa":"","capacity":2,"covered":"","fee":"","operator":"","nameSource":"junction"},"sourceId":"osm"},{"id":"osm:node:5700437906","latitude":51.2350917,"longitude":-2.9973951,"name":"High Street near South Street","properties":{"access":"unknown","bicycle_pa":"","capacity":2,"covered":"","fee":"","operator":"","nameSource":"junction"},"sourceId":"osm"},{"id":"osm:node:5700437909","latitude":51.2357567,"longitude":-2.9974085,"name":"Adam Street near High Street","properties":{"access":"unknown","bicycle_pa":"","capacity":2,"covered":"","fee":"","operator":"","nameSource":"junction"},"sourceId":"osm"},{"id":"osm:node:5700437914","latitude":51.2372481,"longitude":-2.9975158,"name":"Chapel Street near High Street","properties":{"access":"unknown","bicycle_pa":"","capacity":1,"covered":"","fee":"","operator":"","nameSource":"junction"},"sourceId":"osm"},{"id":"osm:node:5700437916","latitude":51.2356644,"longitude":-2.9973871,"name":"Adam Street near High Street","properties":{"access":"unknown","bicycle_pa":"","capacity":1,"covered":"","fee":"","operator":"","nameSource":"junction"},"sourceId":"osm"},{"id":"osm:node:5700437917","latitude":51.2345308,"longitude":-2.9975373,"name":"High Street near Technical Street","properties":{"access":"unknown","bicycle_pa":"","capacity":2,"covered":"","fee":"","operator":"","nameSource":"junction"},"sourceId":"osm"}],"schemaVersion":2}
