{"key":"12/2033/1320","points":[{"id":"osm:node:10016435473","latitude":53.7444313,"longitude":-1.3172039,"name":"Newton Lane cycle parking","properties":{"access":"unknown","bicycle_pa":"","capacity":0,"covered":"","fee":"","operator":"","nameSource":"street"},"sourceId":"osm"},{"id":"osm:node:11040594041","latitude":53.7082896,"longitude":-1.2566831,"name":"The Arcade by Your Store","properties":{"access":"unknown","bicycle_pa":"stands","capacity":6,"covered":"no","fee":"","operator":"","nameSource":"landmark"},"sourceId":"osm"},{"id":"osm:node:2689724093","latitude":53.7237105,"longitude":-1.3159078,"name":"Fryston Road near Queen's Park Drive","properties":{"access":"unknown","bicycle_pa":"stands","capacity":8,"covered":"no","fee":"","operator":"","nameSource":"junction"},"sourceId":"osm"},{"id":"osm:node:8297121400","latitude":53.7270629,"longitude":-1.315422,"name":"Stansfield Drive by Fairburn View Primary School","properties":{"access":"unknown","bicycle_pa":"stands","capacity":0,"covered":"","fee":"","operator":"","nameSource":"landmark"},"sourceId":"osm"},{"id":"osm:node:8705151937","latitude":53.713951,"longitude":-1.2688272,"name":"Ferrybridge Community Centre","properties":{"access":"customers","bicycle_pa":"stands","capacity":0,"covered":"yes","fee":"no","operator":"Ferrybridge Community Centre","nameSource":"source"},"sourceId":"osm"},{"id":"osm:way:860566517","latitude":53.70115474000001,"longitude":-1.2882307599999998,"name":"Stumpcross Lane near Sowgate Lane","properties":{"access":"unknown","bicycle_pa":"stands","capacity":5,"covered":"yes","fee":"","operator":"WYFRS","nameSource":"junction"},"sourceId":"osm"},{"id":"osm:way:863230633","latitude":53.69857003333333,"longitude":-1.3039971333333333,"name":"Monkhill Lane by Amazon Hub Locker","properties":{"access":"yes","bicycle_pa":"stands","capacity":6,"covered":"yes","fee":"no","operator":"","nameSource":"landmark"},"sourceId":"osm"},{"id":"osm:way:892721379","latitude":53.726933700000004,"longitude":-1.3156226,"name":"Stansfield Drive by Fairburn View Primary School","properties":{"access":"unknown","bicycle_pa":"stands","capacity":0,"covered":"","fee":"","operator":"","nameSource":"landmark"},"sourceId":"osm"}],"schemaVersion":2}
