{"key":"12/2033/1321","points":[{"id":"osm:node:10570897045","latitude":53.6929499,"longitude":-1.2895828,"name":"Cobblers Lane cycle parking","properties":{"access":"unknown","bicycle_pa":"stands","capacity":5,"covered":"yes","fee":"","operator":"","nameSource":"street"},"sourceId":"osm"},{"id":"osm:node:7693718717","latitude":53.6918869,"longitude":-1.3135493,"name":"Jackson's Court near Cornmarket","properties":{"access":"unknown","bicycle_pa":"stands","capacity":3,"covered":"no","fee":"","operator":"","nameSource":"junction"},"sourceId":"osm"},{"id":"osm:node:8281262734","latitude":53.695256,"longitude":-1.3070446,"name":"The Maltings near Back Northgate","properties":{"access":"unknown","bicycle_pa":"stands","capacity":4,"covered":"no","fee":"","operator":"","nameSource":"junction"},"sourceId":"osm"},{"id":"osm:node:8401576629","latitude":53.6923969,"longitude":-1.3124718,"name":"Headlands Road near Salter Row","properties":{"access":"private","bicycle_pa":"stands","capacity":6,"covered":"yes","fee":"","operator":"","nameSource":"junction"},"sourceId":"osm"},{"id":"osm:node:8604724196","latitude":53.6922377,"longitude":-1.3096352,"name":"Bridge Street near Baxtergate","properties":{"access":"yes","bicycle_pa":"stands","capacity":4,"covered":"no","fee":"no","operator":"","nameSource":"junction"},"sourceId":"osm"},{"id":"osm:node:8784853524","latitude":53.6915689,"longitude":-1.3090104,"name":"Gillygate near Southgate","properties":{"access":"yes","bicycle_pa":"informal","capacity":2,"covered":"no","fee":"no","operator":"Cycling Wakefield","nameSource":"junction"},"sourceId":"osm"},{"id":"osm:node:8784853528","latitude":53.6916786,"longitude":-1.309256,"name":"Gillygate near Southgate","properties":{"access":"yes","bicycle_pa":"informal","capacity":2,"covered":"no","fee":"no","operator":"Cycling Wakefield","nameSource":"junction"},"sourceId":"osm"},{"id":"osm:node:8930104703","latitude":53.6844828,"longitude":-1.3028698,"name":"Monument Lane near Churchbalk Lane","properties":{"access":"customers","bicycle_pa":"stands","capacity":5,"covered":"no","fee":"no","operator":"Tesco Express","nameSource":"junction"},"sourceId":"osm"},{"id":"osm:way:1011625196","latitude":53.692131014285714,"longitude":-1.2692156142857143,"name":"Grovehall Lane cycle parking","properties":{"access":"unknown","bicycle_pa":"","capacity":0,"covered":"","fee":"","operator":"","nameSource":"street"},"sourceId":"osm"},{"id":"osm:way:862442541","latitude":53.69096372,"longitude":-1.30713542,"name":"Friarwood Lane near Slutwell Lane","properties":{"access":"yes","bicycle_pa":"stands","capacity":6,"covered":"yes","fee":"no","operator":"","nameSource":"junction"},"sourceId":"osm"},{"id":"osm:way:862442542","latitude":53.690995220000005,"longitude":-1.3070848,"name":"Slutwell Lane near Friarwood Lane","properties":{"access":"yes","bicycle_pa":"stands","capacity":6,"covered":"yes","fee":"no","operator":"","nameSource":"junction"},"sourceId":"osm"},{"id":"osm:way:887603208","latitude":53.689859520000006,"longitude":-1.3081775,"name":"Friarwood Lane near Carleton Glen","properties":{"access":"yes","bicycle_pa":"stands","capacity":6,"covered":"yes","fee":"no","operator":"","nameSource":"junction"},"sourceId":"osm"},{"id":"osm:way:901067260","latitude":53.6927326,"longitude":-1.3085184,"name":"Horsefair near Trinity Street","properties":{"access":"unknown","bicycle_pa":"stands","capacity":6,"covered":"no","fee":"","operator":"Cycling Wakefield","nameSource":"junction"},"sourceId":"osm"},{"id":"osm:way:922463681","latitude":53.69387964,"longitude":-1.3116869999999998,"name":"Morrisons","properties":{"access":"customers","bicycle_pa":"stands","capacity":0,"covered":"no","fee":"no","operator":"Morrisons","nameSource":"source"},"sourceId":"osm"},{"id":"osm:way:963927849","latitude":53.692254739999996,"longitude":-1.31348298,"name":"Cornmarket near Jackson's Court","properties":{"access":"yes","bicycle_pa":"stands","capacity":5,"covered":"no","fee":"no","operator":"","nameSource":"junction"},"sourceId":"osm"},{"id":"osm:way:963927850","latitude":53.692553999999994,"longitude":-1.3128218200000001,"name":"Headlands Road by NatWest","properties":{"access":"yes","bicycle_pa":"stands","capacity":5,"covered":"no","fee":"no","operator":"","nameSource":"landmark"},"sourceId":"osm"}],"schemaVersion":2}
