{"key":"12/2033/1335","points":[{"id":"osm:node:11054838597","latitude":52.922307,"longitude":-1.2857625,"name":"Mark Street near Station Road","properties":{"access":"unknown","bicycle_pa":"stands","capacity":4,"covered":"no","fee":"","operator":"","nameSource":"junction"},"sourceId":"osm"},{"id":"osm:node:1198788231","latitude":52.9292336,"longitude":-1.2745175,"name":"Toton Lane near Eatons Road","properties":{"access":"unknown","bicycle_pa":"","capacity":6,"covered":"","fee":"","operator":"","nameSource":"junction"},"sourceId":"osm"},{"id":"osm:node:1317123772","latitude":52.9301928,"longitude":-1.2741878,"name":"Church Street near Isaac's Lane","properties":{"access":"unknown","bicycle_pa":"stands","capacity":4,"covered":"no","fee":"","operator":"","nameSource":"junction"},"sourceId":"osm"},{"id":"osm:node:13312258701","latitude":52.9405572,"longitude":-1.2468907,"name":"Moor Lane by Bramcote Hills Primary School","properties":{"access":"private","bicycle_pa":"wall_loops","capacity":0,"covered":"no","fee":"","operator":"","nameSource":"landmark"},"sourceId":"osm"},{"id":"osm:node:13808638248","latitude":52.9263617,"longitude":-1.2863251,"name":"Mornington Close cycle parking","properties":{"access":"unknown","bicycle_pa":"stands","capacity":8,"covered":"yes","fee":"","operator":"","nameSource":"street"},"sourceId":"osm"},{"id":"osm:node:13950667644","latitude":52.9264244,"longitude":-1.2798108,"name":"Derby Road near Sandiacre Road","properties":{"access":"unknown","bicycle_pa":"stands","capacity":12,"covered":"no","fee":"","operator":"","nameSource":"junction"},"sourceId":"osm"},{"id":"osm:node:1609479337","latitude":52.9460422,"longitude":-1.2322768,"name":"Bramcote Lane near Woodbank Drive","properties":{"access":"unknown","bicycle_pa":"stands","capacity":4,"covered":"no","fee":"","operator":"","nameSource":"junction"},"sourceId":"osm"},{"id":"osm:node:1609479476","latitude":52.9463872,"longitude":-1.2321451,"name":"Bramcote Lane near Woodbank Drive","properties":{"access":"unknown","bicycle_pa":"stands","capacity":2,"covered":"yes","fee":"","operator":"","nameSource":"junction"},"sourceId":"osm"},{"id":"osm:node:2185856064","latitude":52.9159407,"longitude":-1.2354747,"name":"High Road near School Lane","properties":{"access":"unknown","bicycle_pa":"stands","capacity":6,"covered":"yes","fee":"","operator":"","nameSource":"junction"},"sourceId":"osm"},{"id":"osm:node:2721261761","latitude":52.9467593,"longitude":-1.2315011,"name":"Bramcote Lane by Wollaton Dental Care","properties":{"access":"unknown","bicycle_pa":"stands","capacity":6,"covered":"no","fee":"","operator":"","nameSource":"landmark"},"sourceId":"osm"},{"id":"osm:node:2921704162","latitude":52.9130367,"longitude":-1.2312063,"name":"Chilwell School cycle parking","properties":{"access":"unknown","bicycle_pa":"wall_loops","capacity":14,"covered":"no","fee":"","operator":"","nameSource":"landmark"},"sourceId":"osm"},{"id":"osm:node:3161387353","latitude":52.9408448,"longitude":-1.2602094,"name":"Hickings Lane near Ilkeston Road","properties":{"access":"unknown","bicycle_pa":"stands","capacity":6,"covered":"no","fee":"","operator":"","nameSource":"junction"},"sourceId":"osm"},{"id":"osm:node:3350388496","latitude":52.9374238,"longitude":-1.2479619,"name":"Derby Road by Bramcote Leisure Centre","properties":{"access":"unknown","bicycle_pa":"wall_loops","capacity":9,"covered":"no","fee":"","operator":"","nameSource":"landmark"},"sourceId":"osm"},{"id":"osm:node:3427067800","latitude":52.9215698,"longitude":-1.2366134,"name":"Bramcote Lane near Sandby Court","properties":{"access":"unknown","bicycle_pa":"stands","capacity":10,"covered":"no","fee":"","operator":"","nameSource":"junction"},"sourceId":"osm"},{"id":"osm:node:3427067841","latitude":52.9227399,"longitude":-1.2310736,"name":"Cator Lane cycle parking","properties":{"access":"unknown","bicycle_pa":"stands","capacity":10,"covered":"no","fee":"","operator":"","nameSource":"street"},"sourceId":"osm"},{"id":"osm:node:3502013494","latitude":52.9194224,"longitude":-1.2519058,"name":"Eskdale Drive near Selside Court","properties":{"access":"unknown","bicycle_pa":"stands","capacity":10,"covered":"no","fee":"","operator":"","nameSource":"junction"},"sourceId":"osm"},{"id":"osm:node:3655648387","latitude":52.9411899,"longitude":-1.2576196,"name":"Coventry Lane near Longden Close","properties":{"access":"unknown","bicycle_pa":"stands","capacity":10,"covered":"no","fee":"","operator":"","nameSource":"junction"},"sourceId":"osm"},{"id":"osm:node:3712597849","latitude":52.9184349,"longitude":-1.2612675,"name":"JC Bubble Tea cycle parking","properties":{"access":"unknown","bicycle_pa":"stands","capacity":10,"covered":"no","fee":"","operator":"","nameSource":"landmark"},"sourceId":"osm"},{"id":"osm:node:5276413742","latitude":52.9293162,"longitude":-1.2749519,"name":"Derby Road near Toton Lane","properties":{"access":"unknown","bicycle_pa":"stands","capacity":4,"covered":"no","fee":"","operator":"","nameSource":"junction"},"sourceId":"osm"},{"id":"osm:node:6940316780","latitude":52.9314346,"longitude":-1.270789,"name":"Nottingham Road near Mount Street","properties":{"access":"unknown","bicycle_pa":"stands","capacity":10,"covered":"","fee":"","operator":"","nameSource":"junction"},"sourceId":"osm"},{"id":"osm:node:7737714763","latitude":52.9251939,"longitude":-1.2742082,"name":"Brookhill Street cycle parking","properties":{"access":"unknown","bicycle_pa":"stands","capacity":4,"covered":"no","fee":"","operator":"","nameSource":"street"},"sourceId":"osm"},{"id":"osm:node:7737714764","latitude":52.9252771,"longitude":-1.2738749,"name":"Brookhill Street cycle parking","properties":{"access":"unknown","bicycle_pa":"stands","capacity":2,"covered":"no","fee":"","operator":"","nameSource":"street"},"sourceId":"osm"},{"id":"osm:node:7737714767","latitude":52.9255609,"longitude":-1.2743202,"name":"Eatons Road cycle parking","properties":{"access":"unknown","bicycle_pa":"stands","capacity":4,"covered":"no","fee":"","operator":"","nameSource":"street"},"sourceId":"osm"},{"id":"osm:node:7737714768","latitude":52.9256155,"longitude":-1.2744141,"name":"Eatons Road cycle parking","properties":{"access":"unknown","bicycle_pa":"stands","capacity":4,"covered":"no","fee":"","operator":"","nameSource":"street"},"sourceId":"osm"},{"id":"osm:node:7802240449","latitude":52.9354411,"longitude":-1.2465613,"name":"Church Street near Chapel Street","properties":{"access":"unknown","bicycle_pa":"stands","capacity":8,"covered":"no","fee":"","operator":"","nameSource":"junction"},"sourceId":"osm"},{"id":"osm:node:7890773371","latitude":52.9171284,"longitude":-1.3016304,"name":"Bostocks Lane cycle parking","properties":{"access":"private","bicycle_pa":"stands","capacity":10,"covered":"no","fee":"","operator":"","nameSource":"street"},"sourceId":"osm"},{"id":"osm:node:7890773372","latitude":52.9171979,"longitude":-1.301719,"name":"Bostocks Lane cycle parking","properties":{"access":"private","bicycle_pa":"stands","capacity":10,"covered":"no","fee":"","operator":"","nameSource":"street"},"sourceId":"osm"},{"id":"osm:way:833596592","latitude":52.91812036666667,"longitude":-1.2631310333333332,"name":"Nottingham Cycle Parks - Toton Lane Park & Ride","properties":{"access":"permit","bicycle_pa":"stands","capacity":18,"covered":"yes","fee":"","operator":"Nottingham City Council","nameSource":"source"},"sourceId":"osm"}],"schemaVersion":2}
