{"key":"12/2033/1359","points":[{"id":"osm:node:10793225983","latitude":51.67254,"longitude":-1.2795934,"name":"Quakers Court cycle parking","properties":{"access":"unknown","bicycle_pa":"stands","capacity":12,"covered":"no","fee":"","operator":"","nameSource":"street"},"sourceId":"osm"},{"id":"osm:node:11104712590","latitude":51.6708115,"longitude":-1.2801736,"name":"Abbey Close near Burgess Close","properties":{"access":"unknown","bicycle_pa":"anchors","capacity":3,"covered":"no","fee":"","operator":"","nameSource":"junction"},"sourceId":"osm"},{"id":"osm:node:11104713772","latitude":51.6717469,"longitude":-1.2831617,"name":"Broad Street near Bury Street","properties":{"access":"unknown","bicycle_pa":"wall_loops","capacity":8,"covered":"no","fee":"","operator":"","nameSource":"junction"},"sourceId":"osm"},{"id":"osm:node:11104713773","latitude":51.6717816,"longitude":-1.2832649,"name":"Broad Street near Bury Street","properties":{"access":"unknown","bicycle_pa":"wall_loops","capacity":10,"covered":"no","fee":"","operator":"","nameSource":"junction"},"sourceId":"osm"},{"id":"osm:node:11104714860","latitude":51.6636169,"longitude":-1.2979589,"name":"Drayton Road near Saxton Road","properties":{"access":"unknown","bicycle_pa":"stands","capacity":6,"covered":"no","fee":"","operator":"","nameSource":"junction"},"sourceId":"osm"},{"id":"osm:node:11130702208","latitude":51.6702684,"longitude":-1.2767617,"name":"Abbey Close by Abbey Meadows Outdoor Pool","properties":{"access":"yes","bicycle_pa":"stands","capacity":40,"covered":"no","fee":"","operator":"","nameSource":"landmark"},"sourceId":"osm"},{"id":"osm:node:11465595798","latitude":51.6572253,"longitude":-1.2869413,"name":"Lambrick Way cycle parking","properties":{"access":"no","bicycle_pa":"stands","capacity":10,"covered":"no","fee":"","operator":"","nameSource":"street"},"sourceId":"osm"},{"id":"osm:node:11519240916","latitude":51.6682875,"longitude":-1.3097294,"name":"Marcham Road Interchange near Marcham Road","properties":{"access":"private","bicycle_pa":"stands","capacity":20,"covered":"yes","fee":"","operator":"","nameSource":"junction"},"sourceId":"osm"},{"id":"osm:node:11902392001","latitude":51.6181821,"longitude":-1.2628882,"name":"Mendip Heights cycle parking","properties":{"access":"private","bicycle_pa":"shed","capacity":0,"covered":"","fee":"","operator":"","nameSource":"place"},"sourceId":"osm"},{"id":"osm:node:12869327424","latitude":51.6347442,"longitude":-1.2755597,"name":"Hobbyhorse Lane by Sutton Courtenay Village Hall","properties":{"access":"unknown","bicycle_pa":"stands","capacity":12,"covered":"no","fee":"","operator":"","nameSource":"landmark"},"sourceId":"osm"},{"id":"osm:node:1287686418","latitude":51.6704362,"longitude":-1.2861868,"name":"Abingdon Baptist Church cycle racks","properties":{"access":"unknown","bicycle_pa":"","capacity":0,"covered":"","fee":"","operator":"","nameSource":"source"},"sourceId":"osm"},{"id":"osm:node:1287686693","latitude":51.6704019,"longitude":-1.2865223,"name":"Abingdon Baptist Church cycle racks","properties":{"access":"unknown","bicycle_pa":"","capacity":0,"covered":"","fee":"","operator":"","nameSource":"source"},"sourceId":"osm"},{"id":"osm:node:272035164","latitude":51.667837,"longitude":-1.3088954,"name":"Marcham Road cycle parking","properties":{"access":"unknown","bicycle_pa":"stands","capacity":6,"covered":"yes","fee":"","operator":"","nameSource":"street"},"sourceId":"osm"},{"id":"osm:node:307557951","latitude":51.6703726,"longitude":-1.2819358,"name":"Market Place near Bury Street","properties":{"access":"unknown","bicycle_pa":"stands","capacity":6,"covered":"yes","fee":"","operator":"","nameSource":"junction"},"sourceId":"osm"},{"id":"osm:node:307557956","latitude":51.6716527,"longitude":-1.2821399,"name":"Broad Street near Queen Street","properties":{"access":"unknown","bicycle_pa":"stands","capacity":8,"covered":"no","fee":"","operator":"","nameSource":"junction"},"sourceId":"osm"},{"id":"osm:node:307558043","latitude":51.6687994,"longitude":-1.2841179,"name":"Neave Mews near St Edmund's Lane","properties":{"access":"unknown","bicycle_pa":"stands","capacity":36,"covered":"no","fee":"","operator":"","nameSource":"junction"},"sourceId":"osm"},{"id":"osm:node:5056011892","latitude":51.6230515,"longitude":-1.3013785,"name":"Western Avenue cycle parking","properties":{"access":"unknown","bicycle_pa":"","capacity":0,"covered":"","fee":"","operator":"","nameSource":"street"},"sourceId":"osm"},{"id":"osm:node:5354527446","latitude":51.6218516,"longitude":-1.2949324,"name":"Park Drive cycle parking","properties":{"access":"unknown","bicycle_pa":"","capacity":0,"covered":"yes","fee":"","operator":"","nameSource":"street"},"sourceId":"osm"},{"id":"osm:node:6113222224","latitude":51.6185501,"longitude":-1.298268,"name":"Applecart cycle parking","properties":{"access":"unknown","bicycle_pa":"stands","capacity":10,"covered":"yes","fee":"","operator":"","nameSource":"landmark"},"sourceId":"osm"},{"id":"osm:node:649984465","latitude":51.6717649,"longitude":-1.2798078,"name":"Abbey Close near Burgess Close","properties":{"access":"unknown","bicycle_pa":"stands","capacity":12,"covered":"no","fee":"","operator":"","nameSource":"junction"},"sourceId":"osm"},{"id":"osm:node:6711720335","latitude":51.6234732,"longitude":-1.3021411,"name":"High Street by Apollo Pharmacy","properties":{"access":"unknown","bicycle_pa":"stands","capacity":6,"covered":"","fee":"","operator":"Milton Park","nameSource":"landmark"},"sourceId":"osm"},{"id":"osm:node:6711720336","latitude":51.621242,"longitude":-1.3030065,"name":"Potash Lane Overbridge cycle parking","properties":{"access":"unknown","bicycle_pa":"stands","capacity":10,"covered":"","fee":"","operator":"Milton Park for Taylor and Francis","nameSource":"street"},"sourceId":"osm"},{"id":"osm:node:6711720337","latitude":51.6213321,"longitude":-1.3020248,"name":"Milton Heights cycle parking","properties":{"access":"customers","bicycle_pa":"","capacity":10,"covered":"","fee":"","operator":"Milton Park","nameSource":"place"},"sourceId":"osm"},{"id":"osm:node:9795143413","latitude":51.6710531,"longitude":-1.2831916,"name":"Bath Street near Broad Street","properties":{"access":"unknown","bicycle_pa":"stands","capacity":16,"covered":"no","fee":"","operator":"","nameSource":"junction"},"sourceId":"osm"},{"id":"osm:node:9795143414","latitude":51.6711462,"longitude":-1.2832325,"name":"Bury Street near Broad Street","properties":{"access":"unknown","bicycle_pa":"stands","capacity":8,"covered":"no","fee":"","operator":"","nameSource":"junction"},"sourceId":"osm"},{"id":"osm:node:9795143415","latitude":51.670228,"longitude":-1.280162,"name":"Abbey Close near Checker Walk","properties":{"access":"unknown","bicycle_pa":"stands","capacity":12,"covered":"no","fee":"","operator":"","nameSource":"junction"},"sourceId":"osm"},{"id":"osm:node:9795143416","latitude":51.6699806,"longitude":-1.2813885,"name":"Market Place near East St Helen Street","properties":{"access":"unknown","bicycle_pa":"bollard","capacity":4,"covered":"no","fee":"","operator":"","nameSource":"junction"},"sourceId":"osm"},{"id":"osm:node:9795181922","latitude":51.6717842,"longitude":-1.2844147,"name":"Stratton Way near Bath Street","properties":{"access":"unknown","bicycle_pa":"stands","capacity":17,"covered":"no","fee":"","operator":"","nameSource":"junction"},"sourceId":"osm"},{"id":"osm:node:9795181923","latitude":51.6711808,"longitude":-1.2851389,"name":"Stratton Way near Tannery Court","properties":{"access":"unknown","bicycle_pa":"stands","capacity":10,"covered":"no","fee":"","operator":"","nameSource":"junction"},"sourceId":"osm"},{"id":"osm:node:9795195768","latitude":51.6694672,"longitude":-1.3069234,"name":"Fairacres by Subway","properties":{"access":"unknown","bicycle_pa":"stands","capacity":12,"covered":"no","fee":"","operator":"","nameSource":"landmark"},"sourceId":"osm"},{"id":"osm:node:9795206717","latitude":51.6700388,"longitude":-1.2827832,"name":"High Street near West St Helen Street","properties":{"access":"unknown","bicycle_pa":"stands","capacity":18,"covered":"no","fee":"","operator":"","nameSource":"junction"},"sourceId":"osm"},{"id":"osm:node:9795255277","latitude":51.6696197,"longitude":-1.2832056,"name":"West St Helen Street near Hive Mews","properties":{"access":"unknown","bicycle_pa":"stands","capacity":4,"covered":"yes","fee":"","operator":"","nameSource":"junction"},"sourceId":"osm"},{"id":"osm:node:9795255278","latitude":51.6690024,"longitude":-1.305017,"name":"Marcham Road by M&S Food","properties":{"access":"unknown","bicycle_pa":"stands","capacity":16,"covered":"yes","fee":"","operator":"","nameSource":"landmark"},"sourceId":"osm"},{"id":"osm:node:9795347332","latitude":51.6694338,"longitude":-1.3030071,"name":"Marcham Road cycle parking","properties":{"access":"unknown","bicycle_pa":"stands","capacity":10,"covered":"yes","fee":"","operator":"","nameSource":"street"},"sourceId":"osm"},{"id":"osm:node:9795347333","latitude":51.6694151,"longitude":-1.2895353,"name":"Ock Street near Mayott's Road","properties":{"access":"unknown","bicycle_pa":"stands","capacity":10,"covered":"no","fee":"","operator":"","nameSource":"junction"},"sourceId":"osm"},{"id":"osm:node:9796535364","latitude":51.6700857,"longitude":-1.3049322,"name":"Fairacres near Nuffield Way","properties":{"access":"unknown","bicycle_pa":"stands","capacity":28,"covered":"yes","fee":"","operator":"","nameSource":"junction"},"sourceId":"osm"},{"id":"osm:node:9796549395","latitude":51.6718864,"longitude":-1.2810282,"name":"Old Station Yard near Abbey Close","properties":{"access":"unknown","bicycle_pa":"stands","capacity":8,"covered":"no","fee":"","operator":"","nameSource":"junction"},"sourceId":"osm"},{"id":"osm:node:9796549396","latitude":51.6715674,"longitude":-1.2832594,"name":"Broad Street near Bury Street","properties":{"access":"unknown","bicycle_pa":"stands","capacity":13,"covered":"no","fee":"","operator":"","nameSource":"junction"},"sourceId":"osm"},{"id":"osm:node:9796554606","latitude":51.6712136,"longitude":-1.2805426,"name":"Abbey Close near Old Station Yard","properties":{"access":"unknown","bicycle_pa":"stands","capacity":12,"covered":"no","fee":"","operator":"","nameSource":"junction"},"sourceId":"osm"},{"id":"osm:node:9796559054","latitude":51.6716091,"longitude":-1.2845417,"name":"Stratton Way near Bath Street","properties":{"access":"unknown","bicycle_pa":"wall_loops","capacity":12,"covered":"no","fee":"","operator":"","nameSource":"junction"},"sourceId":"osm"},{"id":"osm:node:9796563699","latitude":51.6707481,"longitude":-1.2798579,"name":"Abbey Close near Checker Walk","properties":{"access":"no","bicycle_pa":"stands","capacity":24,"covered":"yes","fee":"","operator":"","nameSource":"junction"},"sourceId":"osm"},{"id":"osm:node:9796563700","latitude":51.6718468,"longitude":-1.280162,"name":"Abbey Close near Old Station Yard","properties":{"access":"unknown","bicycle_pa":"stands","capacity":12,"covered":"no","fee":"","operator":"","nameSource":"junction"},"sourceId":"osm"},{"id":"osm:node:9796573994","latitude":51.6711568,"longitude":-1.280236,"name":"Abbey Close near Burgess Close","properties":{"access":"unknown","bicycle_pa":"anchors","capacity":4,"covered":"no","fee":"","operator":"","nameSource":"junction"},"sourceId":"osm"},{"id":"osm:node:9796635336","latitude":51.6705366,"longitude":-1.3055867,"name":"Kimber Road near Nuffield Way","properties":{"access":"unknown","bicycle_pa":"","capacity":0,"covered":"","fee":"","operator":"","nameSource":"junction"},"sourceId":"osm"},{"id":"osm:node:9796643718","latitude":51.6704176,"longitude":-1.2770882,"name":"Abbey Close cycle parking","properties":{"access":"unknown","bicycle_pa":"stands","capacity":12,"covered":"no","fee":"","operator":"","nameSource":"street"},"sourceId":"osm"},{"id":"osm:node:9806806335","latitude":51.6629856,"longitude":-1.2891329,"name":"Reynolds Way near Hogarth Place","properties":{"access":"unknown","bicycle_pa":"stands","capacity":24,"covered":"no","fee":"","operator":"","nameSource":"junction"},"sourceId":"osm"},{"id":"osm:node:9808093480","latitude":51.6720409,"longitude":-1.2828693,"name":"The Charter near Stratton Way","properties":{"access":"unknown","bicycle_pa":"wall_loops","capacity":4,"covered":"no","fee":"","operator":"","nameSource":"junction"},"sourceId":"osm"},{"id":"osm:node:9808093481","latitude":51.6716808,"longitude":-1.2829053,"name":"Broad Street near Bury Street","properties":{"access":"unknown","bicycle_pa":"stands","capacity":14,"covered":"no","fee":"","operator":"","nameSource":"junction"},"sourceId":"osm"},{"id":"osm:node:9808093482","latitude":51.6716219,"longitude":-1.2834133,"name":"Broad Street near Bath Street","properties":{"access":"unknown","bicycle_pa":"stands","capacity":14,"covered":"no","fee":"","operator":"","nameSource":"junction"},"sourceId":"osm"},{"id":"osm:node:9808093483","latitude":51.6716363,"longitude":-1.283278,"name":"Broad Street near Bury Street","properties":{"access":"unknown","bicycle_pa":"stands","capacity":18,"covered":"no","fee":"","operator":"","nameSource":"junction"},"sourceId":"osm"},{"id":"osm:node:9809414574","latitude":51.6722237,"longitude":-1.2837513,"name":"Stratton Way near Bath Street","properties":{"access":"unknown","bicycle_pa":"wall_loops","capacity":15,"covered":"no","fee":"","operator":"","nameSource":"junction"},"sourceId":"osm"},{"id":"osm:node:9809414575","latitude":51.6704138,"longitude":-1.2854141,"name":"Stratton Way near Tannery Court","properties":{"access":"unknown","bicycle_pa":"wall_loops","capacity":6,"covered":"no","fee":"","operator":"","nameSource":"junction"},"sourceId":"osm"},{"id":"osm:node:9809421749","latitude":51.6700815,"longitude":-1.2992413,"name":"Marcham Road near Colwell Drive","properties":{"access":"unknown","bicycle_pa":"stands","capacity":10,"covered":"no","fee":"","operator":"","nameSource":"junction"},"sourceId":"osm"},{"id":"osm:node:9809488426","latitude":51.6671153,"longitude":-1.308751,"name":"Tesco Extra cycle parking","properties":{"access":"unknown","bicycle_pa":"stands","capacity":18,"covered":"no","fee":"","operator":"","nameSource":"landmark"},"sourceId":"osm"},{"id":"osm:node:9809488427","latitude":51.6674984,"longitude":-1.3095185,"name":"Tesco Pharmacy cycle parking","properties":{"access":"unknown","bicycle_pa":"stands","capacity":36,"covered":"no","fee":"","operator":"","nameSource":"landmark"},"sourceId":"osm"},{"id":"osm:node:9812861751","latitude":51.6663002,"longitude":-1.2980319,"name":"Suffolk Way by Loose Cannon Brewery Shop","properties":{"access":"unknown","bicycle_pa":"wall_loops","capacity":6,"covered":"no","fee":"","operator":"","nameSource":"landmark"},"sourceId":"osm"},{"id":"osm:way:1504138240","latitude":51.65409082,"longitude":-1.23644272,"name":"Station Road by Culham","properties":{"access":"yes","bicycle_pa":"stands","capacity":0,"covered":"no","fee":"no","operator":"","nameSource":"landmark"},"sourceId":"osm"},{"id":"osm:way:1504138241","latitude":51.65405878,"longitude":-1.23625016,"name":"Station Road by Culham","properties":{"access":"yes","bicycle_pa":"stands","capacity":0,"covered":"yes","fee":"no","operator":"","nameSource":"landmark"},"sourceId":"osm"},{"id":"osm:way:1537238178","latitude":51.65768988,"longitude":-1.2886343,"name":"Lambrick Way cycle parking","properties":{"access":"yes","bicycle_pa":"shed","capacity":6,"covered":"yes","fee":"no","operator":"","nameSource":"street"},"sourceId":"osm"},{"id":"osm:way:1537238179","latitude":51.65762976,"longitude":-1.29002866,"name":"Metcalfe Close near Lambrick Way","properties":{"access":"unknown","bicycle_pa":"shed","capacity":0,"covered":"no","fee":"no","operator":"Abingdon Lawn Tennis Club","nameSource":"junction"},"sourceId":"osm"},{"id":"osm:way:397675483","latitude":51.65731235999999,"longitude":-1.25697666,"name":"Thame Lane cycle parking","properties":{"access":"private","bicycle_pa":"","capacity":0,"covered":"yes","fee":"","operator":"","nameSource":"street"},"sourceId":"osm"}],"schemaVersion":2}
