{"key":"12/2033/1360","points":[{"id":"osm:node:10572855528","latitude":51.6112324,"longitude":-1.2667934,"name":"Sir Frank Williams Avenue near Dan Read Parade","properties":{"access":"yes","bicycle_pa":"stands","capacity":14,"covered":"no","fee":"no","operator":"","nameSource":"junction"},"sourceId":"osm"},{"id":"osm:node:10588991105","latitude":51.6045411,"longitude":-1.2712355,"name":"Greenwood Way near Gentian Mews","properties":{"access":"unknown","bicycle_pa":"","capacity":10,"covered":"no","fee":"","operator":"","nameSource":"junction"},"sourceId":"osm"},{"id":"osm:node:10589178205","latitude":51.6047599,"longitude":-1.271247,"name":"Gentian Mews near Greenwood Way","properties":{"access":"unknown","bicycle_pa":"stands","capacity":12,"covered":"no","fee":"","operator":"","nameSource":"junction"},"sourceId":"osm"},{"id":"osm:node:10589209417","latitude":51.6048052,"longitude":-1.2708319,"name":"Greenwood Way near Gentian Mews","properties":{"access":"unknown","bicycle_pa":"","capacity":0,"covered":"","fee":"","operator":"","nameSource":"junction"},"sourceId":"osm"},{"id":"osm:node:10589209418","latitude":51.6050456,"longitude":-1.271399,"name":"Greenwood Way near Candytuft Way","properties":{"access":"unknown","bicycle_pa":"","capacity":0,"covered":"","fee":"","operator":"","nameSource":"junction"},"sourceId":"osm"},{"id":"osm:node:10599995952","latitude":51.6062943,"longitude":-1.239945,"name":"Broadway near Station Road","properties":{"access":"unknown","bicycle_pa":"anchors","capacity":8,"covered":"no","fee":"","operator":"","nameSource":"junction"},"sourceId":"osm"},{"id":"osm:node:10599995953","latitude":51.6073811,"longitude":-1.2401198,"name":"Station Road near Orchard Street","properties":{"access":"yes","bicycle_pa":"anchors","capacity":8,"covered":"no","fee":"","operator":"","nameSource":"junction"},"sourceId":"osm"},{"id":"osm:node:10599995954","latitude":51.6063554,"longitude":-1.2396659,"name":"Broadway near Station Road","properties":{"access":"unknown","bicycle_pa":"anchors","capacity":8,"covered":"no","fee":"","operator":"","nameSource":"junction"},"sourceId":"osm"},{"id":"osm:node:10779909139","latitude":51.6065472,"longitude":-1.24817,"name":"Britwell Road near Broadway","properties":{"access":"unknown","bicycle_pa":"","capacity":0,"covered":"","fee":"","operator":"","nameSource":"junction"},"sourceId":"osm"},{"id":"osm:node:11745778510","latitude":51.604686,"longitude":-1.2719658,"name":"Bike","properties":{"access":"unknown","bicycle_pa":"safe_loops","capacity":12,"covered":"no","fee":"yes","operator":"","nameSource":"source"},"sourceId":"osm"},{"id":"osm:node:11756836398","latitude":51.5824887,"longitude":-1.3075829,"name":"Second Street by Sole Luna","properties":{"access":"unknown","bicycle_pa":"rack","capacity":10,"covered":"yes","fee":"","operator":"","nameSource":"landmark"},"sourceId":"osm"},{"id":"osm:node:11817109612","latitude":51.5717581,"longitude":-1.3136896,"name":"Road Fourteen by RAL Recreational Society","properties":{"access":"customers","bicycle_pa":"shed","capacity":10,"covered":"yes","fee":"no","operator":"","nameSource":"landmark"},"sourceId":"osm"},{"id":"osm:node:11860862271","latitude":51.5835165,"longitude":-1.3095292,"name":"Curie Avenue by Morrisons Daily","properties":{"access":"unknown","bicycle_pa":"stands","capacity":4,"covered":"no","fee":"","operator":"","nameSource":"landmark"},"sourceId":"osm"},{"id":"osm:node:12980249589","latitude":51.6144669,"longitude":-1.2403959,"name":"Tyne Avenue by Loop Meadow Stadium","properties":{"access":"unknown","bicycle_pa":"stands","capacity":4,"covered":"no","fee":"no","operator":"","nameSource":"landmark"},"sourceId":"osm"},{"id":"osm:node:12980249590","latitude":51.6144717,"longitude":-1.241812,"name":"Bowmont Water by Willowbrook Leisure Centre","properties":{"access":"unknown","bicycle_pa":"wall_loops","capacity":10,"covered":"no","fee":"no","operator":"","nameSource":"landmark"},"sourceId":"osm"},{"id":"osm:node:13328194228","latitude":51.5731782,"longitude":-1.3134684,"name":"Road Thirteen near Road Nineteen","properties":{"access":"unknown","bicycle_pa":"stands","capacity":6,"covered":"yes","fee":"","operator":"","nameSource":"junction"},"sourceId":"osm"},{"id":"osm:node:13328194229","latitude":51.5733514,"longitude":-1.3147091,"name":"Road Four near Road Six","properties":{"access":"unknown","bicycle_pa":"stands","capacity":8,"covered":"no","fee":"","operator":"","nameSource":"junction"},"sourceId":"osm"},{"id":"osm:node:13328197684","latitude":51.5732176,"longitude":-1.3134875,"name":"Road Thirteen near Road Nineteen","properties":{"access":"unknown","bicycle_pa":"stands","capacity":8,"covered":"yes","fee":"","operator":"","nameSource":"junction"},"sourceId":"osm"},{"id":"osm:node:13328199003","latitude":51.5735673,"longitude":-1.3168158,"name":"Road Twelve near Road Four","properties":{"access":"unknown","bicycle_pa":"","capacity":0,"covered":"","fee":"","operator":"","nameSource":"junction"},"sourceId":"osm"},{"id":"osm:node:13383190132","latitude":51.5745343,"longitude":-1.3147758,"name":"Fermi Avenue by Rutherford Appleton Laboratory","properties":{"access":"unknown","bicycle_pa":"stands","capacity":4,"covered":"","fee":"","operator":"","nameSource":"landmark"},"sourceId":"osm"},{"id":"osm:node:13383190134","latitude":51.5737665,"longitude":-1.3156766,"name":"Road Four near Road Twelve","properties":{"access":"destination","bicycle_pa":"building","capacity":8,"covered":"yes","fee":"","operator":"","nameSource":"junction"},"sourceId":"osm"},{"id":"osm:node:2969859842","latitude":51.6115109,"longitude":-1.2443769,"name":"Station Road near Cronshaw Close","properties":{"access":"unknown","bicycle_pa":"shed","capacity":100,"covered":"yes","fee":"","operator":"","nameSource":"junction"},"sourceId":"osm"},{"id":"osm:node:5003008352","latitude":51.6113588,"longitude":-1.2438711,"name":"Haydon Road near Station Road","properties":{"access":"yes","bicycle_pa":"shed","capacity":0,"covered":"yes","fee":"no","operator":"","nameSource":"junction"},"sourceId":"osm"},{"id":"osm:node:6113035765","latitude":51.6072664,"longitude":-1.2378796,"name":"Orchard Street by Robert Dyas","properties":{"access":"unknown","bicycle_pa":"stands","capacity":14,"covered":"","fee":"","operator":"","nameSource":"landmark"},"sourceId":"osm"},{"id":"osm:node:7020926336","latitude":51.608218,"longitude":-1.2362731,"name":"Central Drive near Hitchcock Way","properties":{"access":"unknown","bicycle_pa":"","capacity":0,"covered":"yes","fee":"","operator":"","nameSource":"junction"},"sourceId":"osm"},{"id":"osm:node:8289062204","latitude":51.6046375,"longitude":-1.2717296,"name":"Greenwood Way near Gentian Mews","properties":{"access":"yes","bicycle_pa":"stands","capacity":12,"covered":"yes","fee":"00:00","operator":"","nameSource":"junction"},"sourceId":"osm"},{"id":"osm:node:8653281927","latitude":51.6065606,"longitude":-1.2372112,"name":"Broadway near High Street","properties":{"access":"unknown","bicycle_pa":"","capacity":0,"covered":"","fee":"","operator":"","nameSource":"junction"},"sourceId":"osm"},{"id":"osm:node:8703160097","latitude":51.6098171,"longitude":-1.2644202,"name":"Juniper Way near Blackthorn Road","properties":{"access":"unknown","bicycle_pa":"","capacity":0,"covered":"","fee":"","operator":"","nameSource":"junction"},"sourceId":"osm"},{"id":"osm:node:8703160098","latitude":51.6092603,"longitude":-1.2651826,"name":"Yew Tree Crescent cycle parking","properties":{"access":"unknown","bicycle_pa":"","capacity":0,"covered":"","fee":"","operator":"","nameSource":"street"},"sourceId":"osm"},{"id":"osm:node:8731125707","latitude":51.5782076,"longitude":-1.2613185,"name":"Station Road near Fieldside","properties":{"access":"unknown","bicycle_pa":"building","capacity":0,"covered":"","fee":"","operator":"","nameSource":"junction"},"sourceId":"osm"},{"id":"osm:node:9024710516","latitude":51.6090821,"longitude":-1.2712363,"name":"Greenwood Way cycle parking","properties":{"access":"unknown","bicycle_pa":"","capacity":0,"covered":"no","fee":"","operator":"","nameSource":"street"},"sourceId":"osm"},{"id":"osm:way:1240754497","latitude":51.61119936,"longitude":-1.2441963999999999,"name":"Didcot Parkway Cycle Hub","properties":{"access":"unknown","bicycle_pa":"building","capacity":600,"covered":"yes","fee":"","operator":"","nameSource":"source"},"sourceId":"osm"},{"id":"osm:way:1274724194","latitude":51.580460300000006,"longitude":-1.3075404000000002,"name":"Rutherford Avenue near First Street","properties":{"access":"unknown","bicycle_pa":"two-tier","capacity":36,"covered":"yes","fee":"","operator":"","nameSource":"junction"},"sourceId":"osm"},{"id":"osm:way:1275813498","latitude":51.579441800000005,"longitude":-1.3083907199999998,"name":"Becquerel Avenue cycle parking","properties":{"access":"unknown","bicycle_pa":"stands","capacity":16,"covered":"yes","fee":"","operator":"","nameSource":"street"},"sourceId":"osm"},{"id":"osm:way:1275813499","latitude":51.5795345,"longitude":-1.30838928,"name":"Becquerel Avenue cycle parking","properties":{"access":"unknown","bicycle_pa":"stands","capacity":16,"covered":"yes","fee":"","operator":"","nameSource":"street"},"sourceId":"osm"},{"id":"osm:way:1275877833","latitude":51.57618326000001,"longitude":-1.31137854,"name":"Fermi Avenue cycle parking","properties":{"access":"unknown","bicycle_pa":"stands","capacity":18,"covered":"yes","fee":"","operator":"","nameSource":"street"},"sourceId":"osm"},{"id":"osm:way:1276253374","latitude":51.57609344,"longitude":-1.31239726,"name":"Fermi Avenue cycle parking","properties":{"access":"unknown","bicycle_pa":"stands","capacity":20,"covered":"yes","fee":"","operator":"","nameSource":"street"},"sourceId":"osm"},{"id":"osm:way:1276589182","latitude":51.57684689999999,"longitude":-1.30962975,"name":"Eighth Street cycle parking","properties":{"access":"unknown","bicycle_pa":"stands","capacity":15,"covered":"yes","fee":"","operator":"","nameSource":"street"},"sourceId":"osm"},{"id":"osm:way:1277850477","latitude":51.57310725999999,"longitude":-1.3144338599999998,"name":"Road Six near Road Thirteen","properties":{"access":"private","bicycle_pa":"shed","capacity":0,"covered":"yes","fee":"","operator":"","nameSource":"junction"},"sourceId":"osm"},{"id":"osm:way:69892519","latitude":51.577074059999994,"longitude":-1.3106559399999997,"name":"Library Avenue cycle parking","properties":{"access":"private","bicycle_pa":"","capacity":6,"covered":"no","fee":"","operator":"JANET (UK)","nameSource":"street"},"sourceId":"osm"},{"id":"osm:way:739118228","latitude":51.572613579999995,"longitude":-1.31635898,"name":"Road One cycle parking","properties":{"access":"private","bicycle_pa":"shed","capacity":0,"covered":"yes","fee":"no","operator":"","nameSource":"street"},"sourceId":"osm"},{"id":"osm:way:988957220","latitude":51.61586817999999,"longitude":-1.2411234,"name":"Avon Way near Tyne Avenue","properties":{"access":"private","bicycle_pa":"","capacity":0,"covered":"","fee":"","operator":"","nameSource":"junction"},"sourceId":"osm"},{"id":"osm:way:988957221","latitude":51.615826240000004,"longitude":-1.24116686,"name":"Avon Way near Tyne Avenue","properties":{"access":"private","bicycle_pa":"","capacity":0,"covered":"","fee":"","operator":"","nameSource":"junction"},"sourceId":"osm"},{"id":"osm:way:988957227","latitude":51.61597153333333,"longitude":-1.2407293166666666,"name":"Avon Way cycle parking","properties":{"access":"private","bicycle_pa":"","capacity":0,"covered":"","fee":"","operator":"","nameSource":"street"},"sourceId":"osm"}],"schemaVersion":2}
