{"key":"12/2033/1376","points":[{"id":"osm:node:10707359024","latitude":50.7007766,"longitude":-1.2927428,"name":"Quay Street near Watchbell Lane","properties":{"access":"yes","bicycle_pa":"","capacity":18,"covered":"no","fee":"no","operator":"","nameSource":"junction"},"sourceId":"osm"},{"id":"osm:node:12412138625","latitude":50.6990191,"longitude":-1.2964035,"name":"Castlehold Lane near Pyle Street","properties":{"access":"unknown","bicycle_pa":"stands","capacity":2,"covered":"no","fee":"","operator":"","nameSource":"junction"},"sourceId":"osm"},{"id":"osm:node:12887762000","latitude":50.7129648,"longitude":-1.2961095,"name":"Dodnor Lane cycle parking","properties":{"access":"private","bicycle_pa":"","capacity":0,"covered":"yes","fee":"","operator":"","nameSource":"street"},"sourceId":"osm"},{"id":"osm:node:12887763552","latitude":50.7130172,"longitude":-1.2958257,"name":"The Courtyard cycle parking","properties":{"access":"yes","bicycle_pa":"stands","capacity":0,"covered":"no","fee":"","operator":"","nameSource":"street"},"sourceId":"osm"},{"id":"osm:node:13096840651","latitude":50.69904,"longitude":-1.2897697,"name":"South Street near Furrlongs","properties":{"access":"unknown","bicycle_pa":"stands","capacity":8,"covered":"no","fee":"","operator":"","nameSource":"junction"},"sourceId":"osm"},{"id":"osm:node:13096848560","latitude":50.6980954,"longitude":-1.2937105,"name":"Orchard Street near South Street","properties":{"access":"unknown","bicycle_pa":"stands","capacity":4,"covered":"no","fee":"","operator":"","nameSource":"junction"},"sourceId":"osm"},{"id":"osm:node:13509925889","latitude":50.7079945,"longitude":-1.2980349,"name":"Parkhurst Road by B&Q","properties":{"access":"unknown","bicycle_pa":"","capacity":1,"covered":"","fee":"","operator":"","nameSource":"landmark"},"sourceId":"osm"},{"id":"osm:node:13509925890","latitude":50.6968752,"longitude":-1.2891246,"name":"St Georges Way near A3020","properties":{"access":"unknown","bicycle_pa":"","capacity":2,"covered":"","fee":"","operator":"","nameSource":"junction"},"sourceId":"osm"},{"id":"osm:node:13955681098","latitude":50.6976252,"longitude":-1.2951196,"name":"St James' Street near Orchard Street","properties":{"access":"unknown","bicycle_pa":"","capacity":2,"covered":"","fee":"","operator":"","nameSource":"junction"},"sourceId":"osm"},{"id":"osm:node:13955694202","latitude":50.6998167,"longitude":-1.2942467,"name":"High Street near Holyrood Street","properties":{"access":"unknown","bicycle_pa":"","capacity":2,"covered":"","fee":"","operator":"","nameSource":"junction"},"sourceId":"osm"},{"id":"osm:node:13972960525","latitude":50.7008391,"longitude":-1.2951343,"name":"Chain Lane near Lugley Street","properties":{"access":"unknown","bicycle_pa":"","capacity":0,"covered":"","fee":"","operator":"","nameSource":"junction"},"sourceId":"osm"},{"id":"osm:node:13972960593","latitude":50.7020257,"longitude":-1.293759,"name":"Holyrood Street near Sea Street","properties":{"access":"unknown","bicycle_pa":"","capacity":2,"covered":"","fee":"","operator":"","nameSource":"junction"},"sourceId":"osm"},{"id":"osm:node:2370539740","latitude":50.6988415,"longitude":-1.2898849,"name":"Furrlongs near South Street","properties":{"access":"unknown","bicycle_pa":"stands","capacity":12,"covered":"no","fee":"","operator":"","nameSource":"junction"},"sourceId":"osm"},{"id":"osm:node:2375419808","latitude":50.6985678,"longitude":-1.2925656,"name":"South Street near Church Litten","properties":{"access":"unknown","bicycle_pa":"stands","capacity":10,"covered":"no","fee":"","operator":"","nameSource":"junction"},"sourceId":"osm"},{"id":"osm:node:2375421667","latitude":50.6986292,"longitude":-1.295154,"name":"St James' Street near Scarrots Lane","properties":{"access":"unknown","bicycle_pa":"stands","capacity":4,"covered":"no","fee":"","operator":"","nameSource":"junction"},"sourceId":"osm"},{"id":"osm:node:2375425217","latitude":50.6993866,"longitude":-1.2952287,"name":"St James' Square by Nationwide","properties":{"access":"unknown","bicycle_pa":"stands","capacity":8,"covered":"no","fee":"","operator":"","nameSource":"landmark"},"sourceId":"osm"},{"id":"osm:node:2375425970","latitude":50.6996393,"longitude":-1.295383,"name":"St James' Street near High Street","properties":{"access":"unknown","bicycle_pa":"stands","capacity":2,"covered":"no","fee":"","operator":"","nameSource":"junction"},"sourceId":"osm"},{"id":"osm:node:2375427998","latitude":50.7002116,"longitude":-1.2937974,"name":"High Street near Holyrood Street","properties":{"access":"yes","bicycle_pa":"stands","capacity":4,"covered":"no","fee":"no","operator":"","nameSource":"junction"},"sourceId":"osm"},{"id":"osm:node:2375429631","latitude":50.7016961,"longitude":-1.2925347,"name":"Sea Street near Little London","properties":{"access":"unknown","bicycle_pa":"stands","capacity":12,"covered":"no","fee":"","operator":"","nameSource":"junction"},"sourceId":"osm"},{"id":"osm:node:2375431496","latitude":50.7031818,"longitude":-1.2928723,"name":"Medina Way by Carphone Warehouse","properties":{"access":"unknown","bicycle_pa":"stands","capacity":10,"covered":"no","fee":"","operator":"","nameSource":"landmark"},"sourceId":"osm"},{"id":"osm:node:2375431497","latitude":50.7041453,"longitude":-1.293311,"name":"River Way by The Food Warehouse","properties":{"access":"unknown","bicycle_pa":"stands","capacity":12,"covered":"no","fee":"","operator":"","nameSource":"landmark"},"sourceId":"osm"},{"id":"osm:node:2375437449","latitude":50.699295,"longitude":-1.2978134,"name":"High Street near Mill Street","properties":{"access":"unknown","bicycle_pa":"stands","capacity":6,"covered":"no","fee":"","operator":"","nameSource":"junction"},"sourceId":"osm"},{"id":"osm:node:2375438540","latitude":50.6995862,"longitude":-1.2938975,"name":"Pyle Street near Town Lane","properties":{"access":"unknown","bicycle_pa":"stands","capacity":8,"covered":"no","fee":"","operator":"","nameSource":"junction"},"sourceId":"osm"},{"id":"osm:node:2375492790","latitude":50.697324,"longitude":-1.2921393,"name":"Church Litten by Marks & Spencer","properties":{"access":"unknown","bicycle_pa":"stands","capacity":12,"covered":"no","fee":"","operator":"","nameSource":"landmark"},"sourceId":"osm"},{"id":"osm:node:2794393358","latitude":50.6979264,"longitude":-1.2941727,"name":"Bowling Green Lane by Strings","properties":{"access":"unknown","bicycle_pa":"stands","capacity":36,"covered":"no","fee":"","operator":"","nameSource":"landmark"},"sourceId":"osm"},{"id":"osm:node:2966699916","latitude":50.7106745,"longitude":-1.3021516,"name":"Parkhurst Road cycle parking","properties":{"access":"unknown","bicycle_pa":"rack","capacity":10,"covered":"yes","fee":"","operator":"","nameSource":"street"},"sourceId":"osm"},{"id":"osm:node:4562352274","latitude":50.6973957,"longitude":-1.2949765,"name":"Orchard Street near St James' Street","properties":{"access":"unknown","bicycle_pa":"stands","capacity":2,"covered":"no","fee":"","operator":"","nameSource":"junction"},"sourceId":"osm"},{"id":"osm:node:7994504012","latitude":50.7110568,"longitude":-1.2948372,"name":"Daish Way near Barry Way","properties":{"access":"unknown","bicycle_pa":"stands","capacity":4,"covered":"no","fee":"","operator":"","nameSource":"junction"},"sourceId":"osm"},{"id":"osm:node:8196575161","latitude":50.7246545,"longitude":-1.2305351,"name":"Brannon Way near High Street","properties":{"access":"unknown","bicycle_pa":"stands","capacity":6,"covered":"no","fee":"","operator":"","nameSource":"junction"},"sourceId":"osm"},{"id":"osm:node:9327881321","latitude":50.7122742,"longitude":-1.293726,"name":"The Apex by Ryan's Tyres","properties":{"access":"unknown","bicycle_pa":"","capacity":0,"covered":"yes","fee":"","operator":"","nameSource":"landmark"},"sourceId":"osm"},{"id":"osm:node:9327881322","latitude":50.7123702,"longitude":-1.2942879,"name":"The Apex near Monks Brook","properties":{"access":"unknown","bicycle_pa":"","capacity":0,"covered":"no","fee":"","operator":"","nameSource":"junction"},"sourceId":"osm"},{"id":"osm:node:9567074134","latitude":50.7021863,"longitude":-1.2905315,"name":"Medina Way by The Riverside Centre","properties":{"access":"unknown","bicycle_pa":"","capacity":4,"covered":"","fee":"","operator":"","nameSource":"landmark"},"sourceId":"osm"},{"id":"osm:node:9834671508","latitude":50.7100128,"longitude":-1.3000902,"name":"Podiatry/Chiropody cycle parking","properties":{"access":"unknown","bicycle_pa":"","capacity":0,"covered":"","fee":"","operator":"","nameSource":"landmark"},"sourceId":"osm"},{"id":"osm:node:9978462972","latitude":50.7058733,"longitude":-1.2630442,"name":"Staplers Road by Xhabu's Tea Room","properties":{"access":"customers","bicycle_pa":"","capacity":0,"covered":"","fee":"","operator":"Monkey Haven","nameSource":"landmark"},"sourceId":"osm"}],"schemaVersion":2}
