{"key":"12/2033/1377","points":[{"id":"osm:node:11224671025","latitude":50.6572805,"longitude":-1.2879901,"name":"Highwood Lane cycle parking","properties":{"access":"unknown","bicycle_pa":"","capacity":0,"covered":"","fee":"","operator":"","nameSource":"street"},"sourceId":"osm"},{"id":"osm:node:13096793421","latitude":50.6446086,"longitude":-1.2786305,"name":"Chequers Inn Road near Bagwich Lane","properties":{"access":"unknown","bicycle_pa":"wall_loops","capacity":6,"covered":"no","fee":"","operator":"","nameSource":"junction"},"sourceId":"osm"},{"id":"osm:node:252018354","latitude":50.657413,"longitude":-1.2560738,"name":"Merstone Lane near Newlands","properties":{"access":"unknown","bicycle_pa":"","capacity":0,"covered":"","fee":"","operator":"","nameSource":"junction"},"sourceId":"osm"},{"id":"osm:node:7862244290","latitude":50.6716628,"longitude":-1.2999192,"name":"Whitecroft Park near Keats Vale","properties":{"access":"unknown","bicycle_pa":"stands","capacity":0,"covered":"no","fee":"","operator":"","nameSource":"junction"},"sourceId":"osm"},{"id":"osm:node:7864187068","latitude":50.658645,"longitude":-1.2572399,"name":"Sandown to Newport Cyclepath cycle parking","properties":{"access":"unknown","bicycle_pa":"","capacity":6,"covered":"no","fee":"","operator":"","nameSource":"street"},"sourceId":"osm"},{"id":"osm:node:8168410676","latitude":50.6333233,"longitude":-1.2526251,"name":"High Street by The Old Smithy & Gardens","properties":{"access":"unknown","bicycle_pa":"","capacity":0,"covered":"","fee":"","operator":"","nameSource":"landmark"},"sourceId":"osm"},{"id":"osm:node:8168465481","latitude":50.6531721,"longitude":-1.2793487,"name":"Main Road Rookley near Dowsabel Close","properties":{"access":"unknown","bicycle_pa":"stands","capacity":3,"covered":"no","fee":"","operator":"","nameSource":"junction"},"sourceId":"osm"},{"id":"osm:node:9701153159","latitude":50.6609948,"longitude":-1.23321,"name":"Harvey Browns Food Hall cycle parking","properties":{"access":"customers","bicycle_pa":"","capacity":0,"covered":"","fee":"no","operator":"","nameSource":"landmark"},"sourceId":"osm"}],"schemaVersion":2}
