{"key":"12/2059/1349","points":[{"id":"osm:node:10940506434","latitude":52.1988319,"longitude":1.0274919,"name":"Church Road by The Crown","properties":{"access":"customers","bicycle_pa":"anchors","capacity":5,"covered":"yes","fee":"no","operator":"","nameSource":"landmark"},"sourceId":"osm"},{"id":"osm:node:11327919335","latitude":52.1844896,"longitude":1.0190839,"name":"Kestrel Drive near Kingfisher Way","properties":{"access":"customers","bicycle_pa":"stands","capacity":12,"covered":"no","fee":"no","operator":"Tesco","nameSource":"junction"},"sourceId":"osm"},{"id":"osm:node:11327919336","latitude":52.1826434,"longitude":1.0191297,"name":"A1120 by McDonald's","properties":{"access":"customers","bicycle_pa":"stands","capacity":8,"covered":"no","fee":"no","operator":"McDonald's","nameSource":"landmark"},"sourceId":"osm"},{"id":"osm:node:11327919337","latitude":52.1830644,"longitude":1.0177828,"name":"Thorney Way near Gun Cotton Way","properties":{"access":"customers","bicycle_pa":"stands","capacity":4,"covered":"no","fee":"no","operator":"Costa","nameSource":"junction"},"sourceId":"osm"},{"id":"osm:node:11327919338","latitude":52.1801872,"longitude":0.9961788,"name":"Combs Lane near Jubilee Avenue","properties":{"access":"customers","bicycle_pa":"stands","capacity":4,"covered":"no","fee":"no","operator":"Combs Ford Surgery","nameSource":"junction"},"sourceId":"osm"},{"id":"osm:node:11327919339","latitude":52.1858834,"longitude":0.9996353,"name":"Gipping Way by B&M","properties":{"access":"yes","bicycle_pa":"stands","capacity":14,"covered":"yes","fee":"no","operator":"","nameSource":"landmark"},"sourceId":"osm"},{"id":"osm:node:11327919340","latitude":52.1869704,"longitude":1.0005446,"name":"Gipping Valley River Path by Aldi","properties":{"access":"customers","bicycle_pa":"stands","capacity":18,"covered":"yes","fee":"no","operator":"Aldi","nameSource":"landmark"},"sourceId":"osm"},{"id":"osm:node:11327919341","latitude":52.1856904,"longitude":1.0017496,"name":"Iron Foundry Road near Gipping Way","properties":{"access":"unknown","bicycle_pa":"stands","capacity":0,"covered":"","fee":"no","operator":"","nameSource":"junction"},"sourceId":"osm"},{"id":"osm:node:11327919342","latitude":52.1881802,"longitude":0.9952392,"name":"Market Place near Bury Street","properties":{"access":"yes","bicycle_pa":"stands","capacity":4,"covered":"no","fee":"no","operator":"","nameSource":"junction"},"sourceId":"osm"},{"id":"osm:node:11327919343","latitude":52.1878649,"longitude":0.9974084,"name":"Milton Road North near Church Walk","properties":{"access":"yes","bicycle_pa":"stands","capacity":6,"covered":"no","fee":"no","operator":"","nameSource":"junction"},"sourceId":"osm"},{"id":"osm:node:11327919344","latitude":52.1891085,"longitude":0.9965643,"name":"Gipping Way near Stowupland Street","properties":{"access":"yes","bicycle_pa":"stands","capacity":28,"covered":"yes","fee":"no","operator":"","nameSource":"junction"},"sourceId":"osm"},{"id":"osm:node:11327919345","latitude":52.1892768,"longitude":0.9963121,"name":"Union Street West by Ela","properties":{"access":"yes","bicycle_pa":"stands","capacity":4,"covered":"no","fee":"no","operator":"","nameSource":"landmark"},"sourceId":"osm"},{"id":"osm:node:11327919346","latitude":52.1870776,"longitude":0.9926553,"name":"The Meadow cycle parking","properties":{"access":"yes","bicycle_pa":"stands","capacity":8,"covered":"no","fee":"no","operator":"","nameSource":"street"},"sourceId":"osm"},{"id":"osm:node:11327919347","latitude":52.1876246,"longitude":0.9943843,"name":"The Meadow near Crowe Street","properties":{"access":"yes","bicycle_pa":"stands","capacity":4,"covered":"no","fee":"no","operator":"","nameSource":"junction"},"sourceId":"osm"},{"id":"osm:node:12002386585","latitude":52.1986575,"longitude":0.9718166,"name":"Fuller Way near Brett Drive","properties":{"access":"unknown","bicycle_pa":"safe_loops","capacity":5,"covered":"no","fee":"no","operator":"","nameSource":"junction"},"sourceId":"osm"},{"id":"osm:node:13048662382","latitude":52.1901242,"longitude":0.9998729,"name":"Stowmarket Railway Station near Station Road East","properties":{"access":"unknown","bicycle_pa":"stands","capacity":8,"covered":"no","fee":"","operator":"","nameSource":"junction"},"sourceId":"osm"},{"id":"osm:node:2934449601","latitude":52.1900384,"longitude":1.0001814,"name":"Stowmarket Railway Station by Stowmarket","properties":{"access":"unknown","bicycle_pa":"stands","capacity":28,"covered":"yes","fee":"","operator":"","nameSource":"landmark"},"sourceId":"osm"},{"id":"osm:node:2934457001","latitude":52.1896735,"longitude":1.000579,"name":"Stowmarket Railway Station by Stowmarket","properties":{"access":"unknown","bicycle_pa":"stands","capacity":10,"covered":"no","fee":"","operator":"","nameSource":"landmark"},"sourceId":"osm"},{"id":"osm:node:8687686677","latitude":52.1876272,"longitude":0.9954791,"name":"Ipswich Street near Market Place","properties":{"access":"unknown","bicycle_pa":"stands","capacity":4,"covered":"no","fee":"","operator":"","nameSource":"junction"},"sourceId":"osm"},{"id":"osm:node:8946873062","latitude":52.1873867,"longitude":0.9937819,"name":"The Meadow by Hays Travel","properties":{"access":"unknown","bicycle_pa":"stands","capacity":6,"covered":"yes","fee":"","operator":"","nameSource":"landmark"},"sourceId":"osm"},{"id":"osm:node:8946888735","latitude":52.1801873,"longitude":0.9966519,"name":"The Square by East of England Co-op Supermarket","properties":{"access":"unknown","bicycle_pa":"stands","capacity":8,"covered":"yes","fee":"","operator":"","nameSource":"landmark"},"sourceId":"osm"},{"id":"osm:node:8946917138","latitude":52.1874253,"longitude":0.9944183,"name":"The Meadow near Crowe Street","properties":{"access":"unknown","bicycle_pa":"stands","capacity":4,"covered":"no","fee":"","operator":"","nameSource":"junction"},"sourceId":"osm"},{"id":"osm:node:8949309350","latitude":52.1852505,"longitude":0.9989467,"name":"Ipswich Street near Ipswich Road","properties":{"access":"yes","bicycle_pa":"wall_loops","capacity":7,"covered":"no","fee":"no","operator":"Mid Suffolk District Council","nameSource":"junction"},"sourceId":"osm"},{"id":"osm:node:8949341791","latitude":52.1877315,"longitude":0.9965186,"name":"Church Walk near Buttermarket","properties":{"access":"unknown","bicycle_pa":"stands","capacity":10,"covered":"no","fee":"","operator":"","nameSource":"junction"},"sourceId":"osm"},{"id":"osm:node:8951937781","latitude":52.1860707,"longitude":0.998292,"name":"Ipswich Street near Stricklands Road","properties":{"access":"unknown","bicycle_pa":"stands","capacity":10,"covered":"no","fee":"","operator":"","nameSource":"junction"},"sourceId":"osm"},{"id":"osm:way:1295023015","latitude":52.19926840000001,"longitude":1.0259537,"name":"Closure order til 2027 see History by Stowupland High School","properties":{"access":"private","bicycle_pa":"shed","capacity":0,"covered":"","fee":"","operator":"","nameSource":"landmark"},"sourceId":"osm"},{"id":"osm:way:967203026","latitude":52.189452419999995,"longitude":0.9997878199999999,"name":"Stowmarket Station parking","properties":{"access":"yes","bicycle_pa":"covered","capacity":36,"covered":"yes","fee":"","operator":"","nameSource":"source"},"sourceId":"osm"}],"schemaVersion":2}
