{"key":"12/2059/1364","points":[{"id":"osm:node:10765559306","latitude":51.3557847,"longitude":1.0246268,"name":"Oxford Street near Nelson Road","properties":{"access":"unknown","bicycle_pa":"stands","capacity":6,"covered":"no","fee":"no","operator":"","nameSource":"junction"},"sourceId":"osm"},{"id":"osm:node:10983110591","latitude":51.3577421,"longitude":1.0339215,"name":"Old Bridge Road near Seymour Avenue","properties":{"access":"yes","bicycle_pa":"stands","capacity":10,"covered":"no","fee":"no","operator":"","nameSource":"junction"},"sourceId":"osm"},{"id":"osm:node:11159146207","latitude":51.3628175,"longitude":1.0281482,"name":"Tower Parade near Cromwell Road","properties":{"access":"unknown","bicycle_pa":"stands","capacity":10,"covered":"no","fee":"","operator":"","nameSource":"junction"},"sourceId":"osm"},{"id":"osm:node:11186620834","latitude":51.3557284,"longitude":1.0303706,"name":"Stream Walk cycle parking","properties":{"access":"unknown","bicycle_pa":"","capacity":4,"covered":"no","fee":"","operator":"","nameSource":"street"},"sourceId":"osm"},{"id":"osm:node:11205122102","latitude":51.3627733,"longitude":1.0280498,"name":"Cromwell Road near Harbour Street","properties":{"access":"unknown","bicycle_pa":"stands","capacity":8,"covered":"no","fee":"","operator":"","nameSource":"junction"},"sourceId":"osm"},{"id":"osm:node:11205122103","latitude":51.3627796,"longitude":1.0281591,"name":"Tower Parade near Cromwell Road","properties":{"access":"unknown","bicycle_pa":"stands","capacity":10,"covered":"no","fee":"","operator":"","nameSource":"junction"},"sourceId":"osm"},{"id":"osm:node:11205504719","latitude":51.3599399,"longitude":1.0301077,"name":"Cromwell Road near Diamond Road","properties":{"access":"unknown","bicycle_pa":"stands","capacity":26,"covered":"no","fee":"","operator":"","nameSource":"junction"},"sourceId":"osm"},{"id":"osm:node:11205525458","latitude":51.3601786,"longitude":1.0294747,"name":"Stream Walk near Sydenham Street","properties":{"access":"unknown","bicycle_pa":"","capacity":0,"covered":"no","fee":"","operator":"","nameSource":"junction"},"sourceId":"osm"},{"id":"osm:node:11934775464","latitude":51.3627649,"longitude":1.0271968,"name":"Bexley Street near Harbour Street","properties":{"access":"unknown","bicycle_pa":"stands","capacity":4,"covered":"","fee":"","operator":"","nameSource":"junction"},"sourceId":"osm"},{"id":"osm:node:12811777325","latitude":51.3632916,"longitude":1.028432,"name":"Tower Parade cycle parking","properties":{"access":"unknown","bicycle_pa":"stands","capacity":6,"covered":"no","fee":"","operator":"","nameSource":"street"},"sourceId":"osm"},{"id":"osm:node:12811777725","latitude":51.3629139,"longitude":1.0285018,"name":"Tower Parade near Cromwell Road","properties":{"access":"unknown","bicycle_pa":"stands","capacity":10,"covered":"no","fee":"","operator":"","nameSource":"junction"},"sourceId":"osm"},{"id":"osm:node:1582881093","latitude":51.3557205,"longitude":1.0247919,"name":"Peter Steel Path by Whitstable Library","properties":{"access":"unknown","bicycle_pa":"stands","capacity":8,"covered":"no","fee":"","operator":"","nameSource":"landmark"},"sourceId":"osm"},{"id":"osm:node:1582881111","latitude":51.3557788,"longitude":1.0246737,"name":"Oxford Street near Nelson Road","properties":{"access":"unknown","bicycle_pa":"stands","capacity":6,"covered":"no","fee":"","operator":"","nameSource":"junction"},"sourceId":"osm"},{"id":"osm:node:1587262069","latitude":51.3605784,"longitude":1.0249737,"name":"Victoria Street near Harts Lane","properties":{"access":"unknown","bicycle_pa":"stands","capacity":6,"covered":"no","fee":"","operator":"","nameSource":"junction"},"sourceId":"osm"},{"id":"osm:node:1597511377","latitude":51.3648073,"longitude":1.0324696,"name":"Beach Walk by The Bubble","properties":{"access":"unknown","bicycle_pa":"stands","capacity":8,"covered":"no","fee":"","operator":"","nameSource":"landmark"},"sourceId":"osm"},{"id":"osm:node:1597512372","latitude":51.3573656,"longitude":1.0328759,"name":"Old Bridge Road near Thurston Park","properties":{"access":"unknown","bicycle_pa":"stands","capacity":11,"covered":"no","fee":"","operator":"","nameSource":"junction"},"sourceId":"osm"},{"id":"osm:node:1745747603","latitude":51.3630599,"longitude":1.0287169,"name":"Tower Parade near Lanes Walk","properties":{"access":"unknown","bicycle_pa":"stands","capacity":6,"covered":"no","fee":"","operator":"","nameSource":"junction"},"sourceId":"osm"},{"id":"osm:node:207434135","latitude":51.36487,"longitude":1.0545862,"name":"Herne Bay Road near Marine Crescent","properties":{"access":"unknown","bicycle_pa":"stands","capacity":6,"covered":"no","fee":"","operator":"","nameSource":"junction"},"sourceId":"osm"},{"id":"osm:node:332689515","latitude":51.3637073,"longitude":1.0429921,"name":"Tankerton Road near Fitzroy Road","properties":{"access":"unknown","bicycle_pa":"stands","capacity":2,"covered":"no","fee":"","operator":"","nameSource":"junction"},"sourceId":"osm"},{"id":"osm:node:332689518","latitude":51.3638081,"longitude":1.0455399,"name":"Tankerton Road near Graystone Road","properties":{"access":"unknown","bicycle_pa":"stands","capacity":4,"covered":"no","fee":"","operator":"","nameSource":"junction"},"sourceId":"osm"},{"id":"osm:node:354615819","latitude":51.3573475,"longitude":1.0335879,"name":"Old Bridge Road near Seymour Avenue","properties":{"access":"unknown","bicycle_pa":"stands","capacity":20,"covered":"no","fee":"","operator":"","nameSource":"junction"},"sourceId":"osm"},{"id":"osm:node:354615821","latitude":51.3573226,"longitude":1.0328985,"name":"Old Bridge Road near Thurston Park","properties":{"access":"yes","bicycle_pa":"lockers","capacity":6,"covered":"","fee":"no","operator":"","nameSource":"junction"},"sourceId":"osm"},{"id":"osm:node:357883741","latitude":51.3601134,"longitude":1.0232763,"name":"Cushing's Walk near Island Wall","properties":{"access":"unknown","bicycle_pa":"stands","capacity":6,"covered":"no","fee":"","operator":"","nameSource":"junction"},"sourceId":"osm"},{"id":"osm:node:357883742","latitude":51.3601175,"longitude":1.0229925,"name":"Island Wall near Cushing's Walk","properties":{"access":"unknown","bicycle_pa":"stands","capacity":2,"covered":"no","fee":"","operator":"","nameSource":"junction"},"sourceId":"osm"},{"id":"osm:node:357967812","latitude":51.3572167,"longitude":1.0244743,"name":"Middle Wall near High Street","properties":{"access":"unknown","bicycle_pa":"stands","capacity":4,"covered":"no","fee":"","operator":"","nameSource":"junction"},"sourceId":"osm"},{"id":"osm:node:357971902","latitude":51.3581805,"longitude":1.0240639,"name":"Middle Wall near Reeves Alley","properties":{"access":"unknown","bicycle_pa":"stands","capacity":3,"covered":"no","fee":"","operator":"","nameSource":"junction"},"sourceId":"osm"},{"id":"osm:node:357971966","latitude":51.3587249,"longitude":1.0252336,"name":"Gladstone Road near High Street","properties":{"access":"unknown","bicycle_pa":"stands","capacity":2,"covered":"no","fee":"","operator":"","nameSource":"junction"},"sourceId":"osm"},{"id":"osm:node:357971968","latitude":51.3585788,"longitude":1.0247588,"name":"High Street near Gladstone Road","properties":{"access":"unknown","bicycle_pa":"stands","capacity":2,"covered":"no","fee":"","operator":"","nameSource":"junction"},"sourceId":"osm"},{"id":"osm:node:358008920","latitude":51.3468571,"longitude":1.0418786,"name":"Eversleigh Rise by Krew-Edil","properties":{"access":"unknown","bicycle_pa":"front_wheel_only","capacity":9,"covered":"no","fee":"","operator":"","nameSource":"landmark"},"sourceId":"osm"},{"id":"osm:node:358017025","latitude":51.3615793,"longitude":1.0238438,"name":"Sea Wall near Brices Alley","properties":{"access":"unknown","bicycle_pa":"stands","capacity":4,"covered":"no","fee":"","operator":"","nameSource":"junction"},"sourceId":"osm"},{"id":"osm:node:358017042","latitude":51.3620792,"longitude":1.025987,"name":"Harbour Street near Sea Street","properties":{"access":"unknown","bicycle_pa":"stands","capacity":4,"covered":"no","fee":"","operator":"","nameSource":"junction"},"sourceId":"osm"},{"id":"osm:node:358021729","latitude":51.3627912,"longitude":1.0303602,"name":"Tower Parade near Lanes Walk","properties":{"access":"unknown","bicycle_pa":"front_wheel_only","capacity":8,"covered":"yes","fee":"","operator":"","nameSource":"junction"},"sourceId":"osm"},{"id":"osm:node:358024246","latitude":51.3643982,"longitude":1.0350078,"name":"Tower Hill by Whitstable Castle","properties":{"access":"unknown","bicycle_pa":"stands","capacity":8,"covered":"no","fee":"","operator":"","nameSource":"landmark"},"sourceId":"osm"},{"id":"osm:node:358024262","latitude":51.3648828,"longitude":1.0325826,"name":"Beach Walk by The Bubble","properties":{"access":"unknown","bicycle_pa":"stands","capacity":8,"covered":"no","fee":"","operator":"","nameSource":"landmark"},"sourceId":"osm"},{"id":"osm:node:358025203","latitude":51.3623823,"longitude":1.0259422,"name":"Harbour Street near Sea Street","properties":{"access":"unknown","bicycle_pa":"stands","capacity":6,"covered":"no","fee":"","operator":"","nameSource":"junction"},"sourceId":"osm"},{"id":"osm:node:358032647","latitude":51.3638312,"longitude":1.0432177,"name":"Fitzroy Road near Tankerton Road","properties":{"access":"unknown","bicycle_pa":"front_wheel_only","capacity":5,"covered":"no","fee":"","operator":"","nameSource":"junction"},"sourceId":"osm"},{"id":"osm:node:358032649","latitude":51.3638512,"longitude":1.0435709,"name":"Fitzroy Road near Tankerton Road","properties":{"access":"unknown","bicycle_pa":"stands","capacity":2,"covered":"no","fee":"","operator":"","nameSource":"junction"},"sourceId":"osm"},{"id":"osm:node:358032652","latitude":51.3636923,"longitude":1.0440112,"name":"Baddlesmere Road near Tankerton Road","properties":{"access":"unknown","bicycle_pa":"stands","capacity":4,"covered":"no","fee":"","operator":"","nameSource":"junction"},"sourceId":"osm"},{"id":"osm:node:358032654","latitude":51.3637801,"longitude":1.0450868,"name":"Tankerton Road near Baddlesmere Road","properties":{"access":"unknown","bicycle_pa":"stands","capacity":2,"covered":"no","fee":"","operator":"","nameSource":"junction"},"sourceId":"osm"},{"id":"osm:node:358036125","latitude":51.3648365,"longitude":1.0418413,"name":"Marine Parade near St. Anne's Road","properties":{"access":"unknown","bicycle_pa":"stands","capacity":10,"covered":"no","fee":"","operator":"","nameSource":"junction"},"sourceId":"osm"},{"id":"osm:node:575196083","latitude":51.3567656,"longitude":1.024363,"name":"Oxford Street near Argyle Road","properties":{"access":"unknown","bicycle_pa":"stands","capacity":4,"covered":"no","fee":"","operator":"","nameSource":"junction"},"sourceId":"osm"},{"id":"osm:node:575196092","latitude":51.3637329,"longitude":1.0306825,"name":"Tower Parade by Whitstable Leisure Centre","properties":{"access":"unknown","bicycle_pa":"stands","capacity":16,"covered":"no","fee":"","operator":"","nameSource":"landmark"},"sourceId":"osm"},{"id":"osm:node:6834319975","latitude":51.3590788,"longitude":1.0305133,"name":"Cromwell Road near Wheatley Road","properties":{"access":"unknown","bicycle_pa":"stands","capacity":6,"covered":"no","fee":"","operator":"","nameSource":"junction"},"sourceId":"osm"},{"id":"osm:node:8936202420","latitude":51.3626594,"longitude":1.0257041,"name":"Harbour Street near Sea Street","properties":{"access":"yes","bicycle_pa":"stands","capacity":6,"covered":"no","fee":"","operator":"","nameSource":"junction"},"sourceId":"osm"},{"id":"osm:node:9708634928","latitude":51.3637764,"longitude":1.0506032,"name":"Tankerton Road near Ellis Road","properties":{"access":"unknown","bicycle_pa":"wall_loops","capacity":6,"covered":"no","fee":"","operator":"","nameSource":"junction"},"sourceId":"osm"},{"id":"osm:node:9708634929","latitude":51.3637773,"longitude":1.0506662,"name":"Tankerton Road near Ellis Road","properties":{"access":"unknown","bicycle_pa":"stands","capacity":2,"covered":"no","fee":"","operator":"","nameSource":"junction"},"sourceId":"osm"},{"id":"osm:node:9708634930","latitude":51.3637764,"longitude":1.0505998,"name":"Tankerton Road near Ellis Road","properties":{"access":"unknown","bicycle_pa":"stands","capacity":1,"covered":"no","fee":"","operator":"","nameSource":"junction"},"sourceId":"osm"},{"id":"osm:node:9948822963","latitude":51.3585439,"longitude":1.0247373,"name":"High Street near Gladstone Road","properties":{"access":"unknown","bicycle_pa":"stands","capacity":2,"covered":"no","fee":"","operator":"","nameSource":"junction"},"sourceId":"osm"}],"schemaVersion":2}
