{"key":"12/2059/1366","points":[{"id":"osm:node:11111218615","latitude":51.2540164,"longitude":1.0204826,"name":"Rattington Street near Baker's Lane","properties":{"access":"unknown","bicycle_pa":"","capacity":3,"covered":"no","fee":"","operator":"","nameSource":"junction"},"sourceId":"osm"},{"id":"osm:node:11181646639","latitude":51.2561311,"longitude":1.019074,"name":"Station Road near Church Lane","properties":{"access":"unknown","bicycle_pa":"stands","capacity":4,"covered":"no","fee":"","operator":"","nameSource":"junction"},"sourceId":"osm"},{"id":"osm:node:11222078092","latitude":51.2561132,"longitude":1.0139522,"name":"Parish Road near The Green","properties":{"access":"unknown","bicycle_pa":"wall_loops","capacity":3,"covered":"yes","fee":"","operator":"","nameSource":"junction"},"sourceId":"osm"},{"id":"osm:node:11224471999","latitude":51.2511288,"longitude":1.0102785,"name":"Shalmsford Street by Chartham Primary School","properties":{"access":"unknown","bicycle_pa":"anchors","capacity":1,"covered":"no","fee":"","operator":"","nameSource":"landmark"},"sourceId":"osm"},{"id":"osm:node:11577567708","latitude":51.2445923,"longitude":0.9762549,"name":"Station Approach by Chilham","properties":{"access":"unknown","bicycle_pa":"stands","capacity":10,"covered":"yes","fee":"","operator":"","nameSource":"landmark"},"sourceId":"osm"},{"id":"osm:node:12372311654","latitude":51.289395,"longitude":0.9955542,"name":"London Road by Costa Drive Thru","properties":{"access":"unknown","bicycle_pa":"stands","capacity":10,"covered":"no","fee":"","operator":"","nameSource":"landmark"},"sourceId":"osm"},{"id":"osm:node:1824712262","latitude":51.2545784,"longitude":1.0090662,"name":"Bolts Hill near Old School Mews","properties":{"access":"unknown","bicycle_pa":"stands","capacity":4,"covered":"no","fee":"","operator":"","nameSource":"junction"},"sourceId":"osm"},{"id":"osm:node:2169037423","latitude":51.2724667,"longitude":1.0153154,"name":"Bigbury Road cycle parking","properties":{"access":"unknown","bicycle_pa":"stands","capacity":4,"covered":"no","fee":"","operator":"","nameSource":"street"},"sourceId":"osm"},{"id":"osm:node:3677903291","latitude":51.2558393,"longitude":1.0179469,"name":"Station Road near Church Lane","properties":{"access":"unknown","bicycle_pa":"stands","capacity":2,"covered":"no","fee":"","operator":"","nameSource":"junction"},"sourceId":"osm"},{"id":"osm:node:659442515","latitude":51.2560254,"longitude":1.0196652,"name":"Great Stour Way near Station Road","properties":{"access":"unknown","bicycle_pa":"wall_loops","capacity":4,"covered":"no","fee":"","operator":"","nameSource":"junction"},"sourceId":"osm"},{"id":"osm:node:659442516","latitude":51.2571283,"longitude":1.0180707,"name":"Station Road near The Green","properties":{"access":"unknown","bicycle_pa":"stands","capacity":8,"covered":"no","fee":"","operator":"","nameSource":"junction"},"sourceId":"osm"},{"id":"osm:node:659442518","latitude":51.2572707,"longitude":1.0178002,"name":"Station Road near The Green","properties":{"access":"unknown","bicycle_pa":"stands","capacity":8,"covered":"no","fee":"","operator":"","nameSource":"junction"},"sourceId":"osm"},{"id":"osm:node:945088092","latitude":51.2557359,"longitude":1.0192136,"name":"Great Stour Way near Station Road","properties":{"access":"unknown","bicycle_pa":"stands","capacity":4,"covered":"no","fee":"","operator":"","nameSource":"junction"},"sourceId":"osm"},{"id":"osm:way:996011118","latitude":51.25080756,"longitude":1.01050458,"name":"Shalmsford Street cycle parking","properties":{"access":"unknown","bicycle_pa":"stands","capacity":24,"covered":"yes","fee":"","operator":"","nameSource":"street"},"sourceId":"osm"}],"schemaVersion":2}
