{"key":"12/2042/1344","points":[{"id":"osm:node:11954416171","latitude":52.4807946,"longitude":-0.4681021,"name":"Market Place near West Street","properties":{"access":"yes","bicycle_pa":"stands","capacity":0,"covered":"no","fee":"no","operator":"","nameSource":"junction"},"sourceId":"osm"},{"id":"osm:node:11954416175","latitude":52.4811762,"longitude":-0.466837,"name":"Jericho near North Street","properties":{"access":"yes","bicycle_pa":"rack","capacity":8,"covered":"no","fee":"no","operator":"","nameSource":"junction"},"sourceId":"osm"},{"id":"osm:node:13045189861","latitude":52.480523,"longitude":-0.4662792,"name":"St Osyths Lane near Market Place","properties":{"access":"unknown","bicycle_pa":"","capacity":0,"covered":"","fee":"","operator":"","nameSource":"junction"},"sourceId":"osm"},{"id":"osm:node:7897552550","latitude":52.4738627,"longitude":-0.474835,"name":"Barnwell Road cycle parking","properties":{"access":"unknown","bicycle_pa":"stands","capacity":8,"covered":"","fee":"","operator":"","nameSource":"street"},"sourceId":"osm"},{"id":"osm:node:7924299857","latitude":52.4742578,"longitude":-0.4755554,"name":"Barnwell Road by The Kingfisher Cafe","properties":{"access":"yes","bicycle_pa":"rail","capacity":14,"covered":"no","fee":"no","operator":"","nameSource":"landmark"},"sourceId":"osm"},{"id":"osm:node:8916659322","latitude":52.4808197,"longitude":-0.4696682,"name":"West Street near Ship Lane","properties":{"access":"yes","bicycle_pa":"stands","capacity":3,"covered":"no","fee":"","operator":"","nameSource":"junction"},"sourceId":"osm"},{"id":"osm:node:8956154766","latitude":52.4809478,"longitude":-0.4670604,"name":"Market Place near St Osyths Lane","properties":{"access":"yes","bicycle_pa":"rack","capacity":8,"covered":"no","fee":"no","operator":"","nameSource":"junction"},"sourceId":"osm"}],"schemaVersion":2}
