{"key":"12/2042/1357","points":[{"id":"osm:node:1272391980","latitude":51.733287,"longitude":-0.461529,"name":"Stationers Place near London Road","properties":{"access":"unknown","bicycle_pa":"stands","capacity":24,"covered":"no","fee":"","operator":"","nameSource":"junction"},"sourceId":"osm"},{"id":"osm:node:1272395866","latitude":51.7327604,"longitude":-0.4634335,"name":"Apsley Railway Station","properties":{"access":"unknown","bicycle_pa":"stands","capacity":12,"covered":"yes","fee":"","operator":"","nameSource":"source"},"sourceId":"osm"},{"id":"osm:node:12992187632","latitude":51.7476451,"longitude":-0.4723649,"name":"Selden Hill near King Harry Street","properties":{"access":"unknown","bicycle_pa":"stands","capacity":6,"covered":"no","fee":"","operator":"","nameSource":"junction"},"sourceId":"osm"},{"id":"osm:node:1438743026","latitude":51.7512443,"longitude":-0.4726004,"name":"Marlowes near Bridge Street","properties":{"access":"unknown","bicycle_pa":"stands","capacity":10,"covered":"no","fee":"","operator":"","nameSource":"junction"},"sourceId":"osm"},{"id":"osm:node:1438744865","latitude":51.7480493,"longitude":-0.4733609,"name":"Moor End Road near Waterhouse Street","properties":{"access":"unknown","bicycle_pa":"stands","capacity":20,"covered":"no","fee":"","operator":"","nameSource":"junction"},"sourceId":"osm"},{"id":"osm:node:1438751409","latitude":51.7524937,"longitude":-0.4724434,"name":"Marlowes near Hillfield Road","properties":{"access":"unknown","bicycle_pa":"stands","capacity":10,"covered":"no","fee":"","operator":"","nameSource":"junction"},"sourceId":"osm"},{"id":"osm:node:1438754258","latitude":51.7424353,"longitude":-0.4905791,"name":"London Road by Station Cafe ( Chinese take away)","properties":{"access":"unknown","bicycle_pa":"stands","capacity":32,"covered":"yes","fee":"","operator":"","nameSource":"landmark"},"sourceId":"osm"},{"id":"osm:node:5701526337","latitude":51.7425049,"longitude":-0.4909181,"name":"London Road by Hemel Hempstead","properties":{"access":"unknown","bicycle_pa":"stands","capacity":32,"covered":"yes","fee":"","operator":"","nameSource":"landmark"},"sourceId":"osm"},{"id":"osm:node:5866464959","latitude":51.7523152,"longitude":-0.4733589,"name":"Market Square by The hop tap","properties":{"access":"unknown","bicycle_pa":"stands","capacity":4,"covered":"","fee":"","operator":"","nameSource":"landmark"},"sourceId":"osm"},{"id":"osm:node:5866464971","latitude":51.7470274,"longitude":-0.4732979,"name":"Selden Hill near The Plough Roundabout","properties":{"access":"unknown","bicycle_pa":"stands","capacity":9,"covered":"","fee":"","operator":"","nameSource":"junction"},"sourceId":"osm"},{"id":"osm:node:5866465641","latitude":51.7549864,"longitude":-0.4725704,"name":"Marlowes near Midland Road","properties":{"access":"unknown","bicycle_pa":"stands","capacity":6,"covered":"","fee":"","operator":"","nameSource":"junction"},"sourceId":"osm"},{"id":"osm:node:5866465697","latitude":51.7525141,"longitude":-0.4724148,"name":"Marlowes near Hillfield Road","properties":{"access":"unknown","bicycle_pa":"stands","capacity":5,"covered":"","fee":"","operator":"","nameSource":"junction"},"sourceId":"osm"},{"id":"osm:node:5866465704","latitude":51.7481535,"longitude":-0.4728238,"name":"Marlowes Shopping Precinct near Marlowes Shopping Centre","properties":{"access":"unknown","bicycle_pa":"stands","capacity":30,"covered":"","fee":"","operator":"","nameSource":"junction"},"sourceId":"osm"},{"id":"osm:node:5891232034","latitude":51.7608525,"longitude":-0.4729801,"name":"High Street near Cherry Bounce","properties":{"access":"unknown","bicycle_pa":"stands","capacity":3,"covered":"","fee":"","operator":"","nameSource":"junction"},"sourceId":"osm"},{"id":"osm:node:5891232333","latitude":51.759978,"longitude":-0.4726367,"name":"Chapel Street near High Street","properties":{"access":"unknown","bicycle_pa":"stands","capacity":3,"covered":"","fee":"","operator":"","nameSource":"junction"},"sourceId":"osm"},{"id":"osm:node:5891232348","latitude":51.7592826,"longitude":-0.4720731,"name":"High Street near Mulberry Court","properties":{"access":"unknown","bicycle_pa":"stands","capacity":3,"covered":"","fee":"","operator":"","nameSource":"junction"},"sourceId":"osm"}],"schemaVersion":2}
