{"key":"12/2042/1361","points":[{"id":"osm:node:10280248279","latitude":51.5427982,"longitude":-0.4729159,"name":"Hillingdon Road cycle parking","properties":{"access":"unknown","bicycle_pa":"stands","capacity":2,"covered":"","fee":"","operator":"","nameSource":"street"},"sourceId":"osm"},{"id":"osm:node:10280252470","latitude":51.544951,"longitude":-0.4767315,"name":"High Street near Vine Street","properties":{"access":"unknown","bicycle_pa":"stands","capacity":8,"covered":"","fee":"","operator":"","nameSource":"junction"},"sourceId":"osm"},{"id":"osm:node:10280252471","latitude":51.5442569,"longitude":-0.4747747,"name":"High Street by Subway","properties":{"access":"unknown","bicycle_pa":"stands","capacity":6,"covered":"","fee":"","operator":"","nameSource":"landmark"},"sourceId":"osm"},{"id":"osm:node:10280259151","latitude":51.5235049,"longitude":-0.4554133,"name":"Moorcroft Lane cycle parking","properties":{"access":"unknown","bicycle_pa":"stands","capacity":6,"covered":"","fee":"","operator":"","nameSource":"street"},"sourceId":"osm"},{"id":"osm:node:10280259364","latitude":51.515355,"longitude":-0.4743069,"name":"Falling Lane near High Street","properties":{"access":"unknown","bicycle_pa":"stands","capacity":6,"covered":"","fee":"","operator":"","nameSource":"junction"},"sourceId":"osm"},{"id":"osm:node:10280259366","latitude":51.5250487,"longitude":-0.4644679,"name":"Royal Lane cycle parking","properties":{"access":"unknown","bicycle_pa":"stands","capacity":10,"covered":"","fee":"","operator":"","nameSource":"street"},"sourceId":"osm"},{"id":"osm:node:10280259367","latitude":51.5256343,"longitude":-0.4640668,"name":"Bradshawe Waye near Royal Lane","properties":{"access":"unknown","bicycle_pa":"stands","capacity":1,"covered":"","fee":"","operator":"","nameSource":"junction"},"sourceId":"osm"},{"id":"osm:node:10280260204","latitude":51.5455418,"longitude":-0.4515773,"name":"Parkway cycle parking","properties":{"access":"unknown","bicycle_pa":"stands","capacity":4,"covered":"","fee":"","operator":"","nameSource":"street"},"sourceId":"osm"},{"id":"osm:node:10280260205","latitude":51.5304193,"longitude":-0.4816365,"name":"Cowley Road near High Street","properties":{"access":"unknown","bicycle_pa":"stands","capacity":2,"covered":"","fee":"","operator":"","nameSource":"junction"},"sourceId":"osm"},{"id":"osm:node:10280260206","latitude":51.5280826,"longitude":-0.4813718,"name":"High Street by Loco","properties":{"access":"unknown","bicycle_pa":"stands","capacity":6,"covered":"","fee":"","operator":"","nameSource":"landmark"},"sourceId":"osm"},{"id":"osm:node:10280260232","latitude":51.5262782,"longitude":-0.4620656,"name":"Crispin Way cycle parking","properties":{"access":"unknown","bicycle_pa":"upright_stands","capacity":12,"covered":"yes","fee":"","operator":"","nameSource":"street"},"sourceId":"osm"},{"id":"osm:node:10280261033","latitude":51.5228306,"longitude":-0.4604356,"name":"Violet Avenue near Heather Close","properties":{"access":"unknown","bicycle_pa":"stands","capacity":6,"covered":"","fee":"","operator":"","nameSource":"junction"},"sourceId":"osm"},{"id":"osm:node:10280261034","latitude":51.5259259,"longitude":-0.4598004,"name":"Pield Heath Road near Colham Green Road","properties":{"access":"unknown","bicycle_pa":"shed","capacity":20,"covered":"yes","fee":"","operator":"","nameSource":"junction"},"sourceId":"osm"},{"id":"osm:node:10280261708","latitude":51.542928,"longitude":-0.4814571,"name":"Cowley Road near Hinton Road","properties":{"access":"unknown","bicycle_pa":"stands","capacity":2,"covered":"","fee":"","operator":"","nameSource":"junction"},"sourceId":"osm"},{"id":"osm:node:10280261734","latitude":51.5478542,"longitude":-0.4811717,"name":"High Street by S.H. Harrold","properties":{"access":"unknown","bicycle_pa":"stands","capacity":8,"covered":"","fee":"","operator":"","nameSource":"landmark"},"sourceId":"osm"},{"id":"osm:node:10280261918","latitude":51.548786,"longitude":-0.4819176,"name":"High Street near Harefield Road","properties":{"access":"unknown","bicycle_pa":"stands","capacity":12,"covered":"no","fee":"","operator":"","nameSource":"junction"},"sourceId":"osm"},{"id":"osm:node:10280264510","latitude":51.5450014,"longitude":-0.476875,"name":"High Street near Vine Street","properties":{"access":"unknown","bicycle_pa":"stands","capacity":8,"covered":"","fee":"","operator":"","nameSource":"junction"},"sourceId":"osm"},{"id":"osm:node:10280266209","latitude":51.5447796,"longitude":-0.4778818,"name":"Vine Street near Charter Place","properties":{"access":"unknown","bicycle_pa":"stands","capacity":6,"covered":"","fee":"","operator":"","nameSource":"junction"},"sourceId":"osm"},{"id":"osm:node:10280266210","latitude":51.5449775,"longitude":-0.476805,"name":"High Street near Vine Street","properties":{"access":"unknown","bicycle_pa":"stands","capacity":8,"covered":"","fee":"","operator":"","nameSource":"junction"},"sourceId":"osm"},{"id":"osm:node:10280269964","latitude":51.5629517,"longitude":-0.4435472,"name":"Glebe Avenue near Edinburgh Drive","properties":{"access":"unknown","bicycle_pa":"stands","capacity":4,"covered":"","fee":"","operator":"","nameSource":"junction"},"sourceId":"osm"},{"id":"osm:node:10280270673","latitude":51.5520765,"longitude":-0.4490418,"name":"A437 near Freezeland Way","properties":{"access":"unknown","bicycle_pa":"stands","capacity":4,"covered":"no","fee":"","operator":"","nameSource":"junction"},"sourceId":"osm"},{"id":"osm:node:10280270674","latitude":51.5521519,"longitude":-0.4496579,"name":"Hercies Road near A437","properties":{"access":"unknown","bicycle_pa":"stands","capacity":4,"covered":"","fee":"","operator":"","nameSource":"junction"},"sourceId":"osm"},{"id":"osm:node:10280270675","latitude":51.5410825,"longitude":-0.4489641,"name":"Sutton Court Road near Festival Close","properties":{"access":"unknown","bicycle_pa":"stands","capacity":4,"covered":"","fee":"","operator":"","nameSource":"junction"},"sourceId":"osm"},{"id":"osm:node:10280270679","latitude":51.5429454,"longitude":-0.4852963,"name":"Fray's Waye cycle parking","properties":{"access":"unknown","bicycle_pa":"stands","capacity":2,"covered":"","fee":"","operator":"","nameSource":"street"},"sourceId":"osm"},{"id":"osm:node:10280272768","latitude":51.5297918,"longitude":-0.4462852,"name":"Pole Hill Road near Uxbridge Road","properties":{"access":"unknown","bicycle_pa":"stands","capacity":4,"covered":"","fee":"","operator":"","nameSource":"junction"},"sourceId":"osm"},{"id":"osm:node:10280272769","latitude":51.5292017,"longitude":-0.4457281,"name":"Uxbridge Road near Westbourne Road","properties":{"access":"unknown","bicycle_pa":"stands","capacity":4,"covered":"","fee":"","operator":"","nameSource":"junction"},"sourceId":"osm"},{"id":"osm:node:10280272770","latitude":51.5295434,"longitude":-0.4458441,"name":"Uxbridge Road near Westbourne Road","properties":{"access":"unknown","bicycle_pa":"stands","capacity":4,"covered":"","fee":"","operator":"","nameSource":"junction"},"sourceId":"osm"},{"id":"osm:node:10280285423","latitude":51.5277495,"longitude":-0.4438128,"name":"Uxbridge Road cycle parking","properties":{"access":"unknown","bicycle_pa":"stands","capacity":6,"covered":"","fee":"","operator":"","nameSource":"street"},"sourceId":"osm"},{"id":"osm:node:10280285615","latitude":51.5317623,"longitude":-0.4503259,"name":"Uxbridge Road near Denziloe Avenue","properties":{"access":"unknown","bicycle_pa":"","capacity":4,"covered":"","fee":"","operator":"","nameSource":"junction"},"sourceId":"osm"},{"id":"osm:node:10280285616","latitude":51.5301671,"longitude":-0.447858,"name":"Uxbridge Road near Lees Road","properties":{"access":"unknown","bicycle_pa":"stands","capacity":4,"covered":"","fee":"","operator":"","nameSource":"junction"},"sourceId":"osm"},{"id":"osm:node:10280287311","latitude":51.5301619,"longitude":-0.4473274,"name":"Marlborough Road near Uxbridge Road","properties":{"access":"unknown","bicycle_pa":"stands","capacity":4,"covered":"","fee":"","operator":"","nameSource":"junction"},"sourceId":"osm"},{"id":"osm:node:10280297153","latitude":51.5416299,"longitude":-0.4499309,"name":"Festival Close near Sutton Court Road","properties":{"access":"unknown","bicycle_pa":"stands","capacity":4,"covered":"","fee":"","operator":"","nameSource":"junction"},"sourceId":"osm"},{"id":"osm:node:10280297156","latitude":51.5392812,"longitude":-0.4818255,"name":"Cowley Road cycle parking","properties":{"access":"unknown","bicycle_pa":"stands","capacity":4,"covered":"","fee":"","operator":"","nameSource":"street"},"sourceId":"osm"},{"id":"osm:node:10280297157","latitude":51.5380335,"longitude":-0.4816619,"name":"Medman Close near Chiltern View Road","properties":{"access":"unknown","bicycle_pa":"stands","capacity":2,"covered":"","fee":"","operator":"","nameSource":"junction"},"sourceId":"osm"},{"id":"osm:node:10282007845","latitude":51.5180177,"longitude":-0.4642149,"name":"Royal Lane near Cherry Tree Avenue","properties":{"access":"unknown","bicycle_pa":"stands","capacity":2,"covered":"","fee":"","operator":"","nameSource":"junction"},"sourceId":"osm"},{"id":"osm:node:10282007982","latitude":51.5100514,"longitude":-0.4742669,"name":"High Street near Station Road","properties":{"access":"unknown","bicycle_pa":"stands","capacity":4,"covered":"no","fee":"","operator":"","nameSource":"junction"},"sourceId":"osm"},{"id":"osm:node:10282008004","latitude":51.5174949,"longitude":-0.4634726,"name":"Falling Lane near Royal Lane","properties":{"access":"yes","bicycle_pa":"stands","capacity":3,"covered":"no","fee":"no","operator":"","nameSource":"junction"},"sourceId":"osm"},{"id":"osm:node:10282008359","latitude":51.5268628,"longitude":-0.4821727,"name":"High Street near Clammas Way","properties":{"access":"unknown","bicycle_pa":"stands","capacity":4,"covered":"","fee":"","operator":"","nameSource":"junction"},"sourceId":"osm"},{"id":"osm:node:10282008360","latitude":51.5372903,"longitude":-0.4742923,"name":"The Greenway near Cornfield Close","properties":{"access":"unknown","bicycle_pa":"stands","capacity":2,"covered":"","fee":"","operator":"","nameSource":"junction"},"sourceId":"osm"},{"id":"osm:node:10282008831","latitude":51.5290795,"longitude":-0.4404535,"name":"Hewens Road cycle parking","properties":{"access":"unknown","bicycle_pa":"wall_loops","capacity":6,"covered":"","fee":"","operator":"","nameSource":"street"},"sourceId":"osm"},{"id":"osm:node:10282008836","latitude":51.5256187,"longitude":-0.4507229,"name":"Harlington Road by Laurel Lodge Clinic","properties":{"access":"unknown","bicycle_pa":"stands","capacity":8,"covered":"yes","fee":"","operator":"","nameSource":"landmark"},"sourceId":"osm"},{"id":"osm:node:10282009693","latitude":51.535109,"longitude":-0.4722037,"name":"Turnpike Lane cycle parking","properties":{"access":"unknown","bicycle_pa":"stands","capacity":4,"covered":"","fee":"","operator":"","nameSource":"street"},"sourceId":"osm"},{"id":"osm:node:10282009694","latitude":51.5353563,"longitude":-0.4605268,"name":"Uxbridge Road near Royal Lane","properties":{"access":"unknown","bicycle_pa":"stands","capacity":4,"covered":"","fee":"","operator":"","nameSource":"junction"},"sourceId":"osm"},{"id":"osm:node:10282009703","latitude":51.5329996,"longitude":-0.4529728,"name":"Crescent Parade near Uxbridge Road","properties":{"access":"unknown","bicycle_pa":"stands","capacity":2,"covered":"","fee":"","operator":"","nameSource":"junction"},"sourceId":"osm"},{"id":"osm:node:10282010466","latitude":51.5333142,"longitude":-0.4537378,"name":"Crescent Parade near Uxbridge Road","properties":{"access":"unknown","bicycle_pa":"stands","capacity":2,"covered":"","fee":"","operator":"","nameSource":"junction"},"sourceId":"osm"},{"id":"osm:node:10282010476","latitude":51.522069,"longitude":-0.4462649,"name":"Harlington Road near Craig Drive","properties":{"access":"unknown","bicycle_pa":"stands","capacity":4,"covered":"","fee":"","operator":"","nameSource":"junction"},"sourceId":"osm"},{"id":"osm:node:10282013844","latitude":51.5282587,"longitude":-0.4396672,"name":"Hewens Road by De Salis Studio College","properties":{"access":"unknown","bicycle_pa":"stands","capacity":26,"covered":"yes","fee":"","operator":"","nameSource":"landmark"},"sourceId":"osm"},{"id":"osm:node:10282015749","latitude":51.5444016,"longitude":-0.4396734,"name":"Berkeley Road near Ryefield Avenue","properties":{"access":"unknown","bicycle_pa":"stands","capacity":6,"covered":"","fee":"","operator":"","nameSource":"junction"},"sourceId":"osm"},{"id":"osm:node:10282027026","latitude":51.5528233,"longitude":-0.4673685,"name":"Uxbridge cycle parking","properties":{"access":"unknown","bicycle_pa":"stands","capacity":64,"covered":"","fee":"","operator":"","nameSource":"place"},"sourceId":"osm"},{"id":"osm:node:10282027031","latitude":51.5223799,"longitude":-0.4812212,"name":"High Road near Sefton Way","properties":{"access":"unknown","bicycle_pa":"stands","capacity":6,"covered":"","fee":"","operator":"","nameSource":"junction"},"sourceId":"osm"},{"id":"osm:node:11169984721","latitude":51.5134296,"longitude":-0.4723955,"name":"Y29 by Savers","properties":{"access":"unknown","bicycle_pa":"stands","capacity":4,"covered":"no","fee":"","operator":"","nameSource":"landmark"},"sourceId":"osm"},{"id":"osm:node:1145260593","latitude":51.5122898,"longitude":-0.4729221,"name":"New Parade near High Street","properties":{"access":"unknown","bicycle_pa":"","capacity":8,"covered":"no","fee":"","operator":"","nameSource":"junction"},"sourceId":"osm"},{"id":"osm:node:1145260605","latitude":51.5102733,"longitude":-0.4728182,"name":"Station Approach by West Drayton Grocers","properties":{"access":"unknown","bicycle_pa":"","capacity":12,"covered":"no","fee":"","operator":"","nameSource":"landmark"},"sourceId":"osm"},{"id":"osm:node:11816964010","latitude":51.5414478,"longitude":-0.4676745,"name":"Tangmere Crescent near Kenley Place","properties":{"access":"unknown","bicycle_pa":"","capacity":0,"covered":"","fee":"","operator":"","nameSource":"junction"},"sourceId":"osm"},{"id":"osm:node:11880564420","latitude":51.5089352,"longitude":-0.4521368,"name":"Iron Bridge Road cycle parking","properties":{"access":"private","bicycle_pa":"shed","capacity":0,"covered":"yes","fee":"","operator":"","nameSource":"street"},"sourceId":"osm"},{"id":"osm:node:11880564435","latitude":51.5110818,"longitude":-0.4506015,"name":"Stockley Park Roundabout cycle parking","properties":{"access":"private","bicycle_pa":"shed","capacity":0,"covered":"yes","fee":"","operator":"","nameSource":"street"},"sourceId":"osm"},{"id":"osm:node:1224759149","latitude":51.5507396,"longitude":-0.4485808,"name":"Granville Road near Long Lane","properties":{"access":"unknown","bicycle_pa":"Hoops","capacity":4,"covered":"no","fee":"no","operator":"","nameSource":"junction"},"sourceId":"osm"},{"id":"osm:node:1224759150","latitude":51.5518799,"longitude":-0.4485144,"name":"Freezeland Way near Long Lane","properties":{"access":"unknown","bicycle_pa":"stands","capacity":4,"covered":"no","fee":"no","operator":"","nameSource":"junction"},"sourceId":"osm"},{"id":"osm:node:12563515588","latitude":51.5168544,"longitude":-0.4776162,"name":"Celandine Route by Home Bargains","properties":{"access":"unknown","bicycle_pa":"","capacity":0,"covered":"","fee":"","operator":"","nameSource":"landmark"},"sourceId":"osm"},{"id":"osm:node:12563515592","latitude":51.5164171,"longitude":-0.4773031,"name":"Celandine Route cycle parking","properties":{"access":"yes","bicycle_pa":"shed","capacity":0,"covered":"yes","fee":"no","operator":"","nameSource":"street"},"sourceId":"osm"},{"id":"osm:node:14007015630","latitude":51.5124338,"longitude":-0.4449111,"name":"Bennetsfield Road by The Glass Pencil Art Gallery","properties":{"access":"unknown","bicycle_pa":"stands","capacity":8,"covered":"no","fee":"no","operator":"","nameSource":"landmark"},"sourceId":"osm"},{"id":"osm:node:1782697101","latitude":51.5451857,"longitude":-0.4749131,"name":"Chippendale Alley by Uxbridge Odeon","properties":{"access":"unknown","bicycle_pa":"stands","capacity":10,"covered":"yes","fee":"","operator":"","nameSource":"landmark"},"sourceId":"osm"},{"id":"osm:node:3074630903","latitude":51.5457729,"longitude":-0.4789921,"name":"Windsor Street near High Street","properties":{"access":"unknown","bicycle_pa":"stands","capacity":8,"covered":"no","fee":"","operator":"","nameSource":"junction"},"sourceId":"osm"},{"id":"osm:node:4095572211","latitude":51.5419465,"longitude":-0.4901998,"name":"Saint John's Road near Saint John's Close","properties":{"access":"unknown","bicycle_pa":"stands","capacity":28,"covered":"yes","fee":"","operator":"","nameSource":"junction"},"sourceId":"osm"},{"id":"osm:node:4095572244","latitude":51.5426038,"longitude":-0.4902052,"name":"Riverside Way by Beefeater","properties":{"access":"unknown","bicycle_pa":"stands","capacity":28,"covered":"yes","fee":"","operator":"","nameSource":"landmark"},"sourceId":"osm"},{"id":"osm:node:5249274573","latitude":51.5088945,"longitude":-0.4565134,"name":"Clayfield Way cycle parking","properties":{"access":"yes","bicycle_pa":"stands","capacity":5,"covered":"no","fee":"","operator":"","nameSource":"street"},"sourceId":"osm"},{"id":"osm:node:6110818402","latitude":51.5483437,"longitude":-0.4775894,"name":"Belmont Road near Lancaster Road","properties":{"access":"yes","bicycle_pa":"stands","capacity":2,"covered":"","fee":"","operator":"","nameSource":"junction"},"sourceId":"osm"},{"id":"osm:node:6348638817","latitude":51.5538542,"longitude":-0.4483317,"name":"Western Avenue by The Swallow","properties":{"access":"unknown","bicycle_pa":"rack","capacity":0,"covered":"","fee":"","operator":"","nameSource":"landmark"},"sourceId":"osm"},{"id":"osm:node:649054461","latitude":51.5481823,"longitude":-0.4754327,"name":"Sainsbury's","properties":{"access":"unknown","bicycle_pa":"","capacity":8,"covered":"","fee":"","operator":"","nameSource":"source"},"sourceId":"osm"},{"id":"osm:node:6599948491","latitude":51.5156545,"longitude":-0.4766988,"name":"Chantry Close by Tesco","properties":{"access":"unknown","bicycle_pa":"stands","capacity":0,"covered":"no","fee":"","operator":"","nameSource":"landmark"},"sourceId":"osm"},{"id":"osm:node:6601991373","latitude":51.5146625,"longitude":-0.4740195,"name":"High Street by Lilly Brow Bar","properties":{"access":"unknown","bicycle_pa":"stands","capacity":10,"covered":"yes","fee":"","operator":"","nameSource":"landmark"},"sourceId":"osm"},{"id":"osm:node:763554373","latitude":51.5472172,"longitude":-0.4806766,"name":"High Street near Belmont Road","properties":{"access":"unknown","bicycle_pa":"loopular","capacity":6,"covered":"no","fee":"","operator":"","nameSource":"junction"},"sourceId":"osm"},{"id":"osm:node:7803514874","latitude":51.5329942,"longitude":-0.4737439,"name":"The Strip by Costa","properties":{"access":"unknown","bicycle_pa":"stands","capacity":0,"covered":"","fee":"no","operator":"","nameSource":"landmark"},"sourceId":"osm"},{"id":"osm:node:8173236213","latitude":51.5116495,"longitude":-0.4479534,"name":"Bennetsfield Road cycle parking","properties":{"access":"private","bicycle_pa":"","capacity":0,"covered":"","fee":"","operator":"","nameSource":"street"},"sourceId":"osm"},{"id":"osm:node:8979804982","latitude":51.5441207,"longitude":-0.4757299,"name":"High Street by Hillingdon Civic Centre","properties":{"access":"unknown","bicycle_pa":"","capacity":0,"covered":"","fee":"","operator":"","nameSource":"landmark"},"sourceId":"osm"},{"id":"osm:node:8995541069","latitude":51.5451084,"longitude":-0.477438,"name":"High Street near Vine Street","properties":{"access":"unknown","bicycle_pa":"stands","capacity":4,"covered":"no","fee":"","operator":"","nameSource":"junction"},"sourceId":"osm"},{"id":"osm:node:9405480603","latitude":51.5214965,"longitude":-0.4759379,"name":"Moorfield Road near St Luke Close","properties":{"access":"unknown","bicycle_pa":"","capacity":3,"covered":"","fee":"","operator":"","nameSource":"junction"},"sourceId":"osm"},{"id":"osm:node:9423467543","latitude":51.5123387,"longitude":-0.4723708,"name":"High Street near New Parade","properties":{"access":"unknown","bicycle_pa":"stands","capacity":6,"covered":"no","fee":"","operator":"","nameSource":"junction"},"sourceId":"osm"},{"id":"osm:node:9423467547","latitude":51.5127828,"longitude":-0.4724872,"name":"High Street near New Parade","properties":{"access":"unknown","bicycle_pa":"stands","capacity":6,"covered":"no","fee":"","operator":"","nameSource":"junction"},"sourceId":"osm"},{"id":"osm:way:995000072","latitude":51.54970304000001,"longitude":-0.47357395999999996,"name":"Belmont Road near Belmont Close","properties":{"access":"permit","bicycle_pa":"shed","capacity":0,"covered":"yes","fee":"","operator":"","nameSource":"junction"},"sourceId":"osm"}],"schemaVersion":2}
