{"key":"12/2042/1365","points":[{"id":"osm:node:1670797598","latitude":51.3436513,"longitude":-0.4830828,"name":"King's Head Lane by Byfleet Primary School","properties":{"access":"private","bicycle_pa":"stands","capacity":20,"covered":"yes","fee":"","operator":"","nameSource":"landmark"},"sourceId":"osm"},{"id":"osm:node:2880763363","latitude":51.3230207,"longitude":-0.4903742,"name":"The National Trust River Wey Navigations by The Anchor","properties":{"access":"unknown","bicycle_pa":"","capacity":10,"covered":"no","fee":"","operator":"","nameSource":"landmark"},"sourceId":"osm"},{"id":"osm:node:3290407361","latitude":51.3389615,"longitude":-0.5058579,"name":"Station Approach near Madeira Road","properties":{"access":"unknown","bicycle_pa":"stands","capacity":54,"covered":"no","fee":"","operator":"","nameSource":"junction"},"sourceId":"osm"},{"id":"osm:node:3359644420","latitude":51.3363675,"longitude":-0.5061138,"name":"Rosemount Avenue near Old Woking Road","properties":{"access":"unknown","bicycle_pa":"stands","capacity":6,"covered":"no","fee":"","operator":"","nameSource":"junction"},"sourceId":"osm"},{"id":"osm:node:3359644432","latitude":51.338797,"longitude":-0.5059639,"name":"Station Approach near Madeira Road","properties":{"access":"unknown","bicycle_pa":"stands","capacity":4,"covered":"no","fee":"","operator":"","nameSource":"junction"},"sourceId":"osm"},{"id":"osm:node:3395777481","latitude":51.3390606,"longitude":-0.4757169,"name":"High Road near Beech Close","properties":{"access":"unknown","bicycle_pa":"stands","capacity":6,"covered":"no","fee":"","operator":"","nameSource":"junction"},"sourceId":"osm"},{"id":"osm:node:5689039966","latitude":51.3389536,"longitude":-0.4779965,"name":"High Road near Rectory Lane","properties":{"access":"unknown","bicycle_pa":"stands","capacity":4,"covered":"no","fee":"","operator":"","nameSource":"junction"},"sourceId":"osm"},{"id":"osm:node:5792366524","latitude":51.3364208,"longitude":-0.5060872,"name":"Old Woking Road near The Close","properties":{"access":"unknown","bicycle_pa":"stands","capacity":4,"covered":"no","fee":"","operator":"","nameSource":"junction"},"sourceId":"osm"},{"id":"osm:node:918132813","latitude":51.339072,"longitude":-0.505973,"name":"Station Approach near Madeira Road","properties":{"access":"unknown","bicycle_pa":"stands","capacity":52,"covered":"yes","fee":"","operator":"","nameSource":"junction"},"sourceId":"osm"},{"id":"osm:node:918137078","latitude":51.3398726,"longitude":-0.5053851,"name":"Claremont Road near Station Road","properties":{"access":"unknown","bicycle_pa":"stands","capacity":6,"covered":"no","fee":"","operator":"","nameSource":"junction"},"sourceId":"osm"},{"id":"osm:way:1000926355","latitude":51.31582966,"longitude":-0.47228554,"name":"Wisley cycle parking","properties":{"access":"customers","bicycle_pa":"stands","capacity":38,"covered":"yes","fee":"no","operator":"RHS Garden Wisley","nameSource":"landmark"},"sourceId":"osm"}],"schemaVersion":2}
