{"key":"12/2042/1368","points":[{"id":"osm:node:11607297220","latitude":51.1389678,"longitude":-0.4942143,"name":"Knowle Park cycle parking","properties":{"access":"unknown","bicycle_pa":"stands","capacity":20,"covered":"no","fee":"no","operator":"","nameSource":"landmark"},"sourceId":"osm"},{"id":"osm:node:11613584334","latitude":51.1389923,"longitude":-0.4931571,"name":"Hydon Grove cycle parking","properties":{"access":"unknown","bicycle_pa":"stands","capacity":16,"covered":"","fee":"","operator":"","nameSource":"street"},"sourceId":"osm"},{"id":"osm:node:2011362054","latitude":51.1402355,"longitude":-0.4879161,"name":"Village Way near High Street","properties":{"access":"unknown","bicycle_pa":"stands","capacity":8,"covered":"no","fee":"","operator":"","nameSource":"junction"},"sourceId":"osm"},{"id":"osm:node:558912104","latitude":51.1449674,"longitude":-0.4736232,"name":"Park Drive near Taylors Crescent","properties":{"access":"unknown","bicycle_pa":"","capacity":4,"covered":"","fee":"","operator":"","nameSource":"junction"},"sourceId":"osm"},{"id":"osm:way:1279999758","latitude":51.142014399999994,"longitude":-0.5013433833333334,"name":"Taverner Square near Lorimer Avenue","properties":{"access":"unknown","bicycle_pa":"shed","capacity":0,"covered":"","fee":"","operator":"","nameSource":"junction"},"sourceId":"osm"},{"id":"osm:way:1285286429","latitude":51.14345722,"longitude":-0.48900518000000004,"name":"Parsonage Road cycle parking","properties":{"access":"private","bicycle_pa":"stands","capacity":56,"covered":"no","fee":"no","operator":"Glebelands School","nameSource":"street"},"sourceId":"osm"}],"schemaVersion":2}
