{"key":"12/2042/1558","points":[{"id":"osm:node:13167807925","latitude":39.4811406,"longitude":-0.4421095,"name":"Carrer Reverendo Padre José Palacios near Carrer Sant Vicent Ferrer","properties":{"access":"unknown","bicycle_pa":"stands","capacity":6,"covered":"","fee":"","operator":"","nameSource":"junction"},"sourceId":"osm"},{"id":"osm:node:13454376407","latitude":39.4722334,"longitude":-0.443988,"name":"Camí de la Noria near Anell Verd Metropolità","properties":{"access":"yes","bicycle_pa":"stands","capacity":4,"covered":"no","fee":"no","operator":"","nameSource":"junction"},"sourceId":"osm"},{"id":"osm:node:1650159756","latitude":39.4586692,"longitude":-0.450166,"name":"Passatge Germans Forment Pascual near Avinguda de Blasco Ibáñez","properties":{"access":"unknown","bicycle_pa":"","capacity":6,"covered":"no","fee":"","operator":"","nameSource":"junction"},"sourceId":"osm"},{"id":"osm:node:1650159757","latitude":39.4582645,"longitude":-0.4499689,"name":"Passatge Germans Forment Pascual near Avinguda de Blasco Ibáñez","properties":{"access":"unknown","bicycle_pa":"","capacity":4,"covered":"no","fee":"","operator":"","nameSource":"junction"},"sourceId":"osm"},{"id":"osm:node:1652725278","latitude":39.4520618,"longitude":-0.4652226,"name":"Carrer de Jaume I near Carrer del Cid","properties":{"access":"unknown","bicycle_pa":"","capacity":6,"covered":"no","fee":"","operator":"","nameSource":"junction"},"sourceId":"osm"},{"id":"osm:node:2507180286","latitude":39.4846592,"longitude":-0.4494531,"name":"Carrer de València near Carrer de Mislata","properties":{"access":"unknown","bicycle_pa":"","capacity":0,"covered":"","fee":"","operator":"","nameSource":"junction"},"sourceId":"osm"},{"id":"osm:node:8946114049","latitude":39.4646549,"longitude":-0.4590757,"name":"Avinguda Vicent Blasco Ibáñez near Carrer del Rector Francisco Revert","properties":{"access":"yes","bicycle_pa":"stands","capacity":4,"covered":"","fee":"","operator":"","nameSource":"junction"},"sourceId":"osm"},{"id":"osm:node:8946114061","latitude":39.4633361,"longitude":-0.458908,"name":"Plaça d'Europa near Carrer Bernabé Sanchis","properties":{"access":"yes","bicycle_pa":"stands","capacity":8,"covered":"","fee":"","operator":"","nameSource":"junction"},"sourceId":"osm"},{"id":"osm:node:8949255388","latitude":39.4686475,"longitude":-0.4584877,"name":"Cinturó verd cycle parking","properties":{"access":"yes","bicycle_pa":"stands","capacity":6,"covered":"no","fee":"","operator":"","nameSource":"street"},"sourceId":"osm"},{"id":"osm:node:8951289423","latitude":39.4860421,"longitude":-0.453074,"name":"Carrer de Sant Gaietà cycle parking","properties":{"access":"yes","bicycle_pa":"rack","capacity":8,"covered":"no","fee":"","operator":"","nameSource":"street"},"sourceId":"osm"},{"id":"osm:node:8979513124","latitude":39.4630677,"longitude":-0.4581539,"name":"Plaça d'Europa near Carrer Dissabte","properties":{"access":"unknown","bicycle_pa":"stands","capacity":8,"covered":"","fee":"","operator":"","nameSource":"junction"},"sourceId":"osm"},{"id":"osm:node:9000680332","latitude":39.4651403,"longitude":-0.4614827,"name":"Carrer Pablo Iglesias near Plaça de la Constitució","properties":{"access":"unknown","bicycle_pa":"stands","capacity":4,"covered":"","fee":"","operator":"","nameSource":"junction"},"sourceId":"osm"},{"id":"osm:node:9000680350","latitude":39.4615728,"longitude":-0.4588044,"name":"Carrer de Teodor Llorente near Carrer de València","properties":{"access":"unknown","bicycle_pa":"stands","capacity":4,"covered":"no","fee":"","operator":"","nameSource":"junction"},"sourceId":"osm"},{"id":"osm:node:9016289618","latitude":39.4660841,"longitude":-0.4596636,"name":"Carrer Coladors near Carrer dels Àngels","properties":{"access":"unknown","bicycle_pa":"stands","capacity":6,"covered":"no","fee":"","operator":"","nameSource":"junction"},"sourceId":"osm"},{"id":"osm:way:1427548563","latitude":39.48110924,"longitude":-0.44197882,"name":"Cicloparc Metrovalencia","properties":{"access":"customers","bicycle_pa":"shed","capacity":0,"covered":"yes","fee":"yes","operator":"Ferrocarrils de la Generalitat Valenciana","nameSource":"source"},"sourceId":"osm"},{"id":"osm:way:1432575796","latitude":39.48141988333334,"longitude":-0.44337645,"name":"Carrer del Marqués del Túria near Carrer dels Agermanats","properties":{"access":"unknown","bicycle_pa":"","capacity":0,"covered":"","fee":"","operator":"","nameSource":"junction"},"sourceId":"osm"}],"schemaVersion":2}
