{"key":"12/2042/1563","points":[{"id":"osm:node:13798153063","latitude":39.1530091,"longitude":-0.4507496,"name":"CV-550 by Alzira","properties":{"access":"unknown","bicycle_pa":"stands","capacity":10,"covered":"no","fee":"","operator":"","nameSource":"landmark"},"sourceId":"osm"},{"id":"osm:node:2515422881","latitude":39.1622215,"longitude":-0.5201677,"name":"CV-544 near Camí de la Garrofera","properties":{"access":"unknown","bicycle_pa":"","capacity":0,"covered":"","fee":"","operator":"","nameSource":"junction"},"sourceId":"osm"},{"id":"osm:node:8613643581","latitude":39.1506942,"longitude":-0.44154,"name":"Carrer de Polinyà near Avinguda Luís Suñer","properties":{"access":"yes","bicycle_pa":"building","capacity":4,"covered":"no","fee":"no","operator":"","nameSource":"junction"},"sourceId":"osm"},{"id":"osm:node:8633478792","latitude":39.1500132,"longitude":-0.4402297,"name":"Carrer de Riola near Avinguda Luís Suñer","properties":{"access":"unknown","bicycle_pa":"building","capacity":0,"covered":"no","fee":"","operator":"","nameSource":"junction"},"sourceId":"osm"},{"id":"osm:node:8969266882","latitude":39.1519831,"longitude":-0.4412688,"name":"Carrer de Sant Roc near Plaça Casassús","properties":{"access":"yes","bicycle_pa":"building","capacity":0,"covered":"no","fee":"no","operator":"","nameSource":"junction"},"sourceId":"osm"},{"id":"osm:node:9174246381","latitude":39.1529979,"longitude":-0.4411341,"name":"Ronda d'Algemesí near Plaça de la Morera","properties":{"access":"unknown","bicycle_pa":"building","capacity":0,"covered":"","fee":"","operator":"","nameSource":"junction"},"sourceId":"osm"}],"schemaVersion":2}
