{"key":"12/2042/1574","points":[{"id":"osm:node:10593017788","latitude":38.3647204,"longitude":-0.4842876,"name":"Carrer del Mestre Alonso near Avinguda del Periodista Rodolfo Salazar","properties":{"access":"unknown","bicycle_pa":"wall_loops","capacity":2,"covered":"","fee":"no","operator":"","nameSource":"junction"},"sourceId":"osm"},{"id":"osm:node:10593072993","latitude":38.3642414,"longitude":-0.4843359,"name":"Carrer del Mestre Alonso near Avinguda del Periodista Rodolfo Salazar","properties":{"access":"unknown","bicycle_pa":"rack","capacity":6,"covered":"","fee":"no","operator":"","nameSource":"junction"},"sourceId":"osm"},{"id":"osm:node:10892887119","latitude":38.346182,"longitude":-0.4852294,"name":"Plaça de Ruperto Chapí near Avinguda de la Constitució","properties":{"access":"unknown","bicycle_pa":"stands","capacity":6,"covered":"no","fee":"","operator":"","nameSource":"junction"},"sourceId":"osm"},{"id":"osm:node:1301693413","latitude":38.39084,"longitude":-0.5195615,"name":"Avinguda Doctor Marañón near Carrer Francisco Maestre","properties":{"access":"unknown","bicycle_pa":"","capacity":5,"covered":"","fee":"","operator":"","nameSource":"junction"},"sourceId":"osm"},{"id":"osm:node:13033747997","latitude":38.3503973,"longitude":-0.4916403,"name":"Carrer del Castell de Sant Ferran near Carrer de la Ronda del Castell","properties":{"access":"unknown","bicycle_pa":"wall_loops","capacity":6,"covered":"no","fee":"","operator":"","nameSource":"junction"},"sourceId":"osm"},{"id":"osm:node:13563933834","latitude":38.3485753,"longitude":-0.4864971,"name":"Carrer del Capità Segarra near Carrer del Poeta Quintana","properties":{"access":"unknown","bicycle_pa":"stands","capacity":12,"covered":"","fee":"","operator":"","nameSource":"junction"},"sourceId":"osm"},{"id":"osm:node:1913720503","latitude":38.382833,"longitude":-0.5117007,"name":"Institutos Universitarios cycle parking","properties":{"access":"unknown","bicycle_pa":"","capacity":0,"covered":"yes","fee":"","operator":"","nameSource":"landmark"},"sourceId":"osm"},{"id":"osm:node:2652325759","latitude":38.3821664,"longitude":-0.5107787,"name":"E.U. de Óptica cycle parking","properties":{"access":"unknown","bicycle_pa":"anchors","capacity":0,"covered":"","fee":"","operator":"","nameSource":"landmark"},"sourceId":"osm"},{"id":"osm:node:4062249595","latitude":38.341723,"longitude":-0.4986437,"name":"Carrer de l'Arquitecte Guardiola near Carrer de Pardo Jimeno","properties":{"access":"unknown","bicycle_pa":"stands","capacity":2,"covered":"no","fee":"","operator":"","nameSource":"junction"},"sourceId":"osm"},{"id":"osm:node:4062297171","latitude":38.3417567,"longitude":-0.4979959,"name":"Carrer de Pérez Medina near Carrer de Pardo Jimeno","properties":{"access":"unknown","bicycle_pa":"","capacity":2,"covered":"","fee":"","operator":"","nameSource":"junction"},"sourceId":"osm"},{"id":"osm:node:4063263532","latitude":38.3416888,"longitude":-0.4992918,"name":"Carrer d'Alberola near Carrer de Pardo Jimeno","properties":{"access":"unknown","bicycle_pa":"","capacity":2,"covered":"","fee":"","operator":"","nameSource":"junction"},"sourceId":"osm"},{"id":"osm:node:4063263533","latitude":38.3418142,"longitude":-0.4968031,"name":"Carrer de García Andreu near Carrer de Pardo Jimeno","properties":{"access":"unknown","bicycle_pa":"","capacity":2,"covered":"","fee":"","operator":"","nameSource":"junction"},"sourceId":"osm"},{"id":"osm:node:4063263534","latitude":38.3418389,"longitude":-0.4961262,"name":"Carrer d'Alona near Carrer de Pardo Jimeno","properties":{"access":"unknown","bicycle_pa":"","capacity":2,"covered":"","fee":"","operator":"","nameSource":"junction"},"sourceId":"osm"},{"id":"osm:node:4063263535","latitude":38.3418635,"longitude":-0.4945314,"name":"Carrer de Carlet near Avinguda d'Òscar Esplà","properties":{"access":"unknown","bicycle_pa":"","capacity":2,"covered":"","fee":"","operator":"","nameSource":"junction"},"sourceId":"osm"},{"id":"osm:node:4063263536","latitude":38.3418716,"longitude":-0.4955081,"name":"Carrer d'Isabel la Catòlica near Carrer de Carlet","properties":{"access":"unknown","bicycle_pa":"","capacity":2,"covered":"","fee":"","operator":"","nameSource":"junction"},"sourceId":"osm"},{"id":"osm:node:4063263537","latitude":38.3419991,"longitude":-0.5018829,"name":"Carrer de Santa Maria Mazzarello cycle parking","properties":{"access":"unknown","bicycle_pa":"","capacity":4,"covered":"","fee":"","operator":"","nameSource":"street"},"sourceId":"osm"},{"id":"osm:node:4063263539","latitude":38.3427939,"longitude":-0.498135,"name":"Carrer de Carratalà near Carrer de Pérez Medina","properties":{"access":"unknown","bicycle_pa":"","capacity":4,"covered":"","fee":"","operator":"","nameSource":"junction"},"sourceId":"osm"},{"id":"osm:node:4063263541","latitude":38.3430747,"longitude":-0.495546,"name":"Carrer d'Isabel la Catòlica near Avinguda d'Aguilera","properties":{"access":"unknown","bicycle_pa":"","capacity":6,"covered":"","fee":"","operator":"","nameSource":"junction"},"sourceId":"osm"},{"id":"osm:node:445080764","latitude":38.3965128,"longitude":-0.5251547,"name":"Plaça d’Espanya near Carrer Major","properties":{"access":"unknown","bicycle_pa":"","capacity":0,"covered":"","fee":"","operator":"","nameSource":"junction"},"sourceId":"osm"},{"id":"osm:node:5340616422","latitude":38.3449648,"longitude":-0.4813022,"name":"Plaça de l'Ajuntament near Carrer de Rafael Altamira","properties":{"access":"unknown","bicycle_pa":"","capacity":0,"covered":"","fee":"","operator":"","nameSource":"junction"},"sourceId":"osm"},{"id":"osm:node:5340631222","latitude":38.3479391,"longitude":-0.4859175,"name":"Carrer de Calderón de la Barca near Avinguda Alfons el Savi","properties":{"access":"unknown","bicycle_pa":"","capacity":0,"covered":"","fee":"","operator":"","nameSource":"junction"},"sourceId":"osm"},{"id":"osm:node:616226425","latitude":38.3912107,"longitude":-0.5062813,"name":"Ciclo-Ruta CR-821 SANT VICENT-SANT JOAN by Super Valu","properties":{"access":"unknown","bicycle_pa":"","capacity":0,"covered":"","fee":"","operator":"","nameSource":"landmark"},"sourceId":"osm"},{"id":"osm:node:674075439","latitude":38.3460037,"longitude":-0.4842554,"name":"Carrer de Cándida Jimeno Gargallo near Carrer de Sant Tomàs","properties":{"access":"unknown","bicycle_pa":"","capacity":0,"covered":"","fee":"","operator":"","nameSource":"junction"},"sourceId":"osm"},{"id":"osm:node:840096804","latitude":38.3959419,"longitude":-0.5192628,"name":"Biblioteca","properties":{"access":"unknown","bicycle_pa":"","capacity":0,"covered":"","fee":"","operator":"","nameSource":"source"},"sourceId":"osm"},{"id":"osm:node:9168758485","latitude":38.3659235,"longitude":-0.4395329,"name":"Camí de la Colònia Romana near Carrer d'Enees","properties":{"access":"unknown","bicycle_pa":"","capacity":6,"covered":"","fee":"","operator":"","nameSource":"junction"},"sourceId":"osm"},{"id":"osm:node:9689490495","latitude":38.369251,"longitude":-0.4417669,"name":"Avinguda de la Caixa d'Estalvis by Lidl","properties":{"access":"customers","bicycle_pa":"stands","capacity":4,"covered":"","fee":"","operator":"","nameSource":"landmark"},"sourceId":"osm"}],"schemaVersion":2}
