{"key":"12/2042/1575","points":[{"id":"osm:node:13608034117","latitude":38.3376258,"longitude":-0.4912686,"name":"Carrer del Far del Cap de Sant Antoni near Carrer Heliodoro Madrona","properties":{"access":"yes","bicycle_pa":"","capacity":0,"covered":"no","fee":"no","operator":"","nameSource":"junction"},"sourceId":"osm"},{"id":"osm:node:4062247384","latitude":38.3405633,"longitude":-0.4996709,"name":"Carrer San Agatángelo near Carrer de Foglietti","properties":{"access":"unknown","bicycle_pa":"","capacity":2,"covered":"","fee":"","operator":"","nameSource":"junction"},"sourceId":"osm"},{"id":"osm:node:4062289969","latitude":38.3408068,"longitude":-0.4970907,"name":"Carrer del Doctor Just near Carrer de Foglietti","properties":{"access":"unknown","bicycle_pa":"","capacity":2,"covered":"","fee":"","operator":"","nameSource":"junction"},"sourceId":"osm"},{"id":"osm:node:4062407762","latitude":38.341603,"longitude":-0.5010805,"name":"Carrer els Dos Cents near Carrer de Pardo Jimeno","properties":{"access":"unknown","bicycle_pa":"","capacity":2,"covered":"","fee":"","operator":"","nameSource":"junction"},"sourceId":"osm"},{"id":"osm:node:4063263520","latitude":38.3399522,"longitude":-0.4945884,"name":"Carrer de Moratín near Avinguda del Catedràtic Soler","properties":{"access":"unknown","bicycle_pa":"","capacity":8,"covered":"","fee":"","operator":"","nameSource":"junction"},"sourceId":"osm"},{"id":"osm:node:4063263521","latitude":38.3404067,"longitude":-0.5024097,"name":"Carrer de Santa Maria Mazzarello near Carrer del General Bonanza","properties":{"access":"unknown","bicycle_pa":"","capacity":4,"covered":"","fee":"","operator":"","nameSource":"junction"},"sourceId":"osm"},{"id":"osm:node:4063263522","latitude":38.340494,"longitude":-0.5009245,"name":"Carrer els Dos Cents near Carrer de Foglietti","properties":{"access":"unknown","bicycle_pa":"","capacity":2,"covered":"","fee":"","operator":"","nameSource":"junction"},"sourceId":"osm"},{"id":"osm:node:4063263523","latitude":38.3406991,"longitude":-0.4990121,"name":"Carrer d'Alberola near Carrer de Foglietti","properties":{"access":"unknown","bicycle_pa":"","capacity":2,"covered":"","fee":"","operator":"","nameSource":"junction"},"sourceId":"osm"},{"id":"osm:node:4063263524","latitude":38.3407317,"longitude":-0.4983361,"name":"Carrer de Foglietti near Carrer de l'Arquitecte Guardiola","properties":{"access":"unknown","bicycle_pa":"","capacity":2,"covered":"","fee":"","operator":"","nameSource":"junction"},"sourceId":"osm"},{"id":"osm:node:4063263525","latitude":38.3407785,"longitude":-0.4941606,"name":"Avinguda d'Òscar Esplà near Carrer de Foglietti","properties":{"access":"unknown","bicycle_pa":"","capacity":2,"covered":"","fee":"","operator":"","nameSource":"junction"},"sourceId":"osm"},{"id":"osm:node:4063263526","latitude":38.3408006,"longitude":-0.4947199,"name":"Carrer de Moratín near Carrer de Foglietti","properties":{"access":"unknown","bicycle_pa":"","capacity":2,"covered":"","fee":"","operator":"","nameSource":"junction"},"sourceId":"osm"},{"id":"osm:node:4063263527","latitude":38.3408295,"longitude":-0.4964733,"name":"Carrer de Foglietti near Carrer de García Andreu","properties":{"access":"unknown","bicycle_pa":"","capacity":2,"covered":"","fee":"","operator":"","nameSource":"junction"},"sourceId":"osm"},{"id":"osm:node:4063263528","latitude":38.3408616,"longitude":-0.4954266,"name":"Carrer d'Isabel la Catòlica near Carrer de Foglietti","properties":{"access":"unknown","bicycle_pa":"","capacity":2,"covered":"","fee":"","operator":"","nameSource":"junction"},"sourceId":"osm"},{"id":"osm:node:4063263531","latitude":38.3416341,"longitude":-0.5005324,"name":"Carrer del Capità Dema near Carrer de Pardo Jimeno","properties":{"access":"unknown","bicycle_pa":"","capacity":2,"covered":"","fee":"","operator":"","nameSource":"junction"},"sourceId":"osm"},{"id":"osm:node:6771839271","latitude":38.3389795,"longitude":-0.4943598,"name":"Carrer de Moratín near Avinguda d'Elx","properties":{"access":"unknown","bicycle_pa":"wall_loops","capacity":1,"covered":"","fee":"","operator":"","nameSource":"junction"},"sourceId":"osm"},{"id":"osm:node:7821373826","latitude":38.3398328,"longitude":-0.4960223,"name":"Avinguda del Catedràtic Soler near Carrer d'Alona","properties":{"access":"unknown","bicycle_pa":"","capacity":0,"covered":"","fee":"","operator":"","nameSource":"junction"},"sourceId":"osm"},{"id":"osm:node:9943751359","latitude":38.2870832,"longitude":-0.5206731,"name":"Passeig de Tomás Durá cycle parking","properties":{"access":"yes","bicycle_pa":"stands","capacity":4,"covered":"no","fee":"","operator":"","nameSource":"street"},"sourceId":"osm"},{"id":"osm:node:9948246420","latitude":38.2794815,"longitude":-0.5202362,"name":"Carrer del Músic José Mira Figueroa cycle parking","properties":{"access":"yes","bicycle_pa":"stands","capacity":4,"covered":"no","fee":"","operator":"","nameSource":"street"},"sourceId":"osm"}],"schemaVersion":2}
