{"key":"12/2014/1326","points":[{"categories":["hire"],"id":"osm:node:10186274901","latitude":53.4035972,"longitude":-2.9703255,"name":"VOI","properties":{"brand":"VOI","fee":"yes","operator":"VOI"},"sourceId":"osm"},{"categories":["hire"],"id":"osm:node:10228245022","latitude":53.4024049,"longitude":-2.977249,"name":"Cycle hire","properties":{},"sourceId":"osm"},{"categories":["shop"],"id":"osm:node:10816307660","latitude":53.3897816,"longitude":-2.9252158,"name":"Bernard Bicycles","properties":{},"sourceId":"osm"},{"categories":["hire"],"id":"osm:node:11119215708","latitude":53.4043114,"longitude":-2.9485817,"name":"Cycle hire","properties":{},"sourceId":"osm"},{"categories":["shop"],"id":"osm:node:12271108279","latitude":53.4094504,"longitude":-2.9778077,"name":"Ayoub Cycles","properties":{},"sourceId":"osm"},{"categories":["shop"],"id":"osm:node:13048815154","latitude":53.3929312,"longitude":-2.9823577,"name":"Hype Urban Bikes","properties":{},"sourceId":"osm"},{"categories":["hire"],"id":"osm:node:2989899047","latitude":53.4133738,"longitude":-2.9686531,"name":"city bike - Hope University","properties":{"network":"city bike Liverpool","operator":"city bike Liverpool"},"sourceId":"osm"},{"categories":["hire"],"id":"osm:node:2989899048","latitude":53.411091,"longitude":-2.9881181,"name":"city bike - LJMU Tithebarn Street","properties":{"brand":"VOI","fee":"yes","network":"city bike Liverpool","operator":"VOI"},"sourceId":"osm"},{"categories":["hire"],"id":"osm:node:2989899053","latitude":53.4084822,"longitude":-2.9870797,"name":"city bike - Dale Street","properties":{"brand":"VOI","fee":"yes","network":"city bike Liverpool","operator":"VOI"},"sourceId":"osm"},{"categories":["shop"],"id":"osm:node:3109289949","latitude":53.4104037,"longitude":-2.9289591,"name":"Quinns","properties":{},"sourceId":"osm"},{"categories":["hire"],"id":"osm:node:3177849736","latitude":53.4118956,"longitude":-2.9716411,"name":"New Islington","properties":{"operator":"City Bike"},"sourceId":"osm"},{"categories":["hire"],"id":"osm:node:3189354102","latitude":53.4011978,"longitude":-2.967244,"name":"VOI","properties":{"brand":"VOI","fee":"yes","operator":"VOI"},"sourceId":"osm"},{"categories":["hire"],"id":"osm:node:3205246259","latitude":53.4061684,"longitude":-2.9658861,"name":"VOI","properties":{"brand":"VOI","fee":"yes","operator":"VOI"},"sourceId":"osm"},{"categories":["hire"],"id":"osm:node:4317545089","latitude":53.3847938,"longitude":-2.9072412,"name":"VOI","properties":{"brand":"VOI","fee":"yes","operator":"VOI","website":"https://www.citybikeliverpool.co.uk/"},"sourceId":"osm"},{"categories":["hire"],"id":"osm:node:4339665744","latitude":53.4075106,"longitude":-2.9737883,"name":"Hourbike Ltd","properties":{"network":"citybike","operator":"Hourbike Ltd"},"sourceId":"osm"},{"categories":["hire"],"id":"osm:node:4381656702","latitude":53.4035885,"longitude":-2.9831585,"name":"Citybike Liverpool","properties":{"operator":"Citybike Liverpool"},"sourceId":"osm"},{"categories":["hire"],"id":"osm:node:4381666759","latitude":53.4047903,"longitude":-2.9815382,"name":"VOI","properties":{"brand":"VOI","fee":"yes","network":"Citybike Liverpool","operator":"VOI"},"sourceId":"osm"},{"categories":["hire"],"id":"osm:node:4508657144","latitude":53.3959072,"longitude":-2.9677242,"name":"Citybikes Liverpool","properties":{"network":"Citybikes Liverpool"},"sourceId":"osm"},{"categories":["hire"],"id":"osm:node:6223436224","latitude":53.3952326,"longitude":-2.9712841,"name":"Toxteth Library – Windsor Street","properties":{"network":"citybike"},"sourceId":"osm"},{"categories":["hire"],"id":"osm:node:6316993669","latitude":53.4088952,"longitude":-2.982348,"name":"VOI","properties":{"brand":"VOI","fee":"yes","network":"Citybike","operator":"VOI"},"sourceId":"osm"},{"categories":["hire"],"id":"osm:node:8603265840","latitude":53.3904306,"longitude":-2.9229989,"name":"Citybike","properties":{"network":"city bike Liverpool","operator":"city bike Liverpool"},"sourceId":"osm"},{"categories":["shop"],"id":"osm:node:967946430","latitude":53.3943596,"longitude":-2.978958,"name":"Giant Liverpool","properties":{"website":"https://www.giant-liverpool.co.uk/"},"sourceId":"osm"},{"categories":["shop"],"id":"osm:way:1068771630","latitude":53.40395002,"longitude":-2.97949772,"name":"Pure Electric","properties":{"brand":"Pure Electric"},"sourceId":"osm"},{"categories":["shop"],"id":"osm:way:1308915796","latitude":53.41000675555555,"longitude":-2.9476020333333337,"name":"Onya Bike","properties":{},"sourceId":"osm"},{"categories":["shop"],"id":"osm:way:1311371730","latitude":53.39630256,"longitude":-2.9499448399999997,"name":"Sami's Bike Shop","properties":{},"sourceId":"osm"},{"categories":["shop","repair"],"id":"osm:way:1422149746","latitude":53.405132460000004,"longitude":-2.96381554,"name":"Bikiosk","properties":{"openingHours":"Mo-Fr 09:30-17:00","operator":"Peloton Liverpool","servicePump":"yes","serviceRepair":"yes","website":"https://peloton.coop/"},"sourceId":"osm"},{"categories":["repair"],"id":"osm:way:295867481","latitude":53.41056302,"longitude":-2.92254592,"name":"Halfords","properties":{"brand":"Halfords","serviceRepair":"yes","website":"https://www.halfords.com/locations/edge-lane-store/"},"sourceId":"osm"},{"categories":["hire"],"id":"osm:way:464350822","latitude":53.406219480000004,"longitude":-2.95626732,"name":"Irvine St","properties":{"operator":"citybike"},"sourceId":"osm"}],"schemaVersion":2}
