{"key":"12/2072/1530","points":[{"id":"osm:node:10103744179","latitude":41.3729265,"longitude":2.1430232,"name":"Carrer de Portugalete near Carretera de la Bordeta","properties":{"access":"yes","bicycle_pa":"rack","capacity":14,"covered":"no","fee":"","operator":"","nameSource":"junction"},"sourceId":"osm"},{"id":"osm:node:10241999956","latitude":41.3640794,"longitude":2.1661537,"name":"Pati d'Armes cycle parking","properties":{"access":"unknown","bicycle_pa":"stands","capacity":20,"covered":"no","fee":"","operator":"","nameSource":"street"},"sourceId":"osm"},{"id":"osm:node:10278125364","latitude":41.3744924,"longitude":2.1109131,"name":"Avinguda del Doctor Ramon Solanich i Riera near Plaça del Cadí","properties":{"access":"yes","bicycle_pa":"stands","capacity":8,"covered":"no","fee":"no","operator":"Ajuntament de l'Hospitalet de Llobregat","nameSource":"junction"},"sourceId":"osm"},{"id":"osm:node:10291198509","latitude":41.3126419,"longitude":2.1158596,"name":"Camí Reial de València near Camí de València","properties":{"access":"unknown","bicycle_pa":"","capacity":0,"covered":"","fee":"","operator":"","nameSource":"junction"},"sourceId":"osm"},{"id":"osm:node:10607651528","latitude":41.3678242,"longitude":2.1301255,"name":"Carrer de Santa Eulàlia near Carrer de Martí Codolar","properties":{"access":"yes","bicycle_pa":"stands","capacity":10,"covered":"no","fee":"no","operator":"Ajuntament de l'Hospitalet de Llobregat","nameSource":"junction"},"sourceId":"osm"},{"id":"osm:node:10768842867","latitude":41.3664038,"longitude":2.1480994,"name":"Camí de La Foixarda by Centre Municipal d'Escalada: CLIMBAT La Foixarda","properties":{"access":"unknown","bicycle_pa":"stands","capacity":26,"covered":"no","fee":"","operator":"","nameSource":"landmark"},"sourceId":"osm"},{"id":"osm:node:10961380727","latitude":41.375198,"longitude":2.1176787,"name":"Carrer de Farnés by Torre Barrina","properties":{"access":"yes","bicycle_pa":"stands","capacity":0,"covered":"","fee":"","operator":"","nameSource":"landmark"},"sourceId":"osm"},{"id":"osm:node:11005689269","latitude":41.3580658,"longitude":2.1224759,"name":"Carrer d'Herrero near Carrer de Jerusalem","properties":{"access":"yes","bicycle_pa":"stands","capacity":36,"covered":"no","fee":"no","operator":"Ajuntament de l'Hospitalet de Llobregat","nameSource":"junction"},"sourceId":"osm"},{"id":"osm:node:11200575832","latitude":41.3703818,"longitude":2.155395,"name":"Passeig de Santa Madrona near Carrer de Maria Montessori","properties":{"access":"unknown","bicycle_pa":"stands","capacity":0,"covered":"","fee":"","operator":"","nameSource":"junction"},"sourceId":"osm"},{"id":"osm:node:11243096933","latitude":41.3760835,"longitude":2.1376031,"name":"Carrer d'Eusebi Planas near Carrer de López Catalán","properties":{"access":"customers","bicycle_pa":"building","capacity":0,"covered":"yes","fee":"yes","operator":"biciparking","nameSource":"junction"},"sourceId":"osm"},{"id":"osm:node:11271600355","latitude":41.3336924,"longitude":2.121924,"name":"Carrer Número 4 cycle parking","properties":{"access":"private","bicycle_pa":"wall_loops","capacity":12,"covered":"no","fee":"no","operator":"Nissan","nameSource":"street"},"sourceId":"osm"},{"id":"osm:node:11494299562","latitude":41.3571567,"longitude":2.1410753,"name":"Passeig de la Zona Franca near Plaça del Moviment Obrer","properties":{"access":"yes","bicycle_pa":"stands","capacity":10,"covered":"no","fee":"no","operator":"Ajuntament de Barcelona","nameSource":"junction"},"sourceId":"osm"},{"id":"osm:node:11494318697","latitude":41.3571104,"longitude":2.1392331,"name":"Carrer de l'Estany cycle parking","properties":{"access":"yes","bicycle_pa":"stands","capacity":38,"covered":"no","fee":"no","operator":"Ajuntament de Barcelona","nameSource":"street"},"sourceId":"osm"},{"id":"osm:node:11494322504","latitude":41.357528,"longitude":2.1384215,"name":"Carrer dels Alts Forns near Carrer de l'Estany","properties":{"access":"yes","bicycle_pa":"stands","capacity":40,"covered":"no","fee":"no","operator":"Ajuntament de Barcelona","nameSource":"junction"},"sourceId":"osm"},{"id":"osm:node:11700969192","latitude":41.3705817,"longitude":2.1652411,"name":"Passeig de l'Exposició near Passeig de Miramar","properties":{"access":"unknown","bicycle_pa":"stands","capacity":0,"covered":"no","fee":"","operator":"","nameSource":"junction"},"sourceId":"osm"},{"id":"osm:node:11734917832","latitude":41.3621858,"longitude":2.1450314,"name":"Casa Club Montjuïc cycle parking","properties":{"access":"yes","bicycle_pa":"stands","capacity":12,"covered":"no","fee":"no","operator":"","nameSource":"landmark"},"sourceId":"osm"},{"id":"osm:node:11735004894","latitude":41.3615054,"longitude":2.1446019,"name":"Casa Club Montjuïc cycle parking","properties":{"access":"unknown","bicycle_pa":"wall_loops","capacity":14,"covered":"no","fee":"","operator":"","nameSource":"landmark"},"sourceId":"osm"},{"id":"osm:node:11735254560","latitude":41.3759743,"longitude":2.1477916,"name":"Carrer de la Diputació near Carrer de Tarragona","properties":{"access":"yes","bicycle_pa":"stands","capacity":12,"covered":"no","fee":"no","operator":"","nameSource":"junction"},"sourceId":"osm"},{"id":"osm:node:11748723804","latitude":41.3746329,"longitude":2.1486035,"name":"Aparcament de bicicletes","properties":{"access":"customers","bicycle_pa":"","capacity":0,"covered":"","fee":"no","operator":"","nameSource":"source"},"sourceId":"osm"},{"id":"osm:node:11748723811","latitude":41.3743447,"longitude":2.1484631,"name":"Vadebike","properties":{"access":"unknown","bicycle_pa":"stands","capacity":20,"covered":"yes","fee":"yes","operator":"","nameSource":"source"},"sourceId":"osm"},{"id":"osm:node:11830235234","latitude":41.3671878,"longitude":2.1363943,"name":"Carrer de Parcerisa near Camí de la Cadena","properties":{"access":"yes","bicycle_pa":"stands","capacity":38,"covered":"no","fee":"no","operator":"Ajuntament de Barcelona","nameSource":"junction"},"sourceId":"osm"},{"id":"osm:node:11830236192","latitude":41.3667091,"longitude":2.1374302,"name":"Camí de la Cadena near Gran Via de les Corts Catalanes","properties":{"access":"yes","bicycle_pa":"stands","capacity":20,"covered":"no","fee":"no","operator":"Ajuntament de Barcelona","nameSource":"junction"},"sourceId":"osm"},{"id":"osm:node:11830236193","latitude":41.3668335,"longitude":2.1374454,"name":"Camí de la Cadena near Gran Via de les Corts Catalanes","properties":{"access":"yes","bicycle_pa":"stands","capacity":38,"covered":"no","fee":"no","operator":"Ajuntament de Barcelona","nameSource":"junction"},"sourceId":"osm"},{"id":"osm:node:11923901009","latitude":41.3683487,"longitude":2.1163595,"name":"Avinguda de Catalunya near Avinguda del Torrent Gornal","properties":{"access":"yes","bicycle_pa":"stands","capacity":10,"covered":"no","fee":"no","operator":"Ajuntament de l'Hospitalet de Llobregat","nameSource":"junction"},"sourceId":"osm"},{"id":"osm:node:12012957755","latitude":41.3738405,"longitude":2.1888728,"name":"vadeBike","properties":{"access":"customers","bicycle_pa":"lockers","capacity":0,"covered":"yes","fee":"yes","operator":"","nameSource":"source"},"sourceId":"osm"},{"id":"osm:node:12036471540","latitude":41.3647664,"longitude":2.1856916,"name":"Rambla del Rompeolas near Pasarel·la de pescadors","properties":{"access":"yes","bicycle_pa":"stands","capacity":13,"covered":"no","fee":"no","operator":"","nameSource":"junction"},"sourceId":"osm"},{"id":"osm:node:12351360502","latitude":41.3676389,"longitude":2.1397511,"name":"Plaça de Sarah Bernhardt near Gran Via de les Corts Catalanes","properties":{"access":"unknown","bicycle_pa":"stands","capacity":10,"covered":"no","fee":"","operator":"","nameSource":"junction"},"sourceId":"osm"},{"id":"osm:node:12416961861","latitude":41.3680013,"longitude":2.1352849,"name":"Carrer de Parcerisa near Carrer del Quetzal","properties":{"access":"yes","bicycle_pa":"stands","capacity":10,"covered":"yes","fee":"no","operator":"","nameSource":"junction"},"sourceId":"osm"},{"id":"osm:node:12570512042","latitude":41.365991,"longitude":2.1420938,"name":"Carrer de la Font Florida cycle parking","properties":{"access":"unknown","bicycle_pa":"","capacity":0,"covered":"no","fee":"","operator":"","nameSource":"street"},"sourceId":"osm"},{"id":"osm:node:12633469410","latitude":41.3758769,"longitude":2.1163192,"name":"Carretera de Collblanc near Carrer de Farnés","properties":{"access":"yes","bicycle_pa":"stands","capacity":12,"covered":"no","fee":"no","operator":"","nameSource":"junction"},"sourceId":"osm"},{"id":"osm:node:12810201001","latitude":41.3757018,"longitude":2.1234338,"name":"Carrer de Sants near Carretera de Collblanc","properties":{"access":"unknown","bicycle_pa":"stands","capacity":8,"covered":"no","fee":"","operator":"","nameSource":"junction"},"sourceId":"osm"},{"id":"osm:node:12860527801","latitude":41.3543383,"longitude":2.1267403,"name":"Avinguda de Joan Carles I near Plaça d'Europa","properties":{"access":"unknown","bicycle_pa":"","capacity":0,"covered":"","fee":"","operator":"","nameSource":"junction"},"sourceId":"osm"},{"id":"osm:node:13072982202","latitude":41.3615159,"longitude":2.1381561,"name":"Passeig de la Zona Franca by Dacia","properties":{"access":"unknown","bicycle_pa":"","capacity":0,"covered":"","fee":"","operator":"","nameSource":"landmark"},"sourceId":"osm"},{"id":"osm:node:13250811821","latitude":41.3747273,"longitude":2.1669978,"name":"Carrer de Salvà near Avinguda del Paral·lel","properties":{"access":"unknown","bicycle_pa":"stands","capacity":8,"covered":"no","fee":"","operator":"","nameSource":"junction"},"sourceId":"osm"},{"id":"osm:node:13282172214","latitude":41.3579578,"longitude":2.1431336,"name":"Carrer del Foc near Carrer de la Mare de Déu de Port","properties":{"access":"unknown","bicycle_pa":"","capacity":0,"covered":"","fee":"","operator":"","nameSource":"junction"},"sourceId":"osm"},{"id":"osm:node:13282173106","latitude":41.3578913,"longitude":2.1402931,"name":"Passeig de la Zona Franca near Carrer dels Alts Forns","properties":{"access":"unknown","bicycle_pa":"","capacity":0,"covered":"","fee":"","operator":"","nameSource":"junction"},"sourceId":"osm"},{"id":"osm:node:1342488605","latitude":41.3760979,"longitude":2.1663651,"name":"Ronda de Sant Pau near Carrer d'Aldana","properties":{"access":"unknown","bicycle_pa":"stands","capacity":12,"covered":"no","fee":"","operator":"http://ajuntament.barcelona.cat/bicicleta/ca","nameSource":"junction"},"sourceId":"osm"},{"id":"osm:node:1349448904","latitude":41.3764262,"longitude":2.1636642,"name":"Carrer del Comte Borrell near Carrer del Parlament","properties":{"access":"private","bicycle_pa":"building","capacity":0,"covered":"yes","fee":"","operator":"http://ajuntament.barcelona.cat/bicicleta/ca","nameSource":"junction"},"sourceId":"osm"},{"id":"osm:node:13612598791","latitude":41.3606639,"longitude":2.138494,"name":"Passeig de la Zona Franca near Carrer de la Foneria","properties":{"access":"unknown","bicycle_pa":"","capacity":0,"covered":"","fee":"","operator":"","nameSource":"junction"},"sourceId":"osm"},{"id":"osm:node:13666875901","latitude":41.37638,"longitude":2.1828844,"name":"Moll d'Espanya by rebeld","properties":{"access":"unknown","bicycle_pa":"","capacity":0,"covered":"","fee":"","operator":"","nameSource":"landmark"},"sourceId":"osm"},{"id":"osm:node:13666876001","latitude":41.3758388,"longitude":2.1824697,"name":"Moll d'Espanya by Fresc Co","properties":{"access":"unknown","bicycle_pa":"","capacity":0,"covered":"","fee":"","operator":"","nameSource":"landmark"},"sourceId":"osm"},{"id":"osm:node:2481048318","latitude":41.3743017,"longitude":2.1611177,"name":"Carrer de Radas near Carrer de la Concòrdia","properties":{"access":"unknown","bicycle_pa":"stands","capacity":10,"covered":"","fee":"","operator":"","nameSource":"junction"},"sourceId":"osm"},{"id":"osm:node:2887143362","latitude":41.3754926,"longitude":2.1359541,"name":"Carrer de Galileu near Plaça de Sants","properties":{"access":"unknown","bicycle_pa":"stands","capacity":5,"covered":"no","fee":"","operator":"http://ajuntament.barcelona.cat/bicicleta/ca","nameSource":"junction"},"sourceId":"osm"},{"id":"osm:node:3350092782","latitude":41.3591203,"longitude":2.1275664,"name":"Avinguda de la Granvia de l'Hospitalet near Carrer de Castelao","properties":{"access":"yes","bicycle_pa":"stands","capacity":12,"covered":"no","fee":"no","operator":"Ajuntament de l'Hospitalet de Llobregat","nameSource":"junction"},"sourceId":"osm"},{"id":"osm:node:3640972988","latitude":41.3609528,"longitude":2.1105143,"name":"172 FGC - Sant Josep","properties":{"access":"customers","bicycle_pa":"lockers","capacity":14,"covered":"","fee":"yes","operator":"Movement","nameSource":"source"},"sourceId":"osm"},{"id":"osm:node:3890226787","latitude":41.3756126,"longitude":2.1179595,"name":"207 METRO L5 - Collblanc","properties":{"access":"customers","bicycle_pa":"lockers","capacity":14,"covered":"","fee":"yes","operator":"Movement","nameSource":"source"},"sourceId":"osm"},{"id":"osm:node:4407009201","latitude":41.3765649,"longitude":2.1418987,"name":"Carrer de Muntadas near Plaça d'Antoni Pérez i Moya","properties":{"access":"unknown","bicycle_pa":"stands","capacity":10,"covered":"no","fee":"","operator":"http://ajuntament.barcelona.cat/bicicleta/ca","nameSource":"junction"},"sourceId":"osm"},{"id":"osm:node:4407046391","latitude":41.376584,"longitude":2.1420856,"name":"Carrer d'Emengarda near Carrer de Llobet","properties":{"access":"unknown","bicycle_pa":"stands","capacity":10,"covered":"no","fee":"","operator":"","nameSource":"junction"},"sourceId":"osm"},{"id":"osm:node:4711944748","latitude":41.3743753,"longitude":2.148443,"name":"Gran Via de les Corts Catalanes near Plaça d'Espanya","properties":{"access":"unknown","bicycle_pa":"stands","capacity":20,"covered":"no","fee":"","operator":"http://ajuntament.barcelona.cat/bicicleta/ca","nameSource":"junction"},"sourceId":"osm"},{"id":"osm:node:5093013821","latitude":41.3718582,"longitude":2.1516886,"name":"Avinguda de Francesc Ferrer i Guàrdia near Avinguda de la Reina Maria Cristina","properties":{"access":"yes","bicycle_pa":"stands","capacity":10,"covered":"yes","fee":"no","operator":"","nameSource":"junction"},"sourceId":"osm"},{"id":"osm:node:5264634278","latitude":41.352126,"longitude":2.130657,"name":"211 Metro L9 - Fira","properties":{"access":"customers","bicycle_pa":"lockers","capacity":14,"covered":"","fee":"yes","operator":"Movement","nameSource":"source"},"sourceId":"osm"},{"id":"osm:node:5264634281","latitude":41.368352,"longitude":2.1274899,"name":"205 METRO L1 - Santa Eulalia","properties":{"access":"customers","bicycle_pa":"lockers","capacity":7,"covered":"","fee":"yes","operator":"Movement","nameSource":"source"},"sourceId":"osm"},{"id":"osm:node:5264634299","latitude":41.3683999,"longitude":2.1167553,"name":"185 METRO L1 La Torrassa","properties":{"access":"customers","bicycle_pa":"lockers","capacity":14,"covered":"","fee":"yes","operator":"Movement","nameSource":"source"},"sourceId":"osm"},{"id":"osm:node:5264634300","latitude":41.3466727,"longitude":2.1098737,"name":"228 Metropolitan l'Hospitalet","properties":{"access":"customers","bicycle_pa":"lockers","capacity":14,"covered":"","fee":"yes","operator":"Movement","nameSource":"source"},"sourceId":"osm"},{"id":"osm:node:5264634302","latitude":41.3574311,"longitude":2.1242754,"name":"182 FGC - Europa / Fira","properties":{"access":"customers","bicycle_pa":"lockers","capacity":14,"covered":"","fee":"yes","operator":"Movement","nameSource":"source"},"sourceId":"osm"},{"id":"osm:node:5264634307","latitude":41.3648011,"longitude":2.1310001,"name":"175 Ciutat de la Justícia","properties":{"access":"customers","bicycle_pa":"lockers","capacity":14,"covered":"","fee":"yes","operator":"Movement","nameSource":"source"},"sourceId":"osm"},{"id":"osm:node:5264637853","latitude":41.3605288,"longitude":2.1178485,"name":"078 Poliesportiu Gornal","properties":{"access":"customers","bicycle_pa":"lockers","capacity":7,"covered":"","fee":"yes","operator":"Movement","nameSource":"source"},"sourceId":"osm"},{"id":"osm:node:5264637854","latitude":41.3510934,"longitude":2.1105438,"name":"076 METRO L1 - Bellvitge","properties":{"access":"customers","bicycle_pa":"lockers","capacity":14,"covered":"","fee":"yes","operator":"Movement","nameSource":"source"},"sourceId":"osm"},{"id":"osm:node:5264637857","latitude":41.3661202,"longitude":2.1281495,"name":"071 Poliesportiu municipal Santa Eulàlia","properties":{"access":"customers","bicycle_pa":"lockers","capacity":7,"covered":"","fee":"yes","operator":"Movement","nameSource":"source"},"sourceId":"osm"},{"id":"osm:node:5264637858","latitude":41.3612334,"longitude":2.1302887,"name":"068 FGC- Ildefons Cerdà","properties":{"access":"customers","bicycle_pa":"lockers","capacity":14,"covered":"","fee":"yes","operator":"Movement","nameSource":"source"},"sourceId":"osm"},{"id":"osm:node:5264637859","latitude":41.36581,"longitude":2.116338,"name":"063 Poliesportiu Piscines L'H","properties":{"access":"customers","bicycle_pa":"lockers","capacity":7,"covered":"","fee":"yes","operator":"Movement","nameSource":"source"},"sourceId":"osm"},{"id":"osm:node:5300682025","latitude":41.3767775,"longitude":2.1771437,"name":"La Rambla near Carrer de Josep Anselm Clavé","properties":{"access":"unknown","bicycle_pa":"stands","capacity":10,"covered":"no","fee":"","operator":"","nameSource":"junction"},"sourceId":"osm"},{"id":"osm:node:5588868309","latitude":41.3735569,"longitude":2.1364345,"name":"Carrer d'Olzinelles near Carrer de Sagunt","properties":{"access":"unknown","bicycle_pa":"stands","capacity":18,"covered":"no","fee":"","operator":"http://ajuntament.barcelona.cat/bicicleta/ca","nameSource":"junction"},"sourceId":"osm"},{"id":"osm:node:5915213906","latitude":41.3609171,"longitude":2.1403323,"name":"Carrer de Mercedes Núñez Targa near Carrer de l'Aviador Durán","properties":{"access":"unknown","bicycle_pa":"stands","capacity":12,"covered":"no","fee":"","operator":"http://ajuntament.barcelona.cat/bicicleta/ca","nameSource":"junction"},"sourceId":"osm"},{"id":"osm:node:5915216905","latitude":41.3758854,"longitude":2.1666752,"name":"Ronda de Sant Pau near Carrer d'Aldana","properties":{"access":"unknown","bicycle_pa":"stands","capacity":12,"covered":"no","fee":"","operator":"http://ajuntament.barcelona.cat/bicicleta/ca","nameSource":"junction"},"sourceId":"osm"},{"id":"osm:node:6398497260","latitude":41.368962,"longitude":2.1561512,"name":"Passeig de Santa Madrona near Carrer del Mirador del Palau Nacional","properties":{"access":"unknown","bicycle_pa":"stands","capacity":10,"covered":"no","fee":"","operator":"","nameSource":"junction"},"sourceId":"osm"},{"id":"osm:node:6450076805","latitude":41.358384,"longitude":2.1440573,"name":"Carrer del Foc near Carrer de l'Esparver","properties":{"access":"unknown","bicycle_pa":"stands","capacity":0,"covered":"no","fee":"","operator":"","nameSource":"junction"},"sourceId":"osm"},{"id":"osm:node:6565991370","latitude":41.3707012,"longitude":2.1307943,"name":"Carrer d'Antoni de Capmany near Carrer de Carreras i Candi","properties":{"access":"yes","bicycle_pa":"stands","capacity":12,"covered":"no","fee":"no","operator":"","nameSource":"junction"},"sourceId":"osm"},{"id":"osm:node:6567378027","latitude":41.3705988,"longitude":2.130479,"name":"Carrer de Carreras i Candi near Carrer d'Antoni de Capmany","properties":{"access":"yes","bicycle_pa":"stands","capacity":4,"covered":"no","fee":"no","operator":"","nameSource":"junction"},"sourceId":"osm"},{"id":"osm:node:6829512249","latitude":41.3711596,"longitude":2.1562029,"name":"Plaça d'Ovidi Montllor cycle parking","properties":{"access":"unknown","bicycle_pa":"stands","capacity":10,"covered":"no","fee":"no","operator":"http://ajuntament.barcelona.cat/bicicleta/ca","nameSource":"street"},"sourceId":"osm"},{"id":"osm:node:6929774887","latitude":41.37389,"longitude":2.15481,"name":"Carrer de Lleida near Carrer de Tamarit","properties":{"access":"unknown","bicycle_pa":"stands","capacity":0,"covered":"no","fee":"","operator":"","nameSource":"junction"},"sourceId":"osm"},{"id":"osm:node:6933371204","latitude":41.37676,"longitude":2.14976,"name":"Carrer de Llançà near Carrer de la Diputació","properties":{"access":"unknown","bicycle_pa":"","capacity":0,"covered":"no","fee":"","operator":"http://ajuntament.barcelona.cat/bicicleta/ca","nameSource":"junction"},"sourceId":"osm"},{"id":"osm:node:6933373004","latitude":41.37603,"longitude":2.15019,"name":"Gran Via de les Corts Catalanes near Carrer de Llançà","properties":{"access":"unknown","bicycle_pa":"stands","capacity":20,"covered":"no","fee":"","operator":"http://ajuntament.barcelona.cat/bicicleta/ca","nameSource":"junction"},"sourceId":"osm"},{"id":"osm:node:6933373189","latitude":41.37581,"longitude":2.1884,"name":"Pla de Miquel Tarradell near Passeig de Joan de Borbó","properties":{"access":"unknown","bicycle_pa":"stands","capacity":16,"covered":"no","fee":"","operator":"http://ajuntament.barcelona.cat/bicicleta/ca","nameSource":"junction"},"sourceId":"osm"},{"id":"osm:node:6933374487","latitude":41.3706,"longitude":2.13901,"name":"Carrer de Gavà near Carrer de Rossend Arús","properties":{"access":"unknown","bicycle_pa":"stands","capacity":14,"covered":"no","fee":"","operator":"http://ajuntament.barcelona.cat/bicicleta/ca","nameSource":"junction"},"sourceId":"osm"},{"id":"osm:node:6933374506","latitude":41.37552,"longitude":2.18916,"name":"Carrer de la Drassana near Passeig de Joan de Borbó","properties":{"access":"unknown","bicycle_pa":"stands","capacity":16,"covered":"no","fee":"","operator":"http://ajuntament.barcelona.cat/bicicleta/ca","nameSource":"junction"},"sourceId":"osm"},{"id":"osm:node:6933374618","latitude":41.37155,"longitude":2.15942,"name":"Carrer de Palma near Carrer de Sancho Marraco","properties":{"access":"unknown","bicycle_pa":"","capacity":0,"covered":"","fee":"","operator":"http://ajuntament.barcelona.cat/bicicleta/ca","nameSource":"junction"},"sourceId":"osm"},{"id":"osm:node:6933374631","latitude":41.37205,"longitude":2.16072,"name":"Carrer d'Anníbal near Carrer de Radas","properties":{"access":"unknown","bicycle_pa":"","capacity":0,"covered":"","fee":"","operator":"http://ajuntament.barcelona.cat/bicicleta/ca","nameSource":"junction"},"sourceId":"osm"},{"id":"osm:node:6933374660","latitude":41.37595,"longitude":2.16858,"name":"Carrer de les Flors near Carrer de Sant Pau","properties":{"access":"unknown","bicycle_pa":"","capacity":0,"covered":"","fee":"","operator":"http://ajuntament.barcelona.cat/bicicleta/ca","nameSource":"junction"},"sourceId":"osm"},{"id":"osm:node:6933374993","latitude":41.37216,"longitude":2.16585,"name":"Carrer del Roser near Carrer d'Elkano","properties":{"access":"unknown","bicycle_pa":"stands","capacity":14,"covered":"no","fee":"","operator":"http://ajuntament.barcelona.cat/bicicleta/ca","nameSource":"junction"},"sourceId":"osm"},{"id":"osm:node:6933375013","latitude":41.36173,"longitude":2.13593,"name":"Carrer de l'Amnistia Internacional near Carrer de Jane Addams","properties":{"access":"unknown","bicycle_pa":"stands","capacity":0,"covered":"no","fee":"","operator":"http://ajuntament.barcelona.cat/bicicleta/ca","nameSource":"junction"},"sourceId":"osm"},{"id":"osm:node:6933375090","latitude":41.3713,"longitude":2.14812,"name":"Carrer del Nord near Carrer d'Amposta","properties":{"access":"unknown","bicycle_pa":"stands","capacity":10,"covered":"no","fee":"","operator":"http://ajuntament.barcelona.cat/bicicleta/ca","nameSource":"junction"},"sourceId":"osm"},{"id":"osm:node:6933375091","latitude":41.36578,"longitude":2.13548,"name":"Plaça d'Ildefons Cerdà near Rambla de Badal","properties":{"access":"unknown","bicycle_pa":"stands","capacity":12,"covered":"no","fee":"","operator":"http://ajuntament.barcelona.cat/bicicleta/ca","nameSource":"junction"},"sourceId":"osm"},{"id":"osm:node:6933375111","latitude":41.36662,"longitude":2.14856,"name":"Camí de La Foixarda by Centre Municipal d'Escalada: CLIMBAT La Foixarda","properties":{"access":"unknown","bicycle_pa":"","capacity":0,"covered":"no","fee":"","operator":"http://ajuntament.barcelona.cat/bicicleta/ca","nameSource":"landmark"},"sourceId":"osm"},{"id":"osm:node:6933375124","latitude":41.37067,"longitude":2.14134,"name":"Carrer del Corral near Carrer de Navarra","properties":{"access":"unknown","bicycle_pa":"stands","capacity":10,"covered":"no","fee":"","operator":"http://ajuntament.barcelona.cat/bicicleta/ca","nameSource":"junction"},"sourceId":"osm"},{"id":"osm:node:6933375125","latitude":41.36924,"longitude":2.1395,"name":"Carrer de Viladecans near Carrer del Corral","properties":{"access":"unknown","bicycle_pa":"stands","capacity":10,"covered":"no","fee":"","operator":"http://ajuntament.barcelona.cat/bicicleta/ca","nameSource":"junction"},"sourceId":"osm"},{"id":"osm:node:6933376990","latitude":41.37082,"longitude":2.16493,"name":"Carrer del Roser near Passeig de l'Exposició","properties":{"access":"unknown","bicycle_pa":"","capacity":12,"covered":"","fee":"","operator":"http://ajuntament.barcelona.cat/bicicleta/ca","nameSource":"junction"},"sourceId":"osm"},{"id":"osm:node:6933379085","latitude":41.37485,"longitude":2.15741,"name":"Avinguda del Paral·lel near Carrer de Vallhonrat","properties":{"access":"unknown","bicycle_pa":"stands","capacity":6,"covered":"no","fee":"","operator":"http://ajuntament.barcelona.cat/bicicleta/ca","nameSource":"junction"},"sourceId":"osm"},{"id":"osm:node:6933379187","latitude":41.35001,"longitude":2.14213,"name":"Carrer dels Motors cycle parking","properties":{"access":"unknown","bicycle_pa":"","capacity":0,"covered":"","fee":"","operator":"http://ajuntament.barcelona.cat/bicicleta/ca","nameSource":"street"},"sourceId":"osm"},{"id":"osm:node:6933379192","latitude":41.37611,"longitude":2.17843,"name":"Ronda Litoral by 361 - Pg. Colom - Les Rambles","properties":{"access":"unknown","bicycle_pa":"stands","capacity":0,"covered":"no","fee":"","operator":"http://ajuntament.barcelona.cat/bicicleta/ca","nameSource":"landmark"},"sourceId":"osm"},{"id":"osm:node:6933486990","latitude":41.37629,"longitude":2.16823,"name":"Carrer de l'Hort de la Bomba near Carrer de la Reina Amàlia","properties":{"access":"unknown","bicycle_pa":"","capacity":0,"covered":"","fee":"","operator":"http://ajuntament.barcelona.cat/bicicleta/ca","nameSource":"junction"},"sourceId":"osm"},{"id":"osm:node:6933486999","latitude":41.37038,"longitude":2.1493,"name":"Avinguda de Francesc Ferrer i Guàrdia near Carrer dels Morabos","properties":{"access":"unknown","bicycle_pa":"stands","capacity":14,"covered":"no","fee":"","operator":"http://ajuntament.barcelona.cat/bicicleta/ca","nameSource":"junction"},"sourceId":"osm"},{"id":"osm:node:6933487025","latitude":41.3767,"longitude":2.13444,"name":"Carrer de Joan Güell near Passatge del Vapor Vell","properties":{"access":"unknown","bicycle_pa":"stands","capacity":0,"covered":"no","fee":"","operator":"http://ajuntament.barcelona.cat/bicicleta/ca","nameSource":"junction"},"sourceId":"osm"},{"id":"osm:node:6933487028","latitude":41.36589,"longitude":2.15386,"name":"Avinguda de l'Estadi cycle parking","properties":{"access":"unknown","bicycle_pa":"stands","capacity":10,"covered":"no","fee":"","operator":"http://ajuntament.barcelona.cat/bicicleta/ca","nameSource":"street"},"sourceId":"osm"},{"id":"osm:node:6933487029","latitude":41.3767,"longitude":2.13458,"name":"Carrer de Joan Güell near Passatge del Vapor Vell","properties":{"access":"unknown","bicycle_pa":"stands","capacity":0,"covered":"no","fee":"","operator":"http://ajuntament.barcelona.cat/bicicleta/ca","nameSource":"junction"},"sourceId":"osm"},{"id":"osm:node:6933487030","latitude":41.35905,"longitude":2.13573,"name":"Carrer de l'Energia near Carrer de la Foneria","properties":{"access":"unknown","bicycle_pa":"","capacity":0,"covered":"","fee":"","operator":"http://ajuntament.barcelona.cat/bicicleta/ca","nameSource":"junction"},"sourceId":"osm"},{"id":"osm:node:6933487102","latitude":41.37191,"longitude":2.15576,"name":"Carrer de Lleida near Carrer de la França Xica","properties":{"access":"unknown","bicycle_pa":"","capacity":0,"covered":"","fee":"","operator":"http://ajuntament.barcelona.cat/bicicleta/ca","nameSource":"junction"},"sourceId":"osm"},{"id":"osm:node:6933487141","latitude":41.3549852,"longitude":2.1455405,"name":"Carrer del Cisell near Carrer de l'Encuny","properties":{"access":"unknown","bicycle_pa":"","capacity":0,"covered":"","fee":"","operator":"http://ajuntament.barcelona.cat/bicicleta/ca","nameSource":"junction"},"sourceId":"osm"},{"id":"osm:node:6933487142","latitude":41.37571,"longitude":2.18732,"name":"Carrer de l'Escar near Moll dels Pescadors","properties":{"access":"unknown","bicycle_pa":"","capacity":0,"covered":"no","fee":"","operator":"http://ajuntament.barcelona.cat/bicicleta/ca","nameSource":"junction"},"sourceId":"osm"},{"id":"osm:node:6933487144","latitude":41.37155,"longitude":2.15432,"name":"Carrer de la Guàrdia Urbana near Carrer de Joaquim Blume","properties":{"access":"unknown","bicycle_pa":"","capacity":0,"covered":"","fee":"","operator":"http://ajuntament.barcelona.cat/bicicleta/ca","nameSource":"junction"},"sourceId":"osm"},{"id":"osm:node:6933487145","latitude":41.3745,"longitude":2.16787,"name":"Carrer de Vila i Vilà near Plaça de la Bella Dorita","properties":{"access":"unknown","bicycle_pa":"wall_loops","capacity":16,"covered":"no","fee":"","operator":"http://ajuntament.barcelona.cat/bicicleta/ca","nameSource":"junction"},"sourceId":"osm"},{"id":"osm:node:6933487146","latitude":41.37482,"longitude":2.16821,"name":"Avinguda del Paral·lel near Avinguda Paral·lel","properties":{"access":"unknown","bicycle_pa":"stands","capacity":10,"covered":"no","fee":"","operator":"http://ajuntament.barcelona.cat/bicicleta/ca","nameSource":"junction"},"sourceId":"osm"},{"id":"osm:node:6933487147","latitude":41.37177,"longitude":2.16679,"name":"Carrer Nou de la Rambla near Passeig de Montjuïc","properties":{"access":"unknown","bicycle_pa":"stands","capacity":20,"covered":"no","fee":"","operator":"http://ajuntament.barcelona.cat/bicicleta/ca","nameSource":"junction"},"sourceId":"osm"},{"id":"osm:node:6933487206","latitude":41.36298,"longitude":2.15754,"name":"Carrer del Doctor Font i Quer near Passeig Olímpic","properties":{"access":"unknown","bicycle_pa":"stands","capacity":0,"covered":"","fee":"","operator":"http://ajuntament.barcelona.cat/bicicleta/ca","nameSource":"junction"},"sourceId":"osm"},{"id":"osm:node:6933487216","latitude":41.37278,"longitude":2.1603,"name":"Carrer de Magalhaes near Carrer de Radas","properties":{"access":"unknown","bicycle_pa":"stands","capacity":20,"covered":"no","fee":"","operator":"http://ajuntament.barcelona.cat/bicicleta/ca","nameSource":"junction"},"sourceId":"osm"},{"id":"osm:node:6933487217","latitude":41.36816,"longitude":2.16012,"name":"Avinguda de Miramar cycle parking","properties":{"access":"unknown","bicycle_pa":"stands","capacity":10,"covered":"no","fee":"","operator":"http://ajuntament.barcelona.cat/bicicleta/ca","nameSource":"street"},"sourceId":"osm"},{"id":"osm:node:6933487218","latitude":41.36521,"longitude":2.14709,"name":"Avinguda de l'Estadi near Carrer dels Jocs del 92","properties":{"access":"unknown","bicycle_pa":"stands","capacity":8,"covered":"no","fee":"","operator":"http://ajuntament.barcelona.cat/bicicleta/ca","nameSource":"junction"},"sourceId":"osm"},{"id":"osm:node:6933487219","latitude":41.363,"longitude":2.15757,"name":"Carrer del Doctor Font i Quer near Passeig Olímpic","properties":{"access":"unknown","bicycle_pa":"stands","capacity":0,"covered":"","fee":"","operator":"http://ajuntament.barcelona.cat/bicicleta/ca","nameSource":"junction"},"sourceId":"osm"},{"id":"osm:node:6933487221","latitude":41.37274,"longitude":2.16693,"name":"Carrer d'en Fontrodona near Carrer de Blesa","properties":{"access":"unknown","bicycle_pa":"","capacity":0,"covered":"","fee":"","operator":"http://ajuntament.barcelona.cat/bicicleta/ca","nameSource":"junction"},"sourceId":"osm"},{"id":"osm:node:6933487289","latitude":41.37664,"longitude":2.17671,"name":"La Rambla near Carrer del Portal de Santa Madrona","properties":{"access":"unknown","bicycle_pa":"","capacity":0,"covered":"no","fee":"","operator":"http://ajuntament.barcelona.cat/bicicleta/ca","nameSource":"junction"},"sourceId":"osm"},{"id":"osm:node:6933487294","latitude":41.37534,"longitude":2.16967,"name":"Carrer de l'Abat Safont near Carrer de les Tàpies","properties":{"access":"unknown","bicycle_pa":"","capacity":0,"covered":"","fee":"","operator":"http://ajuntament.barcelona.cat/bicicleta/ca","nameSource":"junction"},"sourceId":"osm"},{"id":"osm:node:6933487386","latitude":41.350379,"longitude":2.1431825,"name":"Carrer dels Motors near Carrer de Pontils","properties":{"access":"unknown","bicycle_pa":"","capacity":0,"covered":"","fee":"","operator":"http://ajuntament.barcelona.cat/bicicleta/ca","nameSource":"junction"},"sourceId":"osm"},{"id":"osm:node:6933487390","latitude":41.37538,"longitude":2.17765,"name":"Passeig de Josep Carner near Plaça del Portal de la Pau","properties":{"access":"unknown","bicycle_pa":"","capacity":0,"covered":"no","fee":"","operator":"http://ajuntament.barcelona.cat/bicicleta/ca","nameSource":"junction"},"sourceId":"osm"},{"id":"osm:node:6933487392","latitude":41.3763,"longitude":2.16896,"name":"Carrer de Sant Pau near Carrer de les Carretes","properties":{"access":"unknown","bicycle_pa":"stands","capacity":4,"covered":"no","fee":"","operator":"http://ajuntament.barcelona.cat/bicicleta/ca","nameSource":"junction"},"sourceId":"osm"},{"id":"osm:node:6933487395","latitude":41.37506,"longitude":2.16998,"name":"Plaça de Raquel Meller near Avinguda del Paral·lel","properties":{"access":"unknown","bicycle_pa":"stands","capacity":12,"covered":"no","fee":"","operator":"http://ajuntament.barcelona.cat/bicicleta/ca","nameSource":"junction"},"sourceId":"osm"},{"id":"osm:node:6933487411","latitude":41.3733218,"longitude":2.1655145,"name":"Carrer de Blai near Carrer de Salvà","properties":{"access":"unknown","bicycle_pa":"stands","capacity":8,"covered":"no","fee":"","operator":"http://ajuntament.barcelona.cat/bicicleta/ca","nameSource":"junction"},"sourceId":"osm"},{"id":"osm:node:6933487458","latitude":41.37043,"longitude":2.14889,"name":"Carrer de la Dàlia near Carrer dels Montfar","properties":{"access":"unknown","bicycle_pa":"stands","capacity":12,"covered":"no","fee":"","operator":"http://ajuntament.barcelona.cat/bicicleta/ca","nameSource":"junction"},"sourceId":"osm"},{"id":"osm:node:6933487459","latitude":41.37417,"longitude":2.14765,"name":"Carretera de la Bordeta near Gran Via de les Corts Catalanes","properties":{"access":"unknown","bicycle_pa":"stands","capacity":12,"covered":"no","fee":"","operator":"http://ajuntament.barcelona.cat/bicicleta/ca","nameSource":"junction"},"sourceId":"osm"},{"id":"osm:node:6933487462","latitude":41.351228,"longitude":2.1375695,"name":"Carrer de l'Acer cycle parking","properties":{"access":"unknown","bicycle_pa":"","capacity":0,"covered":"","fee":"","operator":"http://ajuntament.barcelona.cat/bicicleta/ca","nameSource":"street"},"sourceId":"osm"},{"id":"osm:node:6933487467","latitude":41.37308,"longitude":2.14628,"name":"Gran Via de les Corts Catalanes near Gran Via de les Corts Catalanes (lateral muntanya)","properties":{"access":"unknown","bicycle_pa":"stands","capacity":18,"covered":"no","fee":"","operator":"http://ajuntament.barcelona.cat/bicicleta/ca","nameSource":"junction"},"sourceId":"osm"},{"id":"osm:node:6933487469","latitude":41.3641,"longitude":2.16722,"name":"Avinguda del Castell cycle parking","properties":{"access":"yes","bicycle_pa":"stands","capacity":20,"covered":"no","fee":"","operator":"http://ajuntament.barcelona.cat/bicicleta/ca","nameSource":"street"},"sourceId":"osm"},{"id":"osm:node:6933487471","latitude":41.3583,"longitude":2.14393,"name":"Carrer del Foc near Carrer de l'Esparver","properties":{"access":"unknown","bicycle_pa":"","capacity":0,"covered":"","fee":"","operator":"http://ajuntament.barcelona.cat/bicicleta/ca","nameSource":"junction"},"sourceId":"osm"},{"id":"osm:node:6933487699","latitude":41.36797,"longitude":2.13934,"name":"Gran Via de les Corts Catalanes near Carrer de Mossèn Amadeu Oller","properties":{"access":"unknown","bicycle_pa":"","capacity":0,"covered":"","fee":"","operator":"http://ajuntament.barcelona.cat/bicicleta/ca","nameSource":"junction"},"sourceId":"osm"},{"id":"osm:node:6933487704","latitude":41.37022,"longitude":2.13438,"name":"Carrer dels Masriera near Plaça del Fènix","properties":{"access":"unknown","bicycle_pa":"stands","capacity":14,"covered":"no","fee":"","operator":"http://ajuntament.barcelona.cat/bicicleta/ca","nameSource":"junction"},"sourceId":"osm"},{"id":"osm:node:6933487705","latitude":41.37331,"longitude":2.14477,"name":"Carretera de la Bordeta near Carrer d'Hostafrancs de Sió","properties":{"access":"unknown","bicycle_pa":"stands","capacity":8,"covered":"no","fee":"","operator":"http://ajuntament.barcelona.cat/bicicleta/ca","nameSource":"junction"},"sourceId":"osm"},{"id":"osm:node:6933487706","latitude":41.37483,"longitude":2.16702,"name":"Avinguda del Paral·lel near Carrer de Salvà","properties":{"access":"unknown","bicycle_pa":"stands","capacity":10,"covered":"no","fee":"","operator":"http://ajuntament.barcelona.cat/bicicleta/ca","nameSource":"junction"},"sourceId":"osm"},{"id":"osm:node:6933487792","latitude":41.37168,"longitude":2.15423,"name":"Carrer de Joaquim Blume near Carrer de la Guàrdia Urbana","properties":{"access":"unknown","bicycle_pa":"","capacity":0,"covered":"","fee":"","operator":"http://ajuntament.barcelona.cat/bicicleta/ca","nameSource":"junction"},"sourceId":"osm"},{"id":"osm:node:6933487793","latitude":41.37429,"longitude":2.1367,"name":"Plaça de Bonet i Moixí near Plaça d'Ibèria","properties":{"access":"unknown","bicycle_pa":"stands","capacity":10,"covered":"no","fee":"","operator":"http://ajuntament.barcelona.cat/bicicleta/ca","nameSource":"junction"},"sourceId":"osm"},{"id":"osm:node:6933487794","latitude":41.3745,"longitude":2.14409,"name":"Carrer de Vilardell near Carrer d'Hostafrancs de Sió","properties":{"access":"unknown","bicycle_pa":"stands","capacity":10,"covered":"no","fee":"","operator":"http://ajuntament.barcelona.cat/bicicleta/ca","nameSource":"junction"},"sourceId":"osm"},{"id":"osm:node:6933487795","latitude":41.36214,"longitude":2.15458,"name":"Passeig Olímpic by 527 - Pg. Olímpic 8","properties":{"access":"unknown","bicycle_pa":"","capacity":0,"covered":"","fee":"","operator":"http://ajuntament.barcelona.cat/bicicleta/ca","nameSource":"landmark"},"sourceId":"osm"},{"id":"osm:node:6933487796","latitude":41.37527,"longitude":2.13759,"name":"Carrer de Sants near Carrer de Cros","properties":{"access":"unknown","bicycle_pa":"stands","capacity":10,"covered":"no","fee":"","operator":"http://ajuntament.barcelona.cat/bicicleta/ca","nameSource":"junction"},"sourceId":"osm"},{"id":"osm:node:6933487889","latitude":41.36521,"longitude":2.14726,"name":"Avinguda de l'Estadi cycle parking","properties":{"access":"unknown","bicycle_pa":"stands","capacity":8,"covered":"no","fee":"","operator":"http://ajuntament.barcelona.cat/bicicleta/ca","nameSource":"street"},"sourceId":"osm"},{"id":"osm:node:6933487896","latitude":41.36533,"longitude":2.14551,"name":"Camí de La Foixarda near Carrer del Polvorí","properties":{"access":"unknown","bicycle_pa":"stands","capacity":4,"covered":"no","fee":"","operator":"http://ajuntament.barcelona.cat/bicicleta/ca","nameSource":"junction"},"sourceId":"osm"},{"id":"osm:node:6933487906","latitude":41.37255,"longitude":2.13977,"name":"Carrer de la Noguera Pallaresa near Carrer d'Alpens","properties":{"access":"unknown","bicycle_pa":"","capacity":0,"covered":"","fee":"","operator":"http://ajuntament.barcelona.cat/bicicleta/ca","nameSource":"junction"},"sourceId":"osm"},{"id":"osm:node:6933487911","latitude":41.37542,"longitude":2.12408,"name":"Carrer de Torns near Carrer de Sants","properties":{"access":"unknown","bicycle_pa":"stands","capacity":0,"covered":"no","fee":"","operator":"http://ajuntament.barcelona.cat/bicicleta/ca","nameSource":"junction"},"sourceId":"osm"},{"id":"osm:node:6933487927","latitude":41.37527,"longitude":2.15439,"name":"Carrer de Floridablanca near Carrer de Vilamarí","properties":{"access":"unknown","bicycle_pa":"","capacity":0,"covered":"","fee":"","operator":"http://ajuntament.barcelona.cat/bicicleta/ca","nameSource":"junction"},"sourceId":"osm"},{"id":"osm:node:6933488889","latitude":41.37484,"longitude":2.15866,"name":"Avinguda del Paral·lel near Carrer de Ricart","properties":{"access":"unknown","bicycle_pa":"stands","capacity":4,"covered":"no","fee":"","operator":"http://ajuntament.barcelona.cat/bicicleta/ca","nameSource":"junction"},"sourceId":"osm"},{"id":"osm:node:6933490595","latitude":41.36386,"longitude":2.13488,"name":"Gran Via de les Corts Catalanes near Passeig de la Zona Franca","properties":{"access":"unknown","bicycle_pa":"stands","capacity":10,"covered":"no","fee":"","operator":"http://ajuntament.barcelona.cat/bicicleta/ca","nameSource":"junction"},"sourceId":"osm"},{"id":"osm:node:6933490600","latitude":41.36863,"longitude":2.14094,"name":"Gran Via de les Corts Catalanes (lateral mar) near Gran Via de les Corts Catalanes","properties":{"access":"unknown","bicycle_pa":"","capacity":0,"covered":"","fee":"","operator":"http://ajuntament.barcelona.cat/bicicleta/ca","nameSource":"junction"},"sourceId":"osm"},{"id":"osm:node:6933490622","latitude":41.37406,"longitude":2.16466,"name":"Carrer de Tapioles near Carrer de Blai","properties":{"access":"unknown","bicycle_pa":"stands","capacity":10,"covered":"no","fee":"","operator":"http://ajuntament.barcelona.cat/bicicleta/ca","nameSource":"junction"},"sourceId":"osm"},{"id":"osm:node:6933490625","latitude":41.3544293,"longitude":2.1374318,"name":"Carrer de Miquel Porter i Moix near Carrer del Foc","properties":{"access":"unknown","bicycle_pa":"","capacity":0,"covered":"","fee":"","operator":"http://ajuntament.barcelona.cat/bicicleta/ca","nameSource":"junction"},"sourceId":"osm"},{"id":"osm:node:6933490627","latitude":41.37166,"longitude":2.15591,"name":"Carrer de Lleida near Carrer de Ricart","properties":{"access":"unknown","bicycle_pa":"","capacity":0,"covered":"","fee":"","operator":"http://ajuntament.barcelona.cat/bicicleta/ca","nameSource":"junction"},"sourceId":"osm"},{"id":"osm:node:6933490902","latitude":41.37473,"longitude":2.16176,"name":"Plaça dels Ocellets near Avinguda del Paral·lel","properties":{"access":"unknown","bicycle_pa":"stands","capacity":16,"covered":"no","fee":"","operator":"http://ajuntament.barcelona.cat/bicicleta/ca","nameSource":"junction"},"sourceId":"osm"},{"id":"osm:node:6933490908","latitude":41.3664,"longitude":2.15718,"name":"Avinguda de l'Estadi near Avinguda de l''Estadi","properties":{"access":"unknown","bicycle_pa":"stands","capacity":0,"covered":"","fee":"","operator":"http://ajuntament.barcelona.cat/bicicleta/ca","nameSource":"junction"},"sourceId":"osm"},{"id":"osm:node:6933490909","latitude":41.37539,"longitude":2.15424,"name":"Carrer de Vilamarí near Carrer de Floridablanca","properties":{"access":"unknown","bicycle_pa":"stands","capacity":0,"covered":"no","fee":"","operator":"http://ajuntament.barcelona.cat/bicicleta/ca","nameSource":"junction"},"sourceId":"osm"},{"id":"osm:node:6933490919","latitude":41.37349,"longitude":2.18912,"name":"Passeig del Mare Nostrum near Plaça del Mar","properties":{"access":"unknown","bicycle_pa":"","capacity":0,"covered":"","fee":"","operator":"http://ajuntament.barcelona.cat/bicicleta/ca","nameSource":"junction"},"sourceId":"osm"},{"id":"osm:node:6933490930","latitude":41.3751,"longitude":2.16838,"name":"Avinguda del Paral·lel near Avinguda Paral·lel","properties":{"access":"unknown","bicycle_pa":"","capacity":0,"covered":"no","fee":"","operator":"http://ajuntament.barcelona.cat/bicicleta/ca","nameSource":"junction"},"sourceId":"osm"},{"id":"osm:node:6933490944","latitude":41.36897,"longitude":2.14615,"name":"Carrer de La Foixarda near Avinguda de Francesc Ferrer i Guàrdia","properties":{"access":"unknown","bicycle_pa":"stands","capacity":10,"covered":"no","fee":"","operator":"http://ajuntament.barcelona.cat/bicicleta/ca","nameSource":"junction"},"sourceId":"osm"},{"id":"osm:node:6933490957","latitude":41.37205,"longitude":2.15999,"name":"Carrer de Palma near Carrer de la França Xica","properties":{"access":"unknown","bicycle_pa":"","capacity":0,"covered":"","fee":"","operator":"http://ajuntament.barcelona.cat/bicicleta/ca","nameSource":"junction"},"sourceId":"osm"},{"id":"osm:node:6933490958","latitude":41.37197,"longitude":2.15642,"name":"Carrer de Ricart near Carrer de la França Xica","properties":{"access":"unknown","bicycle_pa":"","capacity":0,"covered":"","fee":"","operator":"http://ajuntament.barcelona.cat/bicicleta/ca","nameSource":"junction"},"sourceId":"osm"},{"id":"osm:node:6933490959","latitude":41.37406,"longitude":2.15469,"name":"Carrer de Tamarit near Carrer de Lleida","properties":{"access":"unknown","bicycle_pa":"stands","capacity":0,"covered":"no","fee":"","operator":"http://ajuntament.barcelona.cat/bicicleta/ca","nameSource":"junction"},"sourceId":"osm"},{"id":"osm:node:6933490989","latitude":41.3572,"longitude":2.14186,"name":"Passeig de la Zona Franca near Plaça del Moviment Obrer","properties":{"access":"unknown","bicycle_pa":"","capacity":0,"covered":"no","fee":"","operator":"http://ajuntament.barcelona.cat/bicicleta/ca","nameSource":"junction"},"sourceId":"osm"},{"id":"osm:node:6933490990","latitude":41.36021,"longitude":2.13867,"name":"Passeig de la Zona Franca near Carrer de la Foneria","properties":{"access":"unknown","bicycle_pa":"","capacity":0,"covered":"","fee":"","operator":"http://ajuntament.barcelona.cat/bicicleta/ca","nameSource":"junction"},"sourceId":"osm"},{"id":"osm:node:6933490993","latitude":41.37024,"longitude":2.15506,"name":"Carrer de la Guàrdia Urbana near Passeig de Santa Madrona","properties":{"access":"unknown","bicycle_pa":"","capacity":0,"covered":"","fee":"","operator":"http://ajuntament.barcelona.cat/bicicleta/ca","nameSource":"junction"},"sourceId":"osm"},{"id":"osm:node:6933491088","latitude":41.3713914,"longitude":2.1435195,"name":"Carrer de Sant Pere d'Abanto near Gran Via de les Corts Catalanes","properties":{"access":"unknown","bicycle_pa":"","capacity":0,"covered":"no","fee":"","operator":"http://ajuntament.barcelona.cat/bicicleta/ca","nameSource":"junction"},"sourceId":"osm"},{"id":"osm:node:6933491089","latitude":41.37586,"longitude":2.14449,"name":"Carrer del Consell de Cent near Carrer de la Torre d'en Damians","properties":{"access":"unknown","bicycle_pa":"stands","capacity":10,"covered":"no","fee":"","operator":"http://ajuntament.barcelona.cat/bicicleta/ca","nameSource":"junction"},"sourceId":"osm"},{"id":"osm:node:6933491163","latitude":41.37551,"longitude":2.18862,"name":"Carrer de l'Escar near Passeig de Joan de Borbó","properties":{"access":"unknown","bicycle_pa":"stands","capacity":10,"covered":"no","fee":"","operator":"http://ajuntament.barcelona.cat/bicicleta/ca","nameSource":"junction"},"sourceId":"osm"},{"id":"osm:node:6933491170","latitude":41.37137,"longitude":2.15555,"name":"Carrer dels Segons Jocs Mediterranis near Carrer de Lleida","properties":{"access":"unknown","bicycle_pa":"","capacity":0,"covered":"","fee":"","operator":"http://ajuntament.barcelona.cat/bicicleta/ca","nameSource":"junction"},"sourceId":"osm"},{"id":"osm:node:6933491174","latitude":41.3761956,"longitude":2.1889458,"name":"Passeig de Joan de Borbó near Carrer del Judici","properties":{"access":"unknown","bicycle_pa":"stands","capacity":16,"covered":"no","fee":"","operator":"http://ajuntament.barcelona.cat/bicicleta/ca","nameSource":"junction"},"sourceId":"osm"},{"id":"osm:node:6933491175","latitude":41.3766,"longitude":2.19078,"name":"Passeig Marítim de la Barceloneta - Oriol Bohigas i Guardiola by 33 - Pontevedra 58B","properties":{"access":"unknown","bicycle_pa":"stands","capacity":20,"covered":"no","fee":"","operator":"http://ajuntament.barcelona.cat/bicicleta/ca","nameSource":"landmark"},"sourceId":"osm"},{"id":"osm:node:6933491183","latitude":41.37507,"longitude":2.16631,"name":"Avinguda del Paral·lel near Carrer del Poeta Cabanyes","properties":{"access":"unknown","bicycle_pa":"stands","capacity":8,"covered":"no","fee":"","operator":"http://ajuntament.barcelona.cat/bicicleta/ca","nameSource":"junction"},"sourceId":"osm"},{"id":"osm:node:6933492825","latitude":41.36079,"longitude":2.13963,"name":"Carrer de la Foneria near Carrer de la Mare de Déu de Port","properties":{"access":"unknown","bicycle_pa":"","capacity":0,"covered":"no","fee":"","operator":"http://ajuntament.barcelona.cat/bicicleta/ca","nameSource":"junction"},"sourceId":"osm"},{"id":"osm:node:6933492828","latitude":41.36138,"longitude":2.13594,"name":"Carrer de Jane Addams near Carrer de Francesc Boix i Campo","properties":{"access":"unknown","bicycle_pa":"","capacity":0,"covered":"","fee":"","operator":"http://ajuntament.barcelona.cat/bicicleta/ca","nameSource":"junction"},"sourceId":"osm"},{"id":"osm:node:6933492847","latitude":41.3718,"longitude":2.15904,"name":"Carrer de la Puríssima Concepció near Carrer de Sancho Marraco","properties":{"access":"unknown","bicycle_pa":"","capacity":0,"covered":"","fee":"","operator":"http://ajuntament.barcelona.cat/bicicleta/ca","nameSource":"junction"},"sourceId":"osm"},{"id":"osm:node:6933492849","latitude":41.37562,"longitude":2.19027,"name":"Carrer de la Drassana near Passeig Marítim de la Barceloneta - Oriol Bohigas i Guardiola","properties":{"access":"unknown","bicycle_pa":"stands","capacity":0,"covered":"no","fee":"","operator":"http://ajuntament.barcelona.cat/bicicleta/ca","nameSource":"junction"},"sourceId":"osm"},{"id":"osm:node:6933492850","latitude":41.37368,"longitude":2.1738,"name":"Carrer d'Albareda near Carrer de Puig i Xoriguer","properties":{"access":"unknown","bicycle_pa":"stands","capacity":20,"covered":"no","fee":"","operator":"http://ajuntament.barcelona.cat/bicicleta/ca","nameSource":"junction"},"sourceId":"osm"},{"id":"osm:node:6933492862","latitude":41.37163,"longitude":2.15093,"name":"Avinguda de Francesc Ferrer i Guàrdia near Avinguda de la Reina Maria Cristina","properties":{"access":"unknown","bicycle_pa":"stands","capacity":10,"covered":"yes","fee":"","operator":"http://ajuntament.barcelona.cat/bicicleta/ca","nameSource":"junction"},"sourceId":"osm"},{"id":"osm:node:6933492869","latitude":41.36182,"longitude":2.15353,"name":"Passeig Olímpic cycle parking","properties":{"access":"unknown","bicycle_pa":"stands","capacity":0,"covered":"no","fee":"","operator":"http://ajuntament.barcelona.cat/bicicleta/ca","nameSource":"street"},"sourceId":"osm"},{"id":"osm:node:6933492870","latitude":41.3642917,"longitude":2.1473189,"name":"Carrer dels Jocs del 92 by Institut Nacional d'Educació Física de Catalunya","properties":{"access":"unknown","bicycle_pa":"","capacity":0,"covered":"","fee":"","operator":"http://ajuntament.barcelona.cat/bicicleta/ca","nameSource":"landmark"},"sourceId":"osm"},{"id":"osm:node:6933492871","latitude":41.37131,"longitude":2.1573,"name":"Carrer de la Concòrdia by La Soleá","properties":{"access":"unknown","bicycle_pa":"","capacity":0,"covered":"","fee":"","operator":"http://ajuntament.barcelona.cat/bicicleta/ca","nameSource":"landmark"},"sourceId":"osm"},{"id":"osm:node:6933492876","latitude":41.36756,"longitude":2.13979,"name":"Plaça de Sarah Bernhardt near Gran Via de les Corts Catalanes","properties":{"access":"unknown","bicycle_pa":"stands","capacity":20,"covered":"no","fee":"","operator":"Ajuntament de Barcelona","nameSource":"junction"},"sourceId":"osm"},{"id":"osm:node:6933492885","latitude":41.36688,"longitude":2.13981,"name":"Carrer de la Mineria near Plaça de Sarah Bernhardt","properties":{"access":"unknown","bicycle_pa":"stands","capacity":20,"covered":"no","fee":"","operator":"http://ajuntament.barcelona.cat/bicicleta/ca","nameSource":"junction"},"sourceId":"osm"},{"id":"osm:node:6933492888","latitude":41.3767748,"longitude":2.1697363,"name":"Carrer de Sant Pau near Carrer de la Riereta","properties":{"access":"unknown","bicycle_pa":"stands","capacity":14,"covered":"no","fee":"","operator":"http://ajuntament.barcelona.cat/bicicleta/ca","nameSource":"junction"},"sourceId":"osm"},{"id":"osm:node:6933492903","latitude":41.3553748,"longitude":2.138676,"name":"Carrer de l'Urani near Carrer del Foc","properties":{"access":"yes","bicycle_pa":"stands","capacity":16,"covered":"no","fee":"no","operator":"Ajuntament de Barcelona","nameSource":"junction"},"sourceId":"osm"},{"id":"osm:node:6933492914","latitude":41.37657,"longitude":2.18878,"name":"Passeig de Joan de Borbó near Carrer del Judici","properties":{"access":"unknown","bicycle_pa":"stands","capacity":10,"covered":"no","fee":"","operator":"http://ajuntament.barcelona.cat/bicicleta/ca","nameSource":"junction"},"sourceId":"osm"},{"id":"osm:node:6933492917","latitude":41.36828,"longitude":2.15789,"name":"Passeig de Santa Madrona by Jardins de Laribal","properties":{"access":"unknown","bicycle_pa":"","capacity":14,"covered":"","fee":"","operator":"http://ajuntament.barcelona.cat/bicicleta/ca","nameSource":"landmark"},"sourceId":"osm"},{"id":"osm:node:6933492937","latitude":41.36903,"longitude":2.15603,"name":"Passeig de Santa Madrona near Carrer del Mirador del Palau Nacional","properties":{"access":"unknown","bicycle_pa":"","capacity":0,"covered":"","fee":"","operator":"http://ajuntament.barcelona.cat/bicicleta/ca","nameSource":"junction"},"sourceId":"osm"},{"id":"osm:node:6933492944","latitude":41.3684338,"longitude":2.1346152,"name":"Carrer de Parcerisa near Carrer del Quetzal","properties":{"access":"unknown","bicycle_pa":"stands","capacity":10,"covered":"no","fee":"","operator":"http://ajuntament.barcelona.cat/bicicleta/ca","nameSource":"junction"},"sourceId":"osm"},{"id":"osm:node:6933492946","latitude":41.36871,"longitude":2.13433,"name":"Carrer de Parcerisa by Tramendu El caliu de la brasa","properties":{"access":"unknown","bicycle_pa":"stands","capacity":10,"covered":"no","fee":"","operator":"http://ajuntament.barcelona.cat/bicicleta/ca","nameSource":"landmark"},"sourceId":"osm"},{"id":"osm:node:6933492948","latitude":41.37034,"longitude":2.14714,"name":"Carrer dels Montfar near Carrer de Valls","properties":{"access":"unknown","bicycle_pa":"stands","capacity":10,"covered":"no","fee":"","operator":"http://ajuntament.barcelona.cat/bicicleta/ca","nameSource":"junction"},"sourceId":"osm"},{"id":"osm:node:6933493906","latitude":41.36319,"longitude":2.1395,"name":"Carrer de la Mare de Déu de Port near Plaça de Teresa Claramunt","properties":{"access":"unknown","bicycle_pa":"stands","capacity":5,"covered":"no","fee":"","operator":"http://ajuntament.barcelona.cat/bicicleta/ca","nameSource":"junction"},"sourceId":"osm"},{"id":"osm:node:6933493922","latitude":41.36148,"longitude":2.13781,"name":"Passeig de la Zona Franca by Wala","properties":{"access":"unknown","bicycle_pa":"stands","capacity":10,"covered":"no","fee":"","operator":"http://ajuntament.barcelona.cat/bicicleta/ca","nameSource":"landmark"},"sourceId":"osm"},{"id":"osm:node:6933493923","latitude":41.3751,"longitude":2.15791,"name":"Avinguda del Paral·lel near Carrer de Vallhonrat","properties":{"access":"unknown","bicycle_pa":"stands","capacity":0,"covered":"no","fee":"","operator":"http://ajuntament.barcelona.cat/bicicleta/ca","nameSource":"junction"},"sourceId":"osm"},{"id":"osm:node:6933494016","latitude":41.37292,"longitude":2.15451,"name":"Avinguda de Rius i Taulet near Carrer de Lleida","properties":{"access":"unknown","bicycle_pa":"stands","capacity":0,"covered":"no","fee":"","operator":"http://ajuntament.barcelona.cat/bicicleta/ca","nameSource":"junction"},"sourceId":"osm"},{"id":"osm:node:6933494033","latitude":41.36992,"longitude":2.13777,"name":"Carrer de la Constitució near Carrer d'Olzinelles","properties":{"access":"unknown","bicycle_pa":"stands","capacity":10,"covered":"no","fee":"","operator":"http://ajuntament.barcelona.cat/bicicleta/ca","nameSource":"junction"},"sourceId":"osm"},{"id":"osm:node:6933494055","latitude":41.37095,"longitude":2.15699,"name":"Carrer de Lleida by Teatre Mercat de les Flors","properties":{"access":"unknown","bicycle_pa":"","capacity":0,"covered":"","fee":"","operator":"http://ajuntament.barcelona.cat/bicicleta/ca","nameSource":"landmark"},"sourceId":"osm"},{"id":"osm:node:6933494056","latitude":41.37025,"longitude":2.15863,"name":"Passeig de l'Exposició near Passeig de Santa Madrona","properties":{"access":"unknown","bicycle_pa":"","capacity":0,"covered":"","fee":"","operator":"http://ajuntament.barcelona.cat/bicicleta/ca","nameSource":"junction"},"sourceId":"osm"},{"id":"osm:node:6933494057","latitude":41.37043,"longitude":2.1585,"name":"Passeig de l'Exposició near Passeig de Santa Madrona","properties":{"access":"unknown","bicycle_pa":"","capacity":0,"covered":"","fee":"","operator":"http://ajuntament.barcelona.cat/bicicleta/ca","nameSource":"junction"},"sourceId":"osm"},{"id":"osm:node:6933494063","latitude":41.35925,"longitude":2.13335,"name":"Carrer del Platí by Tempura & Tapas","properties":{"access":"unknown","bicycle_pa":"stands","capacity":0,"covered":"no","fee":"","operator":"http://ajuntament.barcelona.cat/bicicleta/ca","nameSource":"landmark"},"sourceId":"osm"},{"id":"osm:node:6933494074","latitude":41.37485,"longitude":2.15774,"name":"Avinguda del Paral·lel near Carrer de Vallhonrat","properties":{"access":"unknown","bicycle_pa":"stands","capacity":10,"covered":"no","fee":"","operator":"http://ajuntament.barcelona.cat/bicicleta/ca","nameSource":"junction"},"sourceId":"osm"},{"id":"osm:node:6933494089","latitude":41.37156,"longitude":2.15077,"name":"Avinguda de Francesc Ferrer i Guàrdia near Avinguda de la Reina Maria Cristina","properties":{"access":"unknown","bicycle_pa":"","capacity":0,"covered":"","fee":"","operator":"http://ajuntament.barcelona.cat/bicicleta/ca","nameSource":"junction"},"sourceId":"osm"},{"id":"osm:node:6933494698","latitude":41.36586,"longitude":2.14445,"name":"Carrer del Polvorí cycle parking","properties":{"access":"unknown","bicycle_pa":"","capacity":0,"covered":"","fee":"","operator":"http://ajuntament.barcelona.cat/bicicleta/ca","nameSource":"street"},"sourceId":"osm"},{"id":"osm:node:6933494708","latitude":41.35211,"longitude":2.14171,"name":"Carrer de Cisquer near Carrer de Tortosa","properties":{"access":"unknown","bicycle_pa":"","capacity":0,"covered":"","fee":"","operator":"http://ajuntament.barcelona.cat/bicicleta/ca","nameSource":"junction"},"sourceId":"osm"},{"id":"osm:node:6933494718","latitude":41.37254,"longitude":2.1653,"name":"Carrer de Salvà near Carrer d'Elkano","properties":{"access":"unknown","bicycle_pa":"","capacity":0,"covered":"","fee":"","operator":"http://ajuntament.barcelona.cat/bicicleta/ca","nameSource":"junction"},"sourceId":"osm"},{"id":"osm:node:6933500288","latitude":41.375074,"longitude":2.1479454,"name":"Carrer de la Creu Coberta near Plaça d'Espanya","properties":{"access":"unknown","bicycle_pa":"stands","capacity":10,"covered":"no","fee":"","operator":"http://ajuntament.barcelona.cat/bicicleta/ca","nameSource":"junction"},"sourceId":"osm"},{"id":"osm:node:6933500289","latitude":41.37667,"longitude":2.14623,"name":"Carrer del Consell de Cent near Carrer de Béjar","properties":{"access":"unknown","bicycle_pa":"stands","capacity":10,"covered":"no","fee":"","operator":"http://ajuntament.barcelona.cat/bicicleta/ca","nameSource":"junction"},"sourceId":"osm"},{"id":"osm:node:6933501129","latitude":41.3755826,"longitude":2.1494552,"name":"Plaça d'Espanya near Gran Via de les Corts Catalanes","properties":{"access":"yes","bicycle_pa":"stands","capacity":16,"covered":"no","fee":"no","operator":"http://ajuntament.barcelona.cat/bicicleta/ca","nameSource":"junction"},"sourceId":"osm"},{"id":"osm:node:6933501130","latitude":41.37095,"longitude":2.14818,"name":"Carrer d'Amposta near Carrer de Valls","properties":{"access":"unknown","bicycle_pa":"stands","capacity":16,"covered":"no","fee":"","operator":"http://ajuntament.barcelona.cat/bicicleta/ca","nameSource":"junction"},"sourceId":"osm"},{"id":"osm:node:6933502286","latitude":41.3737,"longitude":2.15792,"name":"Carrer de l'Olivera near Carrer de Ricart","properties":{"access":"unknown","bicycle_pa":"","capacity":0,"covered":"no","fee":"","operator":"http://ajuntament.barcelona.cat/bicicleta/ca","nameSource":"junction"},"sourceId":"osm"},{"id":"osm:node:6933502287","latitude":41.37357,"longitude":2.1564,"name":"Carrer de Grases near Carrer de Vallhonrat","properties":{"access":"unknown","bicycle_pa":"","capacity":0,"covered":"","fee":"","operator":"http://ajuntament.barcelona.cat/bicicleta/ca","nameSource":"junction"},"sourceId":"osm"},{"id":"osm:node:6933502290","latitude":41.3766,"longitude":2.19031,"name":"Carrer del Baluard near Carrer del Judici","properties":{"access":"unknown","bicycle_pa":"stands","capacity":16,"covered":"no","fee":"","operator":"http://ajuntament.barcelona.cat/bicicleta/ca","nameSource":"junction"},"sourceId":"osm"},{"id":"osm:node:6933502297","latitude":41.37388,"longitude":2.14716,"name":"Carretera de la Bordeta near Gran Via de les Corts Catalanes","properties":{"access":"unknown","bicycle_pa":"stands","capacity":16,"covered":"no","fee":"","operator":"http://ajuntament.barcelona.cat/bicicleta/ca","nameSource":"junction"},"sourceId":"osm"},{"id":"osm:node:6933502310","latitude":41.37521,"longitude":2.14031,"name":"Carrer de la Creu Coberta near Carrer de Sants","properties":{"access":"unknown","bicycle_pa":"stands","capacity":16,"covered":"no","fee":"","operator":"http://ajuntament.barcelona.cat/bicicleta/ca","nameSource":"junction"},"sourceId":"osm"},{"id":"osm:node:6933502335","latitude":41.373,"longitude":2.13129,"name":"Rambla de Badal near Carrer de Canalejas","properties":{"access":"unknown","bicycle_pa":"stands","capacity":8,"covered":"no","fee":"","operator":"http://ajuntament.barcelona.cat/bicicleta/ca","nameSource":"junction"},"sourceId":"osm"},{"id":"osm:node:6933502367","latitude":41.37156,"longitude":2.14229,"name":"Carrer del Corral near Carrer del Moianès","properties":{"access":"unknown","bicycle_pa":"stands","capacity":16,"covered":"no","fee":"","operator":"http://ajuntament.barcelona.cat/bicicleta/ca","nameSource":"junction"},"sourceId":"osm"},{"id":"osm:node:6933502368","latitude":41.37351,"longitude":2.15464,"name":"Carrer de Lleida near Carrer de l'Olivera","properties":{"access":"unknown","bicycle_pa":"stands","capacity":0,"covered":"no","fee":"","operator":"http://ajuntament.barcelona.cat/bicicleta/ca","nameSource":"junction"},"sourceId":"osm"},{"id":"osm:node:6933504497","latitude":41.36966,"longitude":2.14232,"name":"Gran Via de les Corts Catalanes near Carrer de Mandoni","properties":{"access":"unknown","bicycle_pa":"","capacity":0,"covered":"","fee":"","operator":"http://ajuntament.barcelona.cat/bicicleta/ca","nameSource":"junction"},"sourceId":"osm"},{"id":"osm:node:6933504499","latitude":41.37295,"longitude":2.15564,"name":"Carrer de la Mare de Déu del Remei near Carrer de la Font Honrada","properties":{"access":"unknown","bicycle_pa":"stands","capacity":10,"covered":"no","fee":"","operator":"http://ajuntament.barcelona.cat/bicicleta/ca","nameSource":"junction"},"sourceId":"osm"},{"id":"osm:node:6933504693","latitude":41.36979,"longitude":2.13765,"name":"Carrer de Mossèn Amadeu Oller near Carrer de la Constitució","properties":{"access":"unknown","bicycle_pa":"stands","capacity":10,"covered":"no","fee":"","operator":"http://ajuntament.barcelona.cat/bicicleta/ca","nameSource":"junction"},"sourceId":"osm"},{"id":"osm:node:6933504742","latitude":41.37638,"longitude":2.17381,"name":"Avinguda de les Drassanes near Carrer del Cid","properties":{"access":"unknown","bicycle_pa":"","capacity":0,"covered":"","fee":"","operator":"http://ajuntament.barcelona.cat/bicicleta/ca","nameSource":"junction"},"sourceId":"osm"},{"id":"osm:node:6933504743","latitude":41.37303,"longitude":2.15762,"name":"Carrer de la Mare de Déu del Remei near Carrer de Ricart","properties":{"access":"unknown","bicycle_pa":"stands","capacity":8,"covered":"no","fee":"","operator":"http://ajuntament.barcelona.cat/bicicleta/ca","nameSource":"junction"},"sourceId":"osm"},{"id":"osm:node:6933504768","latitude":41.3733,"longitude":2.1658,"name":"Carrer de Salvà near Carrer de Blai","properties":{"access":"unknown","bicycle_pa":"stands","capacity":8,"covered":"no","fee":"","operator":"http://ajuntament.barcelona.cat/bicicleta/ca","nameSource":"junction"},"sourceId":"osm"},{"id":"osm:node:6933504770","latitude":41.37621,"longitude":2.15292,"name":"Carrer de Sepúlveda near Carrer de Vilamarí","properties":{"access":"unknown","bicycle_pa":"stands","capacity":10,"covered":"no","fee":"","operator":"http://ajuntament.barcelona.cat/bicicleta/ca","nameSource":"junction"},"sourceId":"osm"},{"id":"osm:node:6933504780","latitude":41.37621,"longitude":2.16837,"name":"Carrer de la Reina Amàlia near Carrer de l'Abat Safont","properties":{"access":"unknown","bicycle_pa":"","capacity":0,"covered":"","fee":"","operator":"http://ajuntament.barcelona.cat/bicicleta/ca","nameSource":"junction"},"sourceId":"osm"},{"id":"osm:node:6933504986","latitude":41.36949,"longitude":2.13878,"name":"Carrer de Bartomeu Pi near Carrer de Viladecans","properties":{"access":"unknown","bicycle_pa":"stands","capacity":10,"covered":"no","fee":"","operator":"http://ajuntament.barcelona.cat/bicicleta/ca","nameSource":"junction"},"sourceId":"osm"},{"id":"osm:node:6933504995","latitude":41.37113,"longitude":2.14429,"name":"Gran Via de les Corts Catalanes near Gran Via de les Corts Catalanes (lateral mar)","properties":{"access":"unknown","bicycle_pa":"stands","capacity":10,"covered":"no","fee":"","operator":"http://ajuntament.barcelona.cat/bicicleta/ca","nameSource":"junction"},"sourceId":"osm"},{"id":"osm:node:6933505017","latitude":41.36641,"longitude":2.15154,"name":"Avinguda de l'Estadi cycle parking","properties":{"access":"unknown","bicycle_pa":"","capacity":0,"covered":"","fee":"","operator":"http://ajuntament.barcelona.cat/bicicleta/ca","nameSource":"street"},"sourceId":"osm"},{"id":"osm:node:6933505018","latitude":41.37518,"longitude":2.15416,"name":"Avinguda del Paral·lel near Carrer de Vilamarí","properties":{"access":"unknown","bicycle_pa":"stands","capacity":0,"covered":"no","fee":"","operator":"http://ajuntament.barcelona.cat/bicicleta/ca","nameSource":"junction"},"sourceId":"osm"},{"id":"osm:node:6933505026","latitude":41.37462,"longitude":2.15549,"name":"Carrer de Tamarit near Carrer de la Font Honrada","properties":{"access":"unknown","bicycle_pa":"","capacity":0,"covered":"","fee":"","operator":"http://ajuntament.barcelona.cat/bicicleta/ca","nameSource":"junction"},"sourceId":"osm"},{"id":"osm:node:6933505028","latitude":41.37514,"longitude":2.19011,"name":"Carrer de la Drassana near Carrer de Sant Miquel","properties":{"access":"unknown","bicycle_pa":"","capacity":0,"covered":"no","fee":"","operator":"http://ajuntament.barcelona.cat/bicicleta/ca","nameSource":"junction"},"sourceId":"osm"},{"id":"osm:node:6933505062","latitude":41.37674,"longitude":2.16729,"name":"Carrer de la Reina Amàlia near Plaça de Josep M Folch i Torres","properties":{"access":"unknown","bicycle_pa":"","capacity":0,"covered":"","fee":"","operator":"http://ajuntament.barcelona.cat/bicicleta/ca","nameSource":"junction"},"sourceId":"osm"},{"id":"osm:node:6933505077","latitude":41.37194,"longitude":2.16515,"name":"Carrer de Salvà near Carrer de Magalhaes","properties":{"access":"unknown","bicycle_pa":"","capacity":0,"covered":"","fee":"","operator":"http://ajuntament.barcelona.cat/bicicleta/ca","nameSource":"junction"},"sourceId":"osm"},{"id":"osm:node:6933505083","latitude":41.36765,"longitude":2.15266,"name":"Avinguda dels Montanyans cycle parking","properties":{"access":"unknown","bicycle_pa":"stands","capacity":8,"covered":"no","fee":"","operator":"http://ajuntament.barcelona.cat/bicicleta/ca","nameSource":"street"},"sourceId":"osm"},{"id":"osm:node:6933505087","latitude":41.37662,"longitude":2.13699,"name":"Passeig de Sant Antoni near Carrer de Salou","properties":{"access":"unknown","bicycle_pa":"stands","capacity":18,"covered":"no","fee":"","operator":"http://ajuntament.barcelona.cat/bicicleta/ca","nameSource":"junction"},"sourceId":"osm"},{"id":"osm:node:6933505092","latitude":41.3722,"longitude":2.13794,"name":"Carrer de Rossend Arús near Plaça de la Farga","properties":{"access":"unknown","bicycle_pa":"stands","capacity":8,"covered":"no","fee":"","operator":"http://ajuntament.barcelona.cat/bicicleta/ca","nameSource":"junction"},"sourceId":"osm"},{"id":"osm:node:6933505097","latitude":41.374284,"longitude":2.1347086,"name":"Carrer d'Antoni de Capmany near Carrer dels Jocs Florals","properties":{"access":"unknown","bicycle_pa":"stands","capacity":12,"covered":"no","fee":"","operator":"http://ajuntament.barcelona.cat/bicicleta/ca","nameSource":"junction"},"sourceId":"osm"},{"id":"osm:node:6933505099","latitude":41.3753772,"longitude":2.1473644,"name":"Carrer de la Diputació near Carrer de la Creu Coberta","properties":{"access":"unknown","bicycle_pa":"stands","capacity":15,"covered":"no","fee":"","operator":"http://ajuntament.barcelona.cat/bicicleta/ca","nameSource":"junction"},"sourceId":"osm"},{"id":"osm:node:6933505141","latitude":41.35917,"longitude":2.13317,"name":"Carrer de l'Alumini near Carrer de Hannah Arendt","properties":{"access":"unknown","bicycle_pa":"","capacity":0,"covered":"","fee":"","operator":"http://ajuntament.barcelona.cat/bicicleta/ca","nameSource":"junction"},"sourceId":"osm"},{"id":"osm:node:6933505143","latitude":41.37245,"longitude":2.13947,"name":"Carrer de la Noguera Pallaresa near Carrer d'Alpens","properties":{"access":"unknown","bicycle_pa":"stands","capacity":14,"covered":"no","fee":"","operator":"http://ajuntament.barcelona.cat/bicicleta/ca","nameSource":"junction"},"sourceId":"osm"},{"id":"osm:node:6933505144","latitude":41.371944,"longitude":2.1566059,"name":"Plaça d'Ovidi Montllor cycle parking","properties":{"access":"yes","bicycle_pa":"building","capacity":0,"covered":"no","fee":"yes","operator":"http://ajuntament.barcelona.cat/bicicleta/ca","nameSource":"street"},"sourceId":"osm"},{"id":"osm:node:6933505153","latitude":41.37583,"longitude":2.189,"name":"Passeig de Joan de Borbó near Pla de Miquel Tarradell","properties":{"access":"unknown","bicycle_pa":"stands","capacity":0,"covered":"no","fee":"","operator":"http://ajuntament.barcelona.cat/bicicleta/ca","nameSource":"junction"},"sourceId":"osm"},{"id":"osm:node:6933505387","latitude":41.37658,"longitude":2.17479,"name":"Avinguda de les Drassanes near Carrer de Cervelló","properties":{"access":"unknown","bicycle_pa":"","capacity":0,"covered":"","fee":"","operator":"http://ajuntament.barcelona.cat/bicicleta/ca","nameSource":"junction"},"sourceId":"osm"},{"id":"osm:node:6933505388","latitude":41.37559,"longitude":2.17725,"name":"Plaça del Portal de la Pau near Passeig de Josep Carner","properties":{"access":"unknown","bicycle_pa":"","capacity":0,"covered":"no","fee":"","operator":"http://ajuntament.barcelona.cat/bicicleta/ca","nameSource":"junction"},"sourceId":"osm"},{"id":"osm:node:6933505389","latitude":41.37591,"longitude":2.1542,"name":"Avinguda de Mistral near Carrer de Vilamarí","properties":{"access":"unknown","bicycle_pa":"stands","capacity":10,"covered":"no","fee":"","operator":"http://ajuntament.barcelona.cat/bicicleta/ca","nameSource":"junction"},"sourceId":"osm"},{"id":"osm:node:6933505392","latitude":41.3756,"longitude":2.17217,"name":"Carrer de Sant Bertran near Carrer de Santa Madrona","properties":{"access":"unknown","bicycle_pa":"","capacity":0,"covered":"","fee":"","operator":"http://ajuntament.barcelona.cat/bicicleta/ca","nameSource":"junction"},"sourceId":"osm"},{"id":"osm:node:6933505393","latitude":41.37478,"longitude":2.16993,"name":"Carrer Nou de la Rambla near Avinguda del Paral·lel","properties":{"access":"unknown","bicycle_pa":"","capacity":0,"covered":"","fee":"","operator":"http://ajuntament.barcelona.cat/bicicleta/ca","nameSource":"junction"},"sourceId":"osm"},{"id":"osm:node:6933505394","latitude":41.37457,"longitude":2.16224,"name":"Carrer de Blai near Carrer de la Creu dels Molers","properties":{"access":"unknown","bicycle_pa":"stands","capacity":16,"covered":"no","fee":"","operator":"http://ajuntament.barcelona.cat/bicicleta/ca","nameSource":"junction"},"sourceId":"osm"},{"id":"osm:node:6933505402","latitude":41.3709086,"longitude":2.1889092,"name":"Passeig del Mare Nostrum by Sea You Barcelona","properties":{"access":"unknown","bicycle_pa":"","capacity":0,"covered":"","fee":"","operator":"","nameSource":"landmark"},"sourceId":"osm"},{"id":"osm:node:6933505406","latitude":41.3743,"longitude":2.13688,"name":"Plaça de Bonet i Moixí near Plaça d'Ibèria","properties":{"access":"unknown","bicycle_pa":"stands","capacity":10,"covered":"no","fee":"","operator":"http://ajuntament.barcelona.cat/bicicleta/ca","nameSource":"junction"},"sourceId":"osm"},{"id":"osm:node:6933505410","latitude":41.3745,"longitude":2.15416,"name":"Carrer de Lleida near Avinguda del Paral·lel","properties":{"access":"unknown","bicycle_pa":"","capacity":0,"covered":"","fee":"","operator":"http://ajuntament.barcelona.cat/bicicleta/ca","nameSource":"junction"},"sourceId":"osm"},{"id":"osm:node:6933505412","latitude":41.37548,"longitude":2.1629,"name":"Carrer de Viladomat near Carrer del Marquès de Campo Sagrado","properties":{"access":"unknown","bicycle_pa":"","capacity":0,"covered":"","fee":"","operator":"http://ajuntament.barcelona.cat/bicicleta/ca","nameSource":"junction"},"sourceId":"osm"},{"id":"osm:node:6933505437","latitude":41.37462,"longitude":2.1452,"name":"Carrer de Vilardell near Carrer de Sant Roc","properties":{"access":"unknown","bicycle_pa":"stands","capacity":10,"covered":"no","fee":"","operator":"http://ajuntament.barcelona.cat/bicicleta/ca","nameSource":"junction"},"sourceId":"osm"},{"id":"osm:node:6933505448","latitude":41.3761,"longitude":2.15327,"name":"Carrer de Sepúlveda near Carrer de Vilamarí","properties":{"access":"unknown","bicycle_pa":"","capacity":0,"covered":"","fee":"","operator":"http://ajuntament.barcelona.cat/bicicleta/ca","nameSource":"junction"},"sourceId":"osm"},{"id":"osm:node:6933505450","latitude":41.3762,"longitude":2.15332,"name":"Carrer de Sepúlveda near Carrer de Vilamarí","properties":{"access":"unknown","bicycle_pa":"","capacity":0,"covered":"","fee":"","operator":"http://ajuntament.barcelona.cat/bicicleta/ca","nameSource":"junction"},"sourceId":"osm"},{"id":"osm:node:6933505463","latitude":41.37441,"longitude":2.15548,"name":"Carrer de Tamarit near Carrer de la Font Honrada","properties":{"access":"unknown","bicycle_pa":"stands","capacity":24,"covered":"no","fee":"","operator":"http://ajuntament.barcelona.cat/bicicleta/ca","nameSource":"junction"},"sourceId":"osm"},{"id":"osm:node:6933505464","latitude":41.37441,"longitude":2.16117,"name":"Carrer de Radas near Carrer de la Concòrdia","properties":{"access":"unknown","bicycle_pa":"","capacity":0,"covered":"no","fee":"","operator":"http://ajuntament.barcelona.cat/bicicleta/ca","nameSource":"junction"},"sourceId":"osm"},{"id":"osm:node:6933505486","latitude":41.36921,"longitude":2.13343,"name":"Carrer de la Constitució near Rambla de Badal","properties":{"access":"unknown","bicycle_pa":"stands","capacity":10,"covered":"no","fee":"","operator":"http://ajuntament.barcelona.cat/bicicleta/ca","nameSource":"junction"},"sourceId":"osm"},{"id":"osm:node:6933505487","latitude":41.372035,"longitude":2.189072,"name":"Passeig del Mare Nostrum cycle parking","properties":{"access":"unknown","bicycle_pa":"","capacity":0,"covered":"no","fee":"","operator":"http://ajuntament.barcelona.cat/bicicleta/ca","nameSource":"street"},"sourceId":"osm"},{"id":"osm:node:6933505506","latitude":41.37159,"longitude":2.16431,"name":"Carrer del Poeta Cabanyes near Carrer de Magalhaes","properties":{"access":"unknown","bicycle_pa":"stands","capacity":10,"covered":"no","fee":"","operator":"http://ajuntament.barcelona.cat/bicicleta/ca","nameSource":"junction"},"sourceId":"osm"},{"id":"osm:node:6933505519","latitude":41.3748,"longitude":2.16024,"name":"Avinguda del Paral·lel near Carrer de Jaume Fabra","properties":{"access":"unknown","bicycle_pa":"stands","capacity":10,"covered":"no","fee":"","operator":"http://ajuntament.barcelona.cat/bicicleta/ca","nameSource":"junction"},"sourceId":"osm"},{"id":"osm:node:6933505571","latitude":41.3728,"longitude":2.16635,"name":"Carrer del Roser near Carrer de Blai","properties":{"access":"unknown","bicycle_pa":"","capacity":0,"covered":"no","fee":"","operator":"http://ajuntament.barcelona.cat/bicicleta/ca","nameSource":"junction"},"sourceId":"osm"},{"id":"osm:node:6933505579","latitude":41.36752,"longitude":2.15276,"name":"Avinguda dels Montanyans cycle parking","properties":{"access":"unknown","bicycle_pa":"stands","capacity":8,"covered":"no","fee":"","operator":"http://ajuntament.barcelona.cat/bicicleta/ca","nameSource":"street"},"sourceId":"osm"},{"id":"osm:node:6933509491","latitude":41.3735983,"longitude":2.1648015,"name":"Carrer de Blai near Carrer de Tapioles","properties":{"access":"unknown","bicycle_pa":"stands","capacity":15,"covered":"no","fee":"","operator":"http://ajuntament.barcelona.cat/bicicleta/ca","nameSource":"junction"},"sourceId":"osm"},{"id":"osm:node:6933509493","latitude":41.374536,"longitude":2.1434839,"name":"Carrer de Vilardell near Carrer de l'Àliga","properties":{"access":"unknown","bicycle_pa":"","capacity":0,"covered":"","fee":"","operator":"http://ajuntament.barcelona.cat/bicicleta/ca","nameSource":"junction"},"sourceId":"osm"},{"id":"osm:node:6933509511","latitude":41.37186,"longitude":2.16947,"name":"Carrer de Cabanes near Passeig de Montjuïc","properties":{"access":"unknown","bicycle_pa":"stands","capacity":8,"covered":"no","fee":"","operator":"http://ajuntament.barcelona.cat/bicicleta/ca","nameSource":"junction"},"sourceId":"osm"},{"id":"osm:node:6933509530","latitude":41.36742,"longitude":2.15258,"name":"Avinguda dels Montanyans cycle parking","properties":{"access":"unknown","bicycle_pa":"","capacity":0,"covered":"","fee":"","operator":"http://ajuntament.barcelona.cat/bicicleta/ca","nameSource":"street"},"sourceId":"osm"},{"id":"osm:node:6933509535","latitude":41.37592,"longitude":2.13864,"name":"Plaça d'Osca near Carrer de Riego","properties":{"access":"unknown","bicycle_pa":"stands","capacity":0,"covered":"no","fee":"","operator":"http://ajuntament.barcelona.cat/bicicleta/ca","nameSource":"junction"},"sourceId":"osm"},{"id":"osm:node:6933509536","latitude":41.36564,"longitude":2.13634,"name":"Gran Via de les Corts Catalanes (lateral muntanya) near Plaça d'Ildefons Cerdà","properties":{"access":"unknown","bicycle_pa":"stands","capacity":10,"covered":"no","fee":"","operator":"http://ajuntament.barcelona.cat/bicicleta/ca","nameSource":"junction"},"sourceId":"osm"},{"id":"osm:node:6933509542","latitude":41.3700507,"longitude":2.1339021,"name":"Carrer de Súria near Carrer de la Riera de Tena","properties":{"access":"unknown","bicycle_pa":"stands","capacity":6,"covered":"no","fee":"","operator":"http://ajuntament.barcelona.cat/bicicleta/ca","nameSource":"junction"},"sourceId":"osm"},{"id":"osm:node:6933509558","latitude":41.37053,"longitude":2.1389,"name":"Carrer de Gavà near Carrer de Rossend Arús","properties":{"access":"unknown","bicycle_pa":"stands","capacity":8,"covered":"no","fee":"","operator":"http://ajuntament.barcelona.cat/bicicleta/ca","nameSource":"junction"},"sourceId":"osm"},{"id":"osm:node:6933509563","latitude":41.37663,"longitude":2.19063,"name":"Passeig Marítim de la Barceloneta - Oriol Bohigas i Guardiola by 33 - Pontevedra 58B","properties":{"access":"unknown","bicycle_pa":"stands","capacity":16,"covered":"no","fee":"","operator":"http://ajuntament.barcelona.cat/bicicleta/ca","nameSource":"landmark"},"sourceId":"osm"},{"id":"osm:node:6933509575","latitude":41.37292,"longitude":2.15886,"name":"Carrer de la Mare de Déu del Remei near Carrer de les Pedreres","properties":{"access":"unknown","bicycle_pa":"","capacity":0,"covered":"no","fee":"","operator":"http://ajuntament.barcelona.cat/bicicleta/ca","nameSource":"junction"},"sourceId":"osm"},{"id":"osm:node:6933509797","latitude":41.36597,"longitude":2.15476,"name":"Avinguda de l'Estadi cycle parking","properties":{"access":"unknown","bicycle_pa":"","capacity":0,"covered":"","fee":"","operator":"http://ajuntament.barcelona.cat/bicicleta/ca","nameSource":"street"},"sourceId":"osm"},{"id":"osm:node:6933509798","latitude":41.36863,"longitude":2.15205,"name":"Avinguda dels Montanyans near Carrer Mirador del Palau Nacional","properties":{"access":"unknown","bicycle_pa":"stands","capacity":10,"covered":"no","fee":"","operator":"http://ajuntament.barcelona.cat/bicicleta/ca","nameSource":"junction"},"sourceId":"osm"},{"id":"osm:node:6933509833","latitude":41.37465,"longitude":2.14286,"name":"Carrer de Vilardell near Carrer del Moianès","properties":{"access":"unknown","bicycle_pa":"stands","capacity":14,"covered":"no","fee":"","operator":"http://ajuntament.barcelona.cat/bicicleta/ca","nameSource":"junction"},"sourceId":"osm"},{"id":"osm:node:6933509834","latitude":41.37267,"longitude":2.14127,"name":"Plaça de la Vidriera near Carrer de la Noguera Pallaresa","properties":{"access":"unknown","bicycle_pa":"stands","capacity":10,"covered":"no","fee":"","operator":"http://ajuntament.barcelona.cat/bicicleta/ca","nameSource":"junction"},"sourceId":"osm"},{"id":"osm:node:6933509846","latitude":41.37621,"longitude":2.1665,"name":"Ronda de Sant Pau near Carrer d'Aldana","properties":{"access":"unknown","bicycle_pa":"","capacity":0,"covered":"","fee":"","operator":"http://ajuntament.barcelona.cat/bicicleta/ca","nameSource":"junction"},"sourceId":"osm"},{"id":"osm:node:6933511630","latitude":41.3729,"longitude":2.15618,"name":"Carrer de la Mare de Déu del Remei near Carrer de la Font Honrada","properties":{"access":"unknown","bicycle_pa":"stands","capacity":10,"covered":"no","fee":"","operator":"http://ajuntament.barcelona.cat/bicicleta/ca","nameSource":"junction"},"sourceId":"osm"},{"id":"osm:node:6933513687","latitude":41.37193,"longitude":2.15393,"name":"Carrer de la Guàrdia Urbana near Carrer de Joaquim Blume","properties":{"access":"unknown","bicycle_pa":"","capacity":0,"covered":"","fee":"","operator":"http://ajuntament.barcelona.cat/bicicleta/ca","nameSource":"junction"},"sourceId":"osm"},{"id":"osm:node:6933513688","latitude":41.37122,"longitude":2.15001,"name":"Avinguda de Francesc Ferrer i Guàrdia near Carrer de Mèxic","properties":{"access":"unknown","bicycle_pa":"stands","capacity":10,"covered":"no","fee":"","operator":"http://ajuntament.barcelona.cat/bicicleta/ca","nameSource":"junction"},"sourceId":"osm"},{"id":"osm:node:6933513694","latitude":41.3759653,"longitude":2.1171486,"name":"Avinguda de Sant Ramon Nonat near Carretera de Collblanc","properties":{"access":"unknown","bicycle_pa":"stands","capacity":8,"covered":"no","fee":"","operator":"http://ajuntament.barcelona.cat/bicicleta/ca","nameSource":"junction"},"sourceId":"osm"},{"id":"osm:node:6933513701","latitude":41.37279,"longitude":2.17317,"name":"Carrer de Puig i Xoriguer near Carrer de Vila i Vilà","properties":{"access":"unknown","bicycle_pa":"","capacity":0,"covered":"no","fee":"","operator":"http://ajuntament.barcelona.cat/bicicleta/ca","nameSource":"junction"},"sourceId":"osm"},{"id":"osm:node:6933513724","latitude":41.37174,"longitude":2.13699,"name":"Carrer d'Olzinelles near Carrer de la Noguera Pallaresa","properties":{"access":"unknown","bicycle_pa":"stands","capacity":8,"covered":"no","fee":"","operator":"http://ajuntament.barcelona.cat/bicicleta/ca","nameSource":"junction"},"sourceId":"osm"},{"id":"osm:node:6933513729","latitude":41.37293,"longitude":2.1574,"name":"Carrer de la Mare de Déu del Remei near Carrer de Ricart","properties":{"access":"unknown","bicycle_pa":"stands","capacity":10,"covered":"no","fee":"","operator":"http://ajuntament.barcelona.cat/bicicleta/ca","nameSource":"junction"},"sourceId":"osm"},{"id":"osm:node:6933513732","latitude":41.37292,"longitude":2.15893,"name":"Carrer de la Mare de Déu del Remei near Carrer de les Pedreres","properties":{"access":"unknown","bicycle_pa":"","capacity":0,"covered":"no","fee":"","operator":"http://ajuntament.barcelona.cat/bicicleta/ca","nameSource":"junction"},"sourceId":"osm"},{"id":"osm:node:6933513738","latitude":41.3715,"longitude":2.14999,"name":"Carrer de Mèxic near Avinguda de Francesc Ferrer i Guàrdia","properties":{"access":"unknown","bicycle_pa":"stands","capacity":8,"covered":"no","fee":"","operator":"http://ajuntament.barcelona.cat/bicicleta/ca","nameSource":"junction"},"sourceId":"osm"},{"id":"osm:node:6933513740","latitude":41.37635,"longitude":2.16005,"name":"Carrer de Manso near Carrer de Calàbria","properties":{"access":"unknown","bicycle_pa":"","capacity":0,"covered":"no","fee":"","operator":"http://ajuntament.barcelona.cat/bicicleta/ca","nameSource":"junction"},"sourceId":"osm"},{"id":"osm:node:6933519787","latitude":41.37666,"longitude":2.16962,"name":"Carrer de Sant Pau near Carrer de l'Arc de Sant Pau","properties":{"access":"unknown","bicycle_pa":"stands","capacity":12,"covered":"no","fee":"","operator":"http://ajuntament.barcelona.cat/bicicleta/ca","nameSource":"junction"},"sourceId":"osm"},{"id":"osm:node:6933520095","latitude":41.3753,"longitude":2.14263,"name":"Carrer de la Creu Coberta near Carrer del Moianès","properties":{"access":"unknown","bicycle_pa":"stands","capacity":10,"covered":"no","fee":"","operator":"http://ajuntament.barcelona.cat/bicicleta/ca","nameSource":"junction"},"sourceId":"osm"},{"id":"osm:node:6933520096","latitude":41.37559,"longitude":2.13501,"name":"Carrer de Joan Güell near Carrer de Sants","properties":{"access":"unknown","bicycle_pa":"stands","capacity":10,"covered":"no","fee":"","operator":"http://ajuntament.barcelona.cat/bicicleta/ca","nameSource":"junction"},"sourceId":"osm"},{"id":"osm:node:6933521889","latitude":41.37538,"longitude":2.15898,"name":"Carrer de Manso near Carrer de Rocafort","properties":{"access":"unknown","bicycle_pa":"stands","capacity":6,"covered":"no","fee":"","operator":"http://ajuntament.barcelona.cat/bicicleta/ca","nameSource":"junction"},"sourceId":"osm"},{"id":"osm:node:6933521897","latitude":41.37516,"longitude":2.13029,"name":"Rambla de Badal near Carrer de Sants","properties":{"access":"unknown","bicycle_pa":"stands","capacity":0,"covered":"no","fee":"","operator":"http://ajuntament.barcelona.cat/bicicleta/ca","nameSource":"junction"},"sourceId":"osm"},{"id":"osm:node:6933521899","latitude":41.37069,"longitude":2.15613,"name":"Carrer de Lleida near Passeig de Santa Madrona","properties":{"access":"unknown","bicycle_pa":"","capacity":0,"covered":"","fee":"","operator":"http://ajuntament.barcelona.cat/bicicleta/ca","nameSource":"junction"},"sourceId":"osm"},{"id":"osm:node:6933521910","latitude":41.37668,"longitude":2.15681,"name":"Avinguda de Mistral near Carrer de Rocafort","properties":{"access":"unknown","bicycle_pa":"stands","capacity":10,"covered":"no","fee":"","operator":"http://ajuntament.barcelona.cat/bicicleta/ca","nameSource":"junction"},"sourceId":"osm"},{"id":"osm:node:6933522085","latitude":41.37413,"longitude":2.16334,"name":"Carrer de Blai near Carrer de Blasco de Garay","properties":{"access":"unknown","bicycle_pa":"stands","capacity":10,"covered":"no","fee":"","operator":"http://ajuntament.barcelona.cat/bicicleta/ca","nameSource":"junction"},"sourceId":"osm"},{"id":"osm:node:6933522090","latitude":41.37533,"longitude":2.15669,"name":"Carrer de Tamarit near Avinguda del Paral·lel","properties":{"access":"unknown","bicycle_pa":"stands","capacity":0,"covered":"no","fee":"","operator":"http://ajuntament.barcelona.cat/bicicleta/ca","nameSource":"junction"},"sourceId":"osm"},{"id":"osm:node:6933524385","latitude":41.37539,"longitude":2.16728,"name":"Ronda de Sant Pau near Avinguda del Paral·lel","properties":{"access":"unknown","bicycle_pa":"stands","capacity":8,"covered":"no","fee":"","operator":"http://ajuntament.barcelona.cat/bicicleta/ca","nameSource":"junction"},"sourceId":"osm"},{"id":"osm:node:6933524386","latitude":41.37151,"longitude":2.16173,"name":"Passeig de l'Exposició near Carrer de Blasco de Garay","properties":{"access":"unknown","bicycle_pa":"","capacity":8,"covered":"","fee":"","operator":"http://ajuntament.barcelona.cat/bicicleta/ca","nameSource":"junction"},"sourceId":"osm"},{"id":"osm:node:6933524392","latitude":41.3758,"longitude":2.15777,"name":"Carrer de Rocafort near Carrer de Tamarit","properties":{"access":"unknown","bicycle_pa":"","capacity":0,"covered":"","fee":"","operator":"http://ajuntament.barcelona.cat/bicicleta/ca","nameSource":"junction"},"sourceId":"osm"},{"id":"osm:node:6933524396","latitude":41.37534,"longitude":2.16064,"name":"Carrer de Calàbria near Avinguda del Paral·lel","properties":{"access":"unknown","bicycle_pa":"","capacity":0,"covered":"","fee":"","operator":"http://ajuntament.barcelona.cat/bicicleta/ca","nameSource":"junction"},"sourceId":"osm"},{"id":"osm:node:6933526499","latitude":41.37664,"longitude":2.19064,"name":"Passeig Marítim de la Barceloneta - Oriol Bohigas i Guardiola by 33 - Pontevedra 58B","properties":{"access":"unknown","bicycle_pa":"stands","capacity":16,"covered":"no","fee":"","operator":"http://ajuntament.barcelona.cat/bicicleta/ca","nameSource":"landmark"},"sourceId":"osm"},{"id":"osm:node:6933526500","latitude":41.37542,"longitude":2.16109,"name":"Carrer del Parlament near Carrer de Calàbria","properties":{"access":"unknown","bicycle_pa":"","capacity":0,"covered":"","fee":"","operator":"http://ajuntament.barcelona.cat/bicicleta/ca","nameSource":"junction"},"sourceId":"osm"},{"id":"osm:node:6933526588","latitude":41.37614,"longitude":2.13845,"name":"Plaça d'Osca near Carrer de Riego","properties":{"access":"unknown","bicycle_pa":"stands","capacity":8,"covered":"no","fee":"","operator":"http://ajuntament.barcelona.cat/bicicleta/ca","nameSource":"junction"},"sourceId":"osm"},{"id":"osm:node:6933528087","latitude":41.37485,"longitude":2.15558,"name":"Carrer de Tamarit near Avinguda del Paral·lel","properties":{"access":"unknown","bicycle_pa":"stands","capacity":8,"covered":"no","fee":"","operator":"http://ajuntament.barcelona.cat/bicicleta/ca","nameSource":"junction"},"sourceId":"osm"},{"id":"osm:node:6984255047","latitude":41.3674834,"longitude":2.1337918,"name":"Carrer del Quetzal near Rambla de Badal","properties":{"access":"unknown","bicycle_pa":"stands","capacity":10,"covered":"no","fee":"","operator":"","nameSource":"junction"},"sourceId":"osm"},{"id":"osm:node:6984371334","latitude":41.3706438,"longitude":2.1320484,"name":"Rambla de Badal near Carrer d'Andalusia","properties":{"access":"unknown","bicycle_pa":"rack","capacity":10,"covered":"","fee":"","operator":"","nameSource":"junction"},"sourceId":"osm"},{"id":"osm:node:6984514527","latitude":41.3658609,"longitude":2.1326161,"name":"Jardins del Bisbe Joan Carrera near Carrer de la Riera Blanca","properties":{"access":"unknown","bicycle_pa":"rack","capacity":18,"covered":"","fee":"","operator":"","nameSource":"junction"},"sourceId":"osm"},{"id":"osm:node:6984514528","latitude":41.3660001,"longitude":2.1324964,"name":"Jardins del Bisbe Joan Carrera near Carrer de la Riera Blanca","properties":{"access":"unknown","bicycle_pa":"rack","capacity":24,"covered":"","fee":"","operator":"","nameSource":"junction"},"sourceId":"osm"},{"id":"osm:node:6984514529","latitude":41.3658081,"longitude":2.1326618,"name":"Jardins del Bisbe Joan Carrera near Avinguda del Carrilet","properties":{"access":"unknown","bicycle_pa":"rack","capacity":22,"covered":"","fee":"","operator":"","nameSource":"junction"},"sourceId":"osm"},{"id":"osm:node:7003229243","latitude":41.3716583,"longitude":2.1289359,"name":"Carrer de Carreras i Candi near Carrer de Pavia","properties":{"access":"unknown","bicycle_pa":"stands","capacity":4,"covered":"no","fee":"","operator":"","nameSource":"junction"},"sourceId":"osm"},{"id":"osm:node:7003283280","latitude":41.3711586,"longitude":2.129647,"name":"Carrer d'Esteràs near Carrer de Carreras i Candi","properties":{"access":"unknown","bicycle_pa":"stands","capacity":4,"covered":"no","fee":"","operator":"","nameSource":"junction"},"sourceId":"osm"},{"id":"osm:node:7515798450","latitude":41.3681597,"longitude":2.1269458,"name":"Carrer de Santiago Ramón y Cajal near Avinguda del Metro","properties":{"access":"yes","bicycle_pa":"stands","capacity":6,"covered":"no","fee":"no","operator":"Ajuntament de l'Hospitalet de Llobregat","nameSource":"junction"},"sourceId":"osm"},{"id":"osm:node:7515808721","latitude":41.361868,"longitude":2.1301872,"name":"Carrer Transversal near Carrer de l'Alhambra","properties":{"access":"yes","bicycle_pa":"stands","capacity":10,"covered":"no","fee":"no","operator":"Ajuntament de l'Hospitalet de Llobregat","nameSource":"junction"},"sourceId":"osm"},{"id":"osm:node:7515810920","latitude":41.3669352,"longitude":2.1236328,"name":"Plaça de Frederica Montseny near Carrer de Clara Campoamor","properties":{"access":"yes","bicycle_pa":"stands","capacity":10,"covered":"no","fee":"no","operator":"Ajuntament de l'Hospitalet de Llobregat","nameSource":"junction"},"sourceId":"osm"},{"id":"osm:node:7515810921","latitude":41.3669491,"longitude":2.1236929,"name":"Plaça de Frederica Montseny near Carrer de Clara Campoamor","properties":{"access":"yes","bicycle_pa":"stands","capacity":10,"covered":"no","fee":"no","operator":"Ajuntament de l'Hospitalet de Llobregat","nameSource":"junction"},"sourceId":"osm"},{"id":"osm:node:7515810922","latitude":41.3629982,"longitude":2.1292786,"name":"Carrer de l'Alhambra cycle parking","properties":{"access":"yes","bicycle_pa":"stands","capacity":10,"covered":"no","fee":"no","operator":"Ajuntament de l'Hospitalet de Llobregat","nameSource":"street"},"sourceId":"osm"},{"id":"osm:node:7515810923","latitude":41.3675594,"longitude":2.1228586,"name":"Carrer de Clara Campoamor near Passatge de Salvadors","properties":{"access":"yes","bicycle_pa":"stands","capacity":10,"covered":"no","fee":"no","operator":"Ajuntament de l'Hospitalet de Llobregat","nameSource":"junction"},"sourceId":"osm"},{"id":"osm:node:7515810924","latitude":41.3653856,"longitude":2.1277701,"name":"Carrer de la Unió near Carrer de Pareto","properties":{"access":"yes","bicycle_pa":"stands","capacity":10,"covered":"no","fee":"no","operator":"Ajuntament de l'Hospitalet de Llobregat","nameSource":"junction"},"sourceId":"osm"},{"id":"osm:node:7515810925","latitude":41.3676022,"longitude":2.1228464,"name":"Carrer de Clara Campoamor near Passatge de Salvadors","properties":{"access":"yes","bicycle_pa":"stands","capacity":10,"covered":"no","fee":"no","operator":"Ajuntament de l'Hospitalet de Llobregat","nameSource":"junction"},"sourceId":"osm"},{"id":"osm:node:7515830951","latitude":41.3655589,"longitude":2.1211602,"name":"Plaça de l'UNICEF near Carrer de la Cooperativa","properties":{"access":"yes","bicycle_pa":"stands","capacity":20,"covered":"no","fee":"no","operator":"Ajuntament de l'Hospitalet de Llobregat","nameSource":"junction"},"sourceId":"osm"},{"id":"osm:node:7515830952","latitude":41.3654162,"longitude":2.1207569,"name":"Plaça de l'UNICEF near Carrer d'Amadeu Torner","properties":{"access":"yes","bicycle_pa":"stands","capacity":20,"covered":"no","fee":"no","operator":"Ajuntament de l'Hospitalet de Llobregat","nameSource":"junction"},"sourceId":"osm"},{"id":"osm:node:7515842308","latitude":41.3613569,"longitude":2.1223362,"name":"Carrer d'Amadeu Torner near Carrer de l'Aprestadora","properties":{"access":"yes","bicycle_pa":"stands","capacity":10,"covered":"no","fee":"no","operator":"Ajuntament de l'Hospitalet de Llobregat","nameSource":"junction"},"sourceId":"osm"},{"id":"osm:node:7515844228","latitude":41.3605633,"longitude":2.1218206,"name":"Carrer de l'Aprestadora near Carrer de la Fortuna","properties":{"access":"yes","bicycle_pa":"stands","capacity":12,"covered":"no","fee":"no","operator":"Ajuntament de l'Hospitalet de Llobregat","nameSource":"junction"},"sourceId":"osm"},{"id":"osm:node:7515845678","latitude":41.364119,"longitude":2.1202036,"name":"Avinguda del Carrilet near Carrer d'Amadeu Torner","properties":{"access":"yes","bicycle_pa":"stands","capacity":6,"covered":"no","fee":"no","operator":"Ajuntament de l'Hospitalet de Llobregat","nameSource":"junction"},"sourceId":"osm"},{"id":"osm:node:7515861294","latitude":41.3594892,"longitude":2.1215616,"name":"Carrer d'Herrero near Carrer de Joan de Joanes","properties":{"access":"yes","bicycle_pa":"stands","capacity":14,"covered":"no","fee":"no","operator":"Ajuntament de l'Hospitalet de Llobregat","nameSource":"junction"},"sourceId":"osm"},{"id":"osm:node:7515866171","latitude":41.3633172,"longitude":2.1182232,"name":"Avinguda del Carrilet near Carrer de Ferrer i Guàrdia","properties":{"access":"yes","bicycle_pa":"stands","capacity":10,"covered":"no","fee":"no","operator":"Ajuntament de l'Hospitalet de Llobregat","nameSource":"junction"},"sourceId":"osm"},{"id":"osm:node:7516008153","latitude":41.3677001,"longitude":2.1238521,"name":"Passatge de Salvadors near Carrer de Salvador","properties":{"access":"yes","bicycle_pa":"stands","capacity":8,"covered":"no","fee":"no","operator":"Ajuntament de l'Hospitalet de Llobregat","nameSource":"junction"},"sourceId":"osm"},{"id":"osm:node:7516035677","latitude":41.3582975,"longitude":2.1257638,"name":"Avinguda de la Granvia de l'Hospitalet near Plaça d'Europa","properties":{"access":"yes","bicycle_pa":"stands","capacity":8,"covered":"no","fee":"no","operator":"Ajuntament de l'Hospitalet de Llobregat","nameSource":"junction"},"sourceId":"osm"},{"id":"osm:node:7516035678","latitude":41.3582277,"longitude":2.1260142,"name":"Avinguda de la Granvia de l'Hospitalet near Plaça d'Europa","properties":{"access":"yes","bicycle_pa":"stands","capacity":16,"covered":"no","fee":"no","operator":"Ajuntament de l'Hospitalet de Llobregat","nameSource":"junction"},"sourceId":"osm"},{"id":"osm:node:7516058797","latitude":41.3590763,"longitude":2.1254873,"name":"Carrer de Natzaret near Plaça d'Europa","properties":{"access":"yes","bicycle_pa":"stands","capacity":6,"covered":"no","fee":"no","operator":"Ajuntament de l'Hospitalet de Llobregat","nameSource":"junction"},"sourceId":"osm"},{"id":"osm:node:7516059605","latitude":41.3626636,"longitude":2.1322914,"name":"Avinguda de la Granvia de l'Hospitalet near Carrer de Victoria Kent","properties":{"access":"yes","bicycle_pa":"stands","capacity":20,"covered":"no","fee":"no","operator":"Ajuntament de l'Hospitalet de Llobregat","nameSource":"junction"},"sourceId":"osm"},{"id":"osm:node:7516059606","latitude":41.3611047,"longitude":2.1302336,"name":"Ildefons Cerdà entrance by Ildefons Cerdà","properties":{"access":"yes","bicycle_pa":"stands","capacity":20,"covered":"no","fee":"no","operator":"Ajuntament de l'Hospitalet de Llobregat","nameSource":"landmark"},"sourceId":"osm"},{"id":"osm:node:7516059607","latitude":41.3620203,"longitude":2.131442,"name":"Avinguda de la Granvia de l'Hospitalet near Plaça dels Veïns","properties":{"access":"yes","bicycle_pa":"stands","capacity":18,"covered":"no","fee":"no","operator":"Ajuntament de l'Hospitalet de Llobregat","nameSource":"junction"},"sourceId":"osm"},