{"key":"12/2001/1381","points":[{"id":"osm:node:10735958105","latitude":50.4122888,"longitude":-4.1221927,"name":"William Prance Road near Colborne Road","properties":{"access":"customers","bicycle_pa":"stands","capacity":0,"covered":"yes","fee":"","operator":"","nameSource":"junction"},"sourceId":"osm"},{"id":"osm:node:10805485506","latitude":50.4162084,"longitude":-4.125128,"name":"Tavistock Road near Sendall's Way","properties":{"access":"unknown","bicycle_pa":"stands","capacity":6,"covered":"no","fee":"","operator":"","nameSource":"junction"},"sourceId":"osm"},{"id":"osm:node:10820411411","latitude":50.4363158,"longitude":-4.1084113,"name":"Eco Way near Woolwell Crescent","properties":{"access":"unknown","bicycle_pa":"stands","capacity":8,"covered":"no","fee":"","operator":"","nameSource":"junction"},"sourceId":"osm"},{"id":"osm:node:10844785406","latitude":50.4127824,"longitude":-4.1221226,"name":"William Prance Road near Alpha Way","properties":{"access":"customers","bicycle_pa":"stands","capacity":10,"covered":"yes","fee":"","operator":"","nameSource":"junction"},"sourceId":"osm"},{"id":"osm:node:11120854389","latitude":50.4194736,"longitude":-4.1136093,"name":"Marjon Hill cycle parking","properties":{"access":"unknown","bicycle_pa":"","capacity":0,"covered":"","fee":"","operator":"","nameSource":"street"},"sourceId":"osm"},{"id":"osm:node:11170540786","latitude":50.4218454,"longitude":-4.1099782,"name":"Plymbridge Lane by Student Union Bar and Cafe","properties":{"access":"unknown","bicycle_pa":"","capacity":0,"covered":"","fee":"","operator":"","nameSource":"landmark"},"sourceId":"osm"},{"id":"osm:node:11184434131","latitude":50.428037,"longitude":-4.1122417,"name":"Tavistock Road by The George Park & Ride Interchange","properties":{"access":"private","bicycle_pa":"lockers","capacity":0,"covered":"","fee":"","operator":"","nameSource":"landmark"},"sourceId":"osm"},{"id":"osm:node:11980868625","latitude":50.4170369,"longitude":-4.1091595,"name":"Research Way near Davy Road","properties":{"access":"unknown","bicycle_pa":"","capacity":0,"covered":"","fee":"","operator":"","nameSource":"junction"},"sourceId":"osm"},{"id":"osm:node:12109846221","latitude":50.4167487,"longitude":-4.1081593,"name":"Blunts Lane cycle parking","properties":{"access":"unknown","bicycle_pa":"","capacity":0,"covered":"yes","fee":"","operator":"","nameSource":"street"},"sourceId":"osm"},{"id":"osm:node:12324493066","latitude":50.4147501,"longitude":-4.1252901,"name":"Tavistock Road near Sendall's Way","properties":{"access":"unknown","bicycle_pa":"stands","capacity":28,"covered":"yes","fee":"","operator":"","nameSource":"junction"},"sourceId":"osm"},{"id":"osm:node:12324493084","latitude":50.4146751,"longitude":-4.1238757,"name":"Bravo Way near William Prance Road","properties":{"access":"unknown","bicycle_pa":"stands","capacity":14,"covered":"no","fee":"","operator":"","nameSource":"junction"},"sourceId":"osm"},{"id":"osm:node:12413144101","latitude":50.4145287,"longitude":-4.1236074,"name":"Alpha Way near William Prance Road","properties":{"access":"unknown","bicycle_pa":"stands","capacity":16,"covered":"no","fee":"","operator":"","nameSource":"junction"},"sourceId":"osm"},{"id":"osm:node:12413144102","latitude":50.4151378,"longitude":-4.1233789,"name":"Bravo Way cycle parking","properties":{"access":"unknown","bicycle_pa":"stands","capacity":6,"covered":"no","fee":"","operator":"","nameSource":"street"},"sourceId":"osm"},{"id":"osm:node:12486064228","latitude":50.4145752,"longitude":-4.12323,"name":"Alpha Way near William Prance Road","properties":{"access":"unknown","bicycle_pa":"stands","capacity":6,"covered":"no","fee":"no","operator":"","nameSource":"junction"},"sourceId":"osm"},{"id":"osm:node:13798323006","latitude":50.4178174,"longitude":-4.1187007,"name":"Derriford Road by Urgent Treatment Centre","properties":{"access":"unknown","bicycle_pa":"","capacity":12,"covered":"","fee":"","operator":"","nameSource":"landmark"},"sourceId":"osm"},{"id":"osm:node:13962062347","latitude":50.4088841,"longitude":-4.07875,"name":"Plym Valley Trail by Plym Bridge","properties":{"access":"unknown","bicycle_pa":"","capacity":0,"covered":"","fee":"","operator":"","nameSource":"landmark"},"sourceId":"osm"},{"id":"osm:node:1812647834","latitude":50.4197073,"longitude":-4.1139545,"name":"Marjon Hill cycle parking","properties":{"access":"unknown","bicycle_pa":"","capacity":0,"covered":"","fee":"","operator":"","nameSource":"street"},"sourceId":"osm"},{"id":"osm:node:1814571680","latitude":50.4214426,"longitude":-4.1099786,"name":"Plymbridge Lane by Student Union Bar and Cafe","properties":{"access":"unknown","bicycle_pa":"","capacity":0,"covered":"","fee":"","operator":"","nameSource":"landmark"},"sourceId":"osm"},{"id":"osm:node:1814571701","latitude":50.420477,"longitude":-4.1085972,"name":"St Marks Road by Drama Theatre","properties":{"access":"unknown","bicycle_pa":"","capacity":0,"covered":"","fee":"","operator":"","nameSource":"landmark"},"sourceId":"osm"},{"id":"osm:node:9319680124","latitude":50.4170489,"longitude":-4.1140349,"name":"Derriford Road by M&S Simply Food","properties":{"access":"unknown","bicycle_pa":"stands","capacity":10,"covered":"no","fee":"","operator":"","nameSource":"landmark"},"sourceId":"osm"},{"id":"osm:node:9319680632","latitude":50.4093196,"longitude":-4.0962232,"name":"Leypark Walk by Asda","properties":{"access":"unknown","bicycle_pa":"stands","capacity":12,"covered":"no","fee":"","operator":"","nameSource":"landmark"},"sourceId":"osm"},{"id":"osm:node:9343951618","latitude":50.4269688,"longitude":-4.1267004,"name":"Pendeen Crescent near Goodwin Avenue","properties":{"access":"unknown","bicycle_pa":"stands","capacity":6,"covered":"no","fee":"","operator":"","nameSource":"junction"},"sourceId":"osm"},{"id":"osm:node:9472909927","latitude":50.4153585,"longitude":-4.1157757,"name":"Case Causeway cycle parking","properties":{"access":"private","bicycle_pa":"shed","capacity":0,"covered":"","fee":"","operator":"","nameSource":"street"},"sourceId":"osm"},{"id":"osm:node:9477298917","latitude":50.4175046,"longitude":-4.1103308,"name":"Research Way near Davy Road","properties":{"access":"unknown","bicycle_pa":"stands","capacity":18,"covered":"yes","fee":"","operator":"","nameSource":"junction"},"sourceId":"osm"},{"id":"osm:node:9496789620","latitude":50.4381836,"longitude":-4.1083732,"name":"Eco Way cycle parking","properties":{"access":"unknown","bicycle_pa":"stands","capacity":8,"covered":"no","fee":"","operator":"","nameSource":"street"},"sourceId":"osm"},{"id":"osm:node:9515217935","latitude":50.4300292,"longitude":-4.1248435,"name":"Flamborough Road by Aldi","properties":{"access":"unknown","bicycle_pa":"stands","capacity":8,"covered":"yes","fee":"","operator":"","nameSource":"landmark"},"sourceId":"osm"},{"id":"osm:node:9525801752","latitude":50.416892,"longitude":-4.1156256,"name":"M&S Simply Food cycle parking","properties":{"access":"private","bicycle_pa":"shed","capacity":0,"covered":"yes","fee":"","operator":"","nameSource":"landmark"},"sourceId":"osm"},{"id":"osm:node:9535963927","latitude":50.4190307,"longitude":-4.0936279,"name":"Plymbridge Road near Estover Road","properties":{"access":"private","bicycle_pa":"stands","capacity":0,"covered":"no","fee":"","operator":"","nameSource":"junction"},"sourceId":"osm"},{"id":"osm:node:9535964231","latitude":50.4166058,"longitude":-4.1160577,"name":"Derriford Hospital cycle parking","properties":{"access":"unknown","bicycle_pa":"stands","capacity":8,"covered":"no","fee":"","operator":"","nameSource":"landmark"},"sourceId":"osm"},{"id":"osm:node:9545914917","latitude":50.4279817,"longitude":-4.1122813,"name":"Tavistock Road by The George Park & Ride Interchange","properties":{"access":"unknown","bicycle_pa":"stands","capacity":8,"covered":"yes","fee":"","operator":"","nameSource":"landmark"},"sourceId":"osm"},{"id":"osm:node:9598414629","latitude":50.4139627,"longitude":-4.1248724,"name":"William Prance Road cycle parking","properties":{"access":"unknown","bicycle_pa":"wall_loops","capacity":10,"covered":"no","fee":"","operator":"","nameSource":"street"},"sourceId":"osm"},{"id":"osm:node:9598417820","latitude":50.4137172,"longitude":-4.1232574,"name":"William Prance Road by Café Eighty-Nine","properties":{"access":"unknown","bicycle_pa":"wall_loops","capacity":21,"covered":"no","fee":"","operator":"","nameSource":"landmark"},"sourceId":"osm"},{"id":"osm:node:9721585319","latitude":50.4370888,"longitude":-4.1076571,"name":"Solar Crescent near Eco Way","properties":{"access":"unknown","bicycle_pa":"stands","capacity":20,"covered":"no","fee":"","operator":"","nameSource":"junction"},"sourceId":"osm"},{"id":"osm:node:9721585517","latitude":50.4368931,"longitude":-4.1079742,"name":"Eco Way near Solar Crescent","properties":{"access":"unknown","bicycle_pa":"stands","capacity":14,"covered":"no","fee":"","operator":"","nameSource":"junction"},"sourceId":"osm"},{"id":"osm:node:9750167717","latitude":50.4137044,"longitude":-4.1234825,"name":"William Prance Road near Alpha Way","properties":{"access":"unknown","bicycle_pa":"wall_loops","capacity":21,"covered":"no","fee":"","operator":"","nameSource":"junction"},"sourceId":"osm"},{"id":"osm:node:9755734217","latitude":50.4324399,"longitude":-4.1233045,"name":"Fleetwood Gardens near Whitehaven Way","properties":{"access":"unknown","bicycle_pa":"stands","capacity":4,"covered":"no","fee":"","operator":"","nameSource":"junction"},"sourceId":"osm"},{"id":"osm:node:9888523532","latitude":50.4168459,"longitude":-4.1154163,"name":"M&S Simply Food cycle parking","properties":{"access":"yes","bicycle_pa":"shed","capacity":4,"covered":"yes","fee":"no","operator":"","nameSource":"landmark"},"sourceId":"osm"},{"id":"osm:node:9896308820","latitude":50.4324855,"longitude":-4.1228196,"name":"Fleetwood Gardens near Whitehaven Way","properties":{"access":"unknown","bicycle_pa":"stands","capacity":4,"covered":"","fee":"","operator":"","nameSource":"junction"},"sourceId":"osm"},{"id":"osm:way:1010179426","latitude":50.41732499999999,"longitude":-4.11517188,"name":"Derriford Road cycle parking","properties":{"access":"private","bicycle_pa":"shed","capacity":0,"covered":"yes","fee":"","operator":"","nameSource":"street"},"sourceId":"osm"}],"schemaVersion":2}
