{"key":"12/2010/1263","points":[{"id":"osm:node:1505154763","latitude":56.591835,"longitude":-3.3372826,"name":"Mill Street near Wellmeadow","properties":{"access":"yes","bicycle_pa":"stands","capacity":2,"covered":"no","fee":"no","operator":"","nameSource":"junction"},"sourceId":"osm"},{"id":"osm:node:4436972191","latitude":56.5918938,"longitude":-3.3375332,"name":"Wellmeadow near Allan Street","properties":{"access":"unknown","bicycle_pa":"stands","capacity":4,"covered":"no","fee":"","operator":"","nameSource":"junction"},"sourceId":"osm"},{"id":"osm:node:4577624174","latitude":56.592819,"longitude":-3.3390098,"name":"Upper Allan Street near Allan Street","properties":{"access":"unknown","bicycle_pa":"","capacity":4,"covered":"","fee":"","operator":"","nameSource":"junction"},"sourceId":"osm"},{"id":"osm:node:4756852779","latitude":56.5898935,"longitude":-3.3344604,"name":"Welton Road cycle parking","properties":{"access":"unknown","bicycle_pa":"","capacity":6,"covered":"","fee":"","operator":"","nameSource":"street"},"sourceId":"osm"},{"id":"osm:node:8844639100","latitude":56.5912257,"longitude":-3.3385275,"name":"Croft Court near Leslie Street","properties":{"access":"unknown","bicycle_pa":"stands","capacity":6,"covered":"","fee":"","operator":"","nameSource":"junction"},"sourceId":"osm"},{"id":"osm:node:9656736274","latitude":56.5912945,"longitude":-3.3371727,"name":"Wellmeadow near Gas Brae","properties":{"access":"yes","bicycle_pa":"stands","capacity":10,"covered":"no","fee":"no","operator":"","nameSource":"junction"},"sourceId":"osm"}],"schemaVersion":1}
