{"key":"12/2010/1272","points":[{"id":"osm:node:10082397754","latitude":56.1551714,"longitude":-3.2736408,"name":"Pilgrims Way Avenue near Red House Farm Road","properties":{"access":"unknown","bicycle_pa":"","capacity":0,"covered":"","fee":"","operator":"","nameSource":"junction"},"sourceId":"osm"},{"id":"osm:node:1026040673","latitude":56.1504384,"longitude":-3.3366132,"name":"Lochcraig cycle parking","properties":{"access":"unknown","bicycle_pa":"stands","capacity":10,"covered":"no","fee":"","operator":"","nameSource":"place"},"sourceId":"osm"},{"id":"osm:node:1455219205","latitude":56.1349069,"longitude":-3.3130559,"name":"Station Road by Lochgelly","properties":{"access":"unknown","bicycle_pa":"stands","capacity":6,"covered":"no","fee":"","operator":"","nameSource":"landmark"},"sourceId":"osm"},{"id":"osm:node:1467628219","latitude":56.1260637,"longitude":-3.3102696,"name":"Main Street cycle parking","properties":{"access":"unknown","bicycle_pa":"","capacity":8,"covered":"no","fee":"","operator":"","nameSource":"street"},"sourceId":"osm"},{"id":"osm:node:1620136515","latitude":56.1410927,"longitude":-3.2604706,"name":"Main Road near Station Road","properties":{"access":"unknown","bicycle_pa":"lockers","capacity":5,"covered":"","fee":"","operator":"","nameSource":"junction"},"sourceId":"osm"},{"id":"osm:node:1646880972","latitude":56.1376025,"longitude":-3.315793,"name":"Station Road by Lochgelly High School","properties":{"access":"unknown","bicycle_pa":"stands","capacity":10,"covered":"no","fee":"","operator":"","nameSource":"landmark"},"sourceId":"osm"},{"id":"osm:node:1736589575","latitude":56.1485914,"longitude":-3.3351834,"name":"Castle Loop by Outdoor Education","properties":{"access":"unknown","bicycle_pa":"stands","capacity":10,"covered":"no","fee":"","operator":"","nameSource":"landmark"},"sourceId":"osm"},{"id":"osm:node:2980141575","latitude":56.1483706,"longitude":-3.3355095,"name":"Castle Loop by Outdoor Education","properties":{"access":"destination","bicycle_pa":"stands","capacity":10,"covered":"no","fee":"","operator":"","nameSource":"landmark"},"sourceId":"osm"},{"id":"osm:node:6793507978","latitude":56.137567,"longitude":-3.3174265,"name":"Station Road cycle parking","properties":{"access":"unknown","bicycle_pa":"","capacity":0,"covered":"","fee":"","operator":"","nameSource":"street"},"sourceId":"osm"},{"id":"osm:node:6793507979","latitude":56.137389,"longitude":-3.3171995,"name":"Station Road cycle parking","properties":{"access":"unknown","bicycle_pa":"","capacity":0,"covered":"","fee":"","operator":"","nameSource":"street"},"sourceId":"osm"},{"id":"osm:node:6793507980","latitude":56.1371292,"longitude":-3.3166789,"name":"Station Road cycle parking","properties":{"access":"unknown","bicycle_pa":"","capacity":0,"covered":"","fee":"","operator":"","nameSource":"street"},"sourceId":"osm"},{"id":"osm:node:6793507981","latitude":56.1370147,"longitude":-3.3155394,"name":"Station Road by School Leisure Centre","properties":{"access":"unknown","bicycle_pa":"","capacity":0,"covered":"","fee":"","operator":"","nameSource":"landmark"},"sourceId":"osm"},{"id":"osm:node:6793507982","latitude":56.128641,"longitude":-3.3179581,"name":"McGregor Avenue near Cartmore Road","properties":{"access":"unknown","bicycle_pa":"","capacity":0,"covered":"","fee":"","operator":"","nameSource":"junction"},"sourceId":"osm"},{"id":"osm:node:6807957018","latitude":56.1290238,"longitude":-3.3102413,"name":"Bank Street near Auchterderran Road","properties":{"access":"unknown","bicycle_pa":"rack","capacity":10,"covered":"no","fee":"","operator":"","nameSource":"junction"},"sourceId":"osm"},{"id":"osm:node:6810340559","latitude":56.1496605,"longitude":-3.3298942,"name":"Bogey Trail cycle parking","properties":{"access":"unknown","bicycle_pa":"","capacity":0,"covered":"yes","fee":"","operator":"","nameSource":"street"},"sourceId":"osm"},{"id":"osm:node:9306980638","latitude":56.1274809,"longitude":-3.3089402,"name":"Bank Street near Berry Street","properties":{"access":"unknown","bicycle_pa":"","capacity":0,"covered":"","fee":"","operator":"","nameSource":"junction"},"sourceId":"osm"},{"id":"osm:node:9377523628","latitude":56.1261624,"longitude":-3.3107347,"name":"Francis Street by Home 'n' Hardware","properties":{"access":"unknown","bicycle_pa":"stands","capacity":14,"covered":"yes","fee":"","operator":"","nameSource":"landmark"},"sourceId":"osm"},{"id":"osm:way:731175130","latitude":56.15992596666667,"longitude":-3.326103116666667,"name":"Flockhouse Avenue near Westwood Crescent","properties":{"access":"unknown","bicycle_pa":"shed","capacity":0,"covered":"","fee":"","operator":"","nameSource":"junction"},"sourceId":"osm"},{"id":"osm:way:758458651","latitude":56.13949086,"longitude":-3.25514644,"name":"Carden Avenue near Carden Castle Avenue","properties":{"access":"unknown","bicycle_pa":"shed","capacity":0,"covered":"","fee":"","operator":"","nameSource":"junction"},"sourceId":"osm"},{"id":"osm:way:764285689","latitude":56.13497106,"longitude":-3.31295766,"name":"Jubilee Court by Lochgelly","properties":{"access":"yes","bicycle_pa":"lockers","capacity":0,"covered":"yes","fee":"","operator":"","nameSource":"landmark"},"sourceId":"osm"}],"schemaVersion":1}
