{"key":"12/2019/1253","points":[{"id":"osm:node:1030110554","latitude":57.0505573,"longitude":-2.5018258,"name":"Dee Street near Smiddy Wynd","properties":{"access":"unknown","bicycle_pa":"stands","capacity":12,"covered":"yes","fee":"","operator":"","nameSource":"junction"},"sourceId":"osm"},{"id":"osm:node:10989482278","latitude":57.0454486,"longitude":-2.4920245,"name":"South Deeside Road by Falls by Orry Shand","properties":{"access":"unknown","bicycle_pa":"","capacity":0,"covered":"","fee":"","operator":"","nameSource":"landmark"},"sourceId":"osm"},{"id":"osm:node:13746927046","latitude":57.0529974,"longitude":-2.4928049,"name":"Schoolhill cycle parking","properties":{"access":"unknown","bicycle_pa":"","capacity":0,"covered":"","fee":"","operator":"","nameSource":"street"},"sourceId":"osm"},{"id":"osm:node:1442829190","latitude":57.0513496,"longitude":-2.5023874,"name":"Dee Street near High Street","properties":{"access":"unknown","bicycle_pa":"stands","capacity":6,"covered":"no","fee":"","operator":"","nameSource":"junction"},"sourceId":"osm"},{"id":"osm:way:901634639","latitude":57.0601884,"longitude":-2.4784387400000005,"name":"Hill of Banchory South near Provost Webster Road","properties":{"access":"unknown","bicycle_pa":"stands","capacity":8,"covered":"yes","fee":"","operator":"","nameSource":"junction"},"sourceId":"osm"}],"schemaVersion":2}
