{"key":"12/2019/1326","points":[{"id":"osm:node:10030545641","latitude":53.3980945,"longitude":-2.545106,"name":"New Cut Lane near Hawthorne Avenue","properties":{"access":"unknown","bicycle_pa":"stands","capacity":8,"covered":"no","fee":"no","operator":"","nameSource":"junction"},"sourceId":"osm"},{"id":"osm:node:11115399515","latitude":53.4144152,"longitude":-2.5263904,"name":"Benson Road by St. Rocco Hospice","properties":{"access":"unknown","bicycle_pa":"stands","capacity":8,"covered":"no","fee":"no","operator":"","nameSource":"landmark"},"sourceId":"osm"},{"id":"osm:node:11115399516","latitude":53.4142545,"longitude":-2.5264366,"name":"Benson Road by St. Rocco Hospice","properties":{"access":"unknown","bicycle_pa":"stands","capacity":8,"covered":"no","fee":"no","operator":"","nameSource":"landmark"},"sourceId":"osm"},{"id":"osm:node:11186918208","latitude":53.4144564,"longitude":-2.5237173,"name":"Dewhurst Road cycle parking","properties":{"access":"unknown","bicycle_pa":"wall_loops","capacity":6,"covered":"no","fee":"no","operator":"","nameSource":"street"},"sourceId":"osm"},{"id":"osm:node:12811513721","latitude":53.4240899,"longitude":-2.5067739,"name":"Risley Moss Country Park cycle parking","properties":{"access":"unknown","bicycle_pa":"stands","capacity":6,"covered":"no","fee":"","operator":"","nameSource":"landmark"},"sourceId":"osm"},{"id":"osm:node:2090707317","latitude":53.4267465,"longitude":-2.5243013,"name":"Chadwick Place near Faraday Street","properties":{"access":"unknown","bicycle_pa":"stands","capacity":48,"covered":"yes","fee":"","operator":"","nameSource":"junction"},"sourceId":"osm"},{"id":"osm:node:349332352","latitude":53.3843042,"longitude":-2.4844961,"name":"Trans Pennine Trail near Whitbarrow Road","properties":{"access":"unknown","bicycle_pa":"stands","capacity":3,"covered":"no","fee":"","operator":"","nameSource":"junction"},"sourceId":"osm"},{"id":"osm:node:4562154890","latitude":53.4157727,"longitude":-2.5289244,"name":"Birchwood Tenis Centre","properties":{"access":"unknown","bicycle_pa":"front_wheel_only","capacity":5,"covered":"","fee":"","operator":"","nameSource":"source"},"sourceId":"osm"},{"id":"osm:node:4562154891","latitude":53.412823,"longitude":-2.5251385,"name":"Birchwwod Station Platform","properties":{"access":"unknown","bicycle_pa":"stands","capacity":12,"covered":"","fee":"","operator":"","nameSource":"source"},"sourceId":"osm"},{"id":"osm:node:4562154892","latitude":53.4127228,"longitude":-2.5250801,"name":"Birchwood Station Platform","properties":{"access":"unknown","bicycle_pa":"stands","capacity":10,"covered":"no","fee":"","operator":"","nameSource":"source"},"sourceId":"osm"},{"id":"osm:node:5214536133","latitude":53.4137542,"longitude":-2.5295655,"name":"Dewhurst Road by Asda Opticians","properties":{"access":"unknown","bicycle_pa":"stands","capacity":20,"covered":"no","fee":"no","operator":"","nameSource":"landmark"},"sourceId":"osm"},{"id":"osm:node:7277639869","latitude":53.4247655,"longitude":-2.5238708,"name":"Newton Avenue cycle parking","properties":{"access":"unknown","bicycle_pa":"stands","capacity":5,"covered":"yes","fee":"","operator":"","nameSource":"street"},"sourceId":"osm"},{"id":"osm:node:749993049","latitude":53.4269324,"longitude":-2.5246766,"name":"Chadwick Place near Faraday Street","properties":{"access":"unknown","bicycle_pa":"","capacity":0,"covered":"","fee":"","operator":"","nameSource":"junction"},"sourceId":"osm"},{"id":"osm:node:9333137702","latitude":53.4189953,"longitude":-2.5274361,"name":"Oakwood Gate Service Station by Greggs","properties":{"access":"yes","bicycle_pa":"stands","capacity":8,"covered":"no","fee":"no","operator":"","nameSource":"landmark"},"sourceId":"osm"},{"id":"osm:node:9393194396","latitude":53.4268844,"longitude":-2.5178139,"name":"Cavendish Avenue by RTC","properties":{"access":"unknown","bicycle_pa":"stands","capacity":12,"covered":"no","fee":"no","operator":"","nameSource":"landmark"},"sourceId":"osm"},{"id":"osm:node:9469295709","latitude":53.3991377,"longitude":-2.5454848,"name":"Gordon Avenue near Holes Lane","properties":{"access":"yes","bicycle_pa":"loops","capacity":7,"covered":"no","fee":"no","operator":"","nameSource":"junction"},"sourceId":"osm"},{"id":"osm:node:9469418876","latitude":53.4291644,"longitude":-2.5280696,"name":"Warrington Road near Warrington Road Roundabout","properties":{"access":"yes","bicycle_pa":"front_wheel","capacity":0,"covered":"no","fee":"no","operator":"","nameSource":"junction"},"sourceId":"osm"},{"id":"osm:way:1029111543","latitude":53.41266538333334,"longitude":-2.5259353166666667,"name":"Dewhurst Road cycle parking","properties":{"access":"yes","bicycle_pa":"shed","capacity":10,"covered":"yes","fee":"no","operator":"","nameSource":"street"},"sourceId":"osm"}],"schemaVersion":2}
