{"key":"12/2019/1327","points":[{"id":"osm:node:11097509590","latitude":53.3811822,"longitude":-2.532678,"name":"Barley Road near Stanton Road","properties":{"access":"unknown","bicycle_pa":"stands","capacity":6,"covered":"no","fee":"no","operator":"","nameSource":"junction"},"sourceId":"osm"},{"id":"osm:node:12135460951","latitude":53.3819738,"longitude":-2.4815586,"name":"Davies Way near Brookfield Road","properties":{"access":"unknown","bicycle_pa":"stands","capacity":8,"covered":"no","fee":"","operator":"","nameSource":"junction"},"sourceId":"osm"},{"id":"osm:node:12791180842","latitude":53.3724996,"longitude":-2.5436932,"name":"Church Lane by St. Wilfrid's, Grappenhall","properties":{"access":"unknown","bicycle_pa":"stands","capacity":8,"covered":"no","fee":"","operator":"","nameSource":"landmark"},"sourceId":"osm"},{"id":"osm:node:12791197252","latitude":53.3733219,"longitude":-2.5439028,"name":"Bridgewater Canal Towpath by Grappenhall Scout Campsite","properties":{"access":"unknown","bicycle_pa":"wall_loops","capacity":4,"covered":"no","fee":"","operator":"","nameSource":"landmark"},"sourceId":"osm"},{"id":"osm:node:348766767","latitude":53.3814376,"longitude":-2.4799442,"name":"Legh Street near Bridgewater Street","properties":{"access":"unknown","bicycle_pa":"stands","capacity":8,"covered":"no","fee":"","operator":"","nameSource":"junction"},"sourceId":"osm"},{"id":"osm:node:349332353","latitude":53.3810431,"longitude":-2.4764218,"name":"Domville Close near Pepper Street","properties":{"access":"unknown","bicycle_pa":"stands","capacity":4,"covered":"no","fee":"","operator":"","nameSource":"junction"},"sourceId":"osm"},{"id":"osm:node:356955198","latitude":53.3805765,"longitude":-2.4784201,"name":"The Grove near The Cross","properties":{"access":"unknown","bicycle_pa":"","capacity":6,"covered":"","fee":"","operator":"","nameSource":"junction"},"sourceId":"osm"},{"id":"osm:node:4562154275","latitude":53.3772449,"longitude":-2.5450356,"name":"Co-op","properties":{"access":"yes","bicycle_pa":"stands","capacity":6,"covered":"no","fee":"no","operator":"Co-op Food","nameSource":"source"},"sourceId":"osm"},{"id":"osm:node:4562154893","latitude":53.3793036,"longitude":-2.4884439,"name":"Lymm Co-op","properties":{"access":"unknown","bicycle_pa":"stands","capacity":4,"covered":"no","fee":"","operator":"","nameSource":"source"},"sourceId":"osm"},{"id":"osm:node:9770595213","latitude":53.3770139,"longitude":-2.5423759,"name":"Knutsford Road near Bradshaw Lane","properties":{"access":"yes","bicycle_pa":"stands","capacity":5,"covered":"no","fee":"no","operator":"","nameSource":"junction"},"sourceId":"osm"}],"schemaVersion":2}
