{"key":"12/2019/1329","points":[{"id":"osm:node:10563090546","latitude":53.2712229,"longitude":-2.4964647,"name":"New Warrington Road cycle parking","properties":{"access":"unknown","bicycle_pa":"stands","capacity":6,"covered":"","fee":"no","operator":"","nameSource":"street"},"sourceId":"osm"},{"id":"osm:node:11547115659","latitude":53.2579209,"longitude":-2.5381824,"name":"Maiden Drive near Outfield Chase","properties":{"access":"unknown","bicycle_pa":"","capacity":10,"covered":"yes","fee":"","operator":"","nameSource":"junction"},"sourceId":"osm"},{"id":"osm:node:11547115667","latitude":53.258294,"longitude":-2.538977,"name":"Winnington Avenue near Innings Street","properties":{"access":"unknown","bicycle_pa":"","capacity":10,"covered":"yes","fee":"","operator":"","nameSource":"junction"},"sourceId":"osm"},{"id":"osm:node:11547115721","latitude":53.2663058,"longitude":-2.539423,"name":"Walker Road near Leach Drive","properties":{"access":"unknown","bicycle_pa":"","capacity":6,"covered":"","fee":"","operator":"","nameSource":"junction"},"sourceId":"osm"},{"id":"osm:node:11801803993","latitude":53.2510406,"longitude":-2.4816015,"name":"Shurlach Road by Rudheath Primary Academy and Nursery","properties":{"access":"customers","bicycle_pa":"","capacity":30,"covered":"yes","fee":"no","operator":"","nameSource":"landmark"},"sourceId":"osm"},{"id":"osm:node:11801812844","latitude":53.2632467,"longitude":-2.5090152,"name":"Albion Road by Late Night Pharmacy window","properties":{"access":"yes","bicycle_pa":"stands","capacity":12,"covered":"yes","fee":"no","operator":"","nameSource":"landmark"},"sourceId":"osm"},{"id":"osm:node:11802026182","latitude":53.2634084,"longitude":-2.5113382,"name":"Tabley Street by Game","properties":{"access":"unknown","bicycle_pa":"stands","capacity":52,"covered":"no","fee":"no","operator":"","nameSource":"landmark"},"sourceId":"osm"},{"id":"osm:node:11802090167","latitude":53.2612098,"longitude":-2.5079101,"name":"Venables Road near Chester Way","properties":{"access":"yes","bicycle_pa":"stands","capacity":8,"covered":"no","fee":"no","operator":"","nameSource":"junction"},"sourceId":"osm"},{"id":"osm:node:11804145579","latitude":53.2351673,"longitude":-2.5102469,"name":"London Road near Fulton Grove","properties":{"access":"yes","bicycle_pa":"stands","capacity":10,"covered":"no","fee":"no","operator":"","nameSource":"junction"},"sourceId":"osm"},{"id":"osm:node:11850337650","latitude":53.2636274,"longitude":-2.5142792,"name":"Barons Quay Road cycle parking","properties":{"access":"yes","bicycle_pa":"stands","capacity":24,"covered":"no","fee":"no","operator":"","nameSource":"street"},"sourceId":"osm"},{"id":"osm:node:12179160753","latitude":53.2736397,"longitude":-2.5288034,"name":"Lift Lane cycle parking","properties":{"access":"unknown","bicycle_pa":"stands","capacity":12,"covered":"no","fee":"","operator":"","nameSource":"street"},"sourceId":"osm"},{"id":"osm:node:12179160754","latitude":53.2738935,"longitude":-2.5285238,"name":"Lift Lane cycle parking","properties":{"access":"unknown","bicycle_pa":"stands","capacity":8,"covered":"no","fee":"","operator":"","nameSource":"street"},"sourceId":"osm"},{"id":"osm:node:12787831551","latitude":53.2613609,"longitude":-2.5117747,"name":"Sheath Street near Timber Lane","properties":{"access":"unknown","bicycle_pa":"stands","capacity":0,"covered":"","fee":"","operator":"","nameSource":"junction"},"sourceId":"osm"},{"id":"osm:node:12831628162","latitude":53.2586578,"longitude":-2.5123422,"name":"London Road near Chester Way","properties":{"access":"unknown","bicycle_pa":"stands","capacity":6,"covered":"no","fee":"","operator":"","nameSource":"junction"},"sourceId":"osm"},{"id":"osm:node:4374901564","latitude":53.2752402,"longitude":-2.4946678,"name":"Marston FP 11 by Thomson's Tea Room","properties":{"access":"unknown","bicycle_pa":"","capacity":0,"covered":"","fee":"","operator":"","nameSource":"landmark"},"sourceId":"osm"},{"id":"osm:node:4485302686","latitude":53.242893,"longitude":-2.4931106,"name":"Shurlach Lane by Vale Royal Crematorium","properties":{"access":"unknown","bicycle_pa":"","capacity":0,"covered":"","fee":"","operator":"","nameSource":"landmark"},"sourceId":"osm"},{"id":"osm:node:4974194574","latitude":53.2625458,"longitude":-2.5151905,"name":"Crown Street cycle parking","properties":{"access":"unknown","bicycle_pa":"stands","capacity":26,"covered":"","fee":"","operator":"","nameSource":"street"},"sourceId":"osm"},{"id":"osm:node:5150155123","latitude":53.2447734,"longitude":-2.5462741,"name":"Chester Road near Hartford FP7","properties":{"access":"unknown","bicycle_pa":"stands","capacity":4,"covered":"no","fee":"","operator":"","nameSource":"junction"},"sourceId":"osm"},{"id":"osm:node:5226828912","latitude":53.2619991,"longitude":-2.5119685,"name":"Timber Lane near Witton Street","properties":{"access":"unknown","bicycle_pa":"stands","capacity":2,"covered":"no","fee":"no","operator":"","nameSource":"junction"},"sourceId":"osm"},{"id":"osm:node:5226828913","latitude":53.2619975,"longitude":-2.511998,"name":"Timber Lane near Witton Street","properties":{"access":"unknown","bicycle_pa":"stands","capacity":2,"covered":"no","fee":"no","operator":"","nameSource":"junction"},"sourceId":"osm"},{"id":"osm:node:6780711015","latitude":53.2604689,"longitude":-2.5101244,"name":"Brockhurst Street near Northwich FP 31","properties":{"access":"unknown","bicycle_pa":"stands","capacity":20,"covered":"yes","fee":"","operator":"","nameSource":"junction"},"sourceId":"osm"},{"id":"osm:node:8663946810","latitude":53.260874,"longitude":-2.5138883,"name":"Apple Market Street near Watling Street","properties":{"access":"unknown","bicycle_pa":"","capacity":0,"covered":"","fee":"","operator":"","nameSource":"junction"},"sourceId":"osm"},{"id":"osm:node:8663946811","latitude":53.2609193,"longitude":-2.5146501,"name":"Market Street near High Street","properties":{"access":"unknown","bicycle_pa":"","capacity":0,"covered":"","fee":"","operator":"","nameSource":"junction"},"sourceId":"osm"},{"id":"osm:node:9069838415","latitude":53.2505256,"longitude":-2.4824574,"name":"Shurlach Road by Little Owls","properties":{"access":"unknown","bicycle_pa":"wall_loops","capacity":0,"covered":"","fee":"","operator":"","nameSource":"landmark"},"sourceId":"osm"},{"id":"osm:node:9174177412","latitude":53.267659,"longitude":-2.4646463,"name":"Station Road near Birches Lane","properties":{"access":"unknown","bicycle_pa":"stands","capacity":6,"covered":"","fee":"","operator":"","nameSource":"junction"},"sourceId":"osm"},{"id":"osm:node:9244252357","latitude":53.2364059,"longitude":-2.5234021,"name":"Bowfell Close cycle parking","properties":{"access":"private","bicycle_pa":"","capacity":0,"covered":"","fee":"","operator":"","nameSource":"street"},"sourceId":"osm"}],"schemaVersion":2}
