{"key":"12/2019/1332","points":[{"id":"osm:node:13055127969","latitude":53.0687895,"longitude":-2.519667,"name":"Beam Street near Lady Helen Walk","properties":{"access":"unknown","bicycle_pa":"stands","capacity":16,"covered":"","fee":"","operator":"","nameSource":"junction"},"sourceId":"osm"},{"id":"osm:node:9874051352","latitude":53.0850398,"longitude":-2.5268934,"name":"Kingsbourne cycle parking","properties":{"access":"unknown","bicycle_pa":"shed","capacity":0,"covered":"","fee":"","operator":"","nameSource":"place"},"sourceId":"osm"},{"id":"osm:node:9874294980","latitude":53.0835956,"longitude":-2.5242326,"name":"Kingsbourne cycle parking","properties":{"access":"unknown","bicycle_pa":"shed","capacity":0,"covered":"","fee":"","operator":"","nameSource":"place"},"sourceId":"osm"},{"id":"osm:node:9874295003","latitude":53.082673,"longitude":-2.5234377,"name":"Main Road cycle parking","properties":{"access":"unknown","bicycle_pa":"shed","capacity":0,"covered":"","fee":"","operator":"","nameSource":"street"},"sourceId":"osm"},{"id":"osm:way:332953441","latitude":53.101257087499995,"longitude":-2.4700394,"name":"Bentley Motors","properties":{"access":"private","bicycle_pa":"","capacity":0,"covered":"","fee":"","operator":"","nameSource":"source"},"sourceId":"osm"}],"schemaVersion":2}
