{"key":"12/2019/1333","points":[{"id":"osm:node:11609716202","latitude":53.0665698,"longitude":-2.52201,"name":"High Street near Mill Street","properties":{"access":"unknown","bicycle_pa":"stands","capacity":8,"covered":"no","fee":"","operator":"","nameSource":"junction"},"sourceId":"osm"},{"id":"osm:node:11966267351","latitude":53.0676259,"longitude":-2.5229707,"name":"Oat Market near High Street","properties":{"access":"unknown","bicycle_pa":"stands","capacity":8,"covered":"no","fee":"","operator":"","nameSource":"junction"},"sourceId":"osm"},{"id":"osm:node:11966277025","latitude":53.0666889,"longitude":-2.5241011,"name":"Water Lode near Mill Street","properties":{"access":"unknown","bicycle_pa":"wall_loops","capacity":5,"covered":"no","fee":"","operator":"","nameSource":"junction"},"sourceId":"osm"},{"id":"osm:node:12460665982","latitude":53.0656286,"longitude":-2.5211537,"name":"Pillory Street near The Cocoa Yard","properties":{"access":"unknown","bicycle_pa":"stands","capacity":2,"covered":"no","fee":"","operator":"","nameSource":"junction"},"sourceId":"osm"},{"id":"osm:node:5564471797","latitude":53.0635494,"longitude":-2.5193816,"name":"Station Yard near Pillory Street","properties":{"access":"unknown","bicycle_pa":"stands","capacity":0,"covered":"yes","fee":"","operator":"","nameSource":"junction"},"sourceId":"osm"},{"id":"osm:node:7454678453","latitude":53.0642406,"longitude":-2.4915491,"name":"Cheerbrook Food cycle parking","properties":{"access":"unknown","bicycle_pa":"front_wheel","capacity":4,"covered":"no","fee":"no","operator":"","nameSource":"landmark"},"sourceId":"osm"}],"schemaVersion":2}
