{"key":"12/2019/1524","points":[{"id":"osm:node:10148430827","latitude":41.752631,"longitude":-2.4692716,"name":"Calle Ciudad Real cycle parking","properties":{"access":"unknown","bicycle_pa":"wall_loops","capacity":0,"covered":"","fee":"","operator":"","nameSource":"street"},"sourceId":"osm"},{"id":"osm:node:10148430828","latitude":41.7527105,"longitude":-2.4696287,"name":"Calle Ciudad Real cycle parking","properties":{"access":"unknown","bicycle_pa":"wall_loops","capacity":0,"covered":"","fee":"","operator":"","nameSource":"street"},"sourceId":"osm"},{"id":"osm:node:10148430836","latitude":41.7531954,"longitude":-2.4707314,"name":"Avenida Universidad by Cafetería Universitaria","properties":{"access":"unknown","bicycle_pa":"wall_loops","capacity":12,"covered":"no","fee":"","operator":"","nameSource":"landmark"},"sourceId":"osm"},{"id":"osm:node:11147368628","latitude":41.7565459,"longitude":-2.4705728,"name":"Calle de José Tudela near Calle Ramón de la Órden","properties":{"access":"unknown","bicycle_pa":"wall_loops","capacity":6,"covered":"no","fee":"","operator":"","nameSource":"junction"},"sourceId":"osm"},{"id":"osm:node:11147368633","latitude":41.7623917,"longitude":-2.4706781,"name":"Avenida de Los Duques de Soria near Calle Los Linajes de Soria","properties":{"access":"unknown","bicycle_pa":"wall_loops","capacity":6,"covered":"no","fee":"","operator":"","nameSource":"junction"},"sourceId":"osm"},{"id":"osm:node:11148528060","latitude":41.7639538,"longitude":-2.4687308,"name":"Plaza Mariano Granados near Plaza Jurados de Cuadrilla","properties":{"access":"unknown","bicycle_pa":"bollard","capacity":4,"covered":"no","fee":"","operator":"","nameSource":"junction"},"sourceId":"osm"},{"id":"osm:node:13409514260","latitude":41.7634083,"longitude":-2.4632621,"name":"Calle Sorovega near Calle El Collado","properties":{"access":"unknown","bicycle_pa":"","capacity":0,"covered":"no","fee":"","operator":"","nameSource":"junction"},"sourceId":"osm"},{"id":"osm:node:2999498594","latitude":41.7600924,"longitude":-2.4826911,"name":"Calle Congreso de los Diputados near Calle Manuel Fraga Iribarne","properties":{"access":"unknown","bicycle_pa":"anchors","capacity":0,"covered":"","fee":"","operator":"","nameSource":"junction"},"sourceId":"osm"}],"schemaVersion":2}
