{"key":"12/1890/1706","points":[{"categories":["hire"],"id":"osm:node:10671633805","latitude":28.7183763,"longitude":-13.8710537,"name":"Cycle hire","properties":{},"sourceId":"osm"},{"categories":["hire"],"id":"osm:node:13449781001","latitude":28.7281357,"longitude":-13.8649255,"name":"Proaction Bikes","properties":{"openingHours":"Mo-Su 09:00-14:00, 16:00-19:00","operator":"Proaction Bikes","website":"https://www.proactionbikerent.com/"},"sourceId":"osm"},{"categories":["hire"],"id":"osm:node:13622656102","latitude":28.728301,"longitude":-13.86388,"name":"Cycle hire","properties":{},"sourceId":"osm"},{"categories":["shop","hire"],"id":"osm:node:2244847696","latitude":28.7371412,"longitude":-13.8691997,"name":"Vulcano Bikes","properties":{"openingHours":"Mo-Sa 10:00-13:00, 18:00-20:00","website":"http://www.vulcano-biking.com/en"},"sourceId":"osm"},{"categories":["shop"],"id":"osm:node:3781765771","latitude":28.7398169,"longitude":-13.8708715,"name":"Bike Corralejo","properties":{},"sourceId":"osm"},{"categories":["shop","hire"],"id":"osm:node:4929543656","latitude":28.7299419,"longitude":-13.8592784,"name":"Easy riders","properties":{"serviceRental":"yes"},"sourceId":"osm"},{"categories":["hire"],"id":"osm:node:6401796735","latitude":28.730504,"longitude":-13.8672051,"name":"Cycle hire","properties":{},"sourceId":"osm"},{"categories":["shop"],"id":"osm:node:9569000096","latitude":28.7309478,"longitude":-13.8739491,"name":"Bike action","properties":{},"sourceId":"osm"}],"schemaVersion":2}
