{"key":"12/2016/1327","points":[{"id":"osm:node:10728574774","latitude":53.3668909,"longitude":-2.72749,"name":"Widnes Road near Midwood Street","properties":{"access":"unknown","bicycle_pa":"stands","capacity":8,"covered":"no","fee":"no","operator":"","nameSource":"junction"},"sourceId":"osm"},{"id":"osm:node:10881730937","latitude":53.3423248,"longitude":-2.733488,"name":"Granville Street near Church Street","properties":{"access":"yes","bicycle_pa":"staple","capacity":6,"covered":"","fee":"","operator":"","nameSource":"junction"},"sourceId":"osm"},{"id":"osm:node:11098611604","latitude":53.3685941,"longitude":-2.7281783,"name":"Albert Square near Kent Street","properties":{"access":"unknown","bicycle_pa":"stands","capacity":12,"covered":"no","fee":"no","operator":"","nameSource":"junction"},"sourceId":"osm"},{"id":"osm:node:11099619759","latitude":53.3518727,"longitude":-2.7719669,"name":"Hale Road near Blackburne Avenue","properties":{"access":"unknown","bicycle_pa":"stands","capacity":4,"covered":"no","fee":"no","operator":"","nameSource":"junction"},"sourceId":"osm"},{"id":"osm:node:11427139807","latitude":53.3520804,"longitude":-2.7338691,"name":"Mersey Road near Church Street","properties":{"access":"unknown","bicycle_pa":"stands","capacity":10,"covered":"no","fee":"","operator":"","nameSource":"junction"},"sourceId":"osm"},{"id":"osm:node:12149482819","latitude":53.3364403,"longitude":-2.798446,"name":"Ivy Farm Court near Town Lane","properties":{"access":"unknown","bicycle_pa":"wall_loops","capacity":6,"covered":"no","fee":"","operator":"","nameSource":"junction"},"sourceId":"osm"},{"id":"osm:node:2768222832","latitude":53.3420707,"longitude":-2.7316843,"name":"Church Street near Public Hall Street","properties":{"access":"unknown","bicycle_pa":"stands","capacity":4,"covered":"no","fee":"","operator":"","nameSource":"junction"},"sourceId":"osm"},{"id":"osm:node:2768222985","latitude":53.3426674,"longitude":-2.7331966,"name":"Church Street near Granville Street","properties":{"access":"unknown","bicycle_pa":"stands","capacity":6,"covered":"no","fee":"","operator":"","nameSource":"junction"},"sourceId":"osm"},{"id":"osm:node:5395538701","latitude":53.3661261,"longitude":-2.7294709,"name":"Widnes Road near Frederick Street","properties":{"access":"yes","bicycle_pa":"stands","capacity":8,"covered":"no","fee":"no","operator":"","nameSource":"junction"},"sourceId":"osm"},{"id":"osm:node:5395538704","latitude":53.366727,"longitude":-2.7284019,"name":"Widnes Road near Elliot Street","properties":{"access":"unknown","bicycle_pa":"","capacity":4,"covered":"","fee":"","operator":"","nameSource":"junction"},"sourceId":"osm"},{"id":"osm:node:9010651279","latitude":53.3655113,"longitude":-2.7262171,"name":"Gerrard Street near Alfred Street","properties":{"access":"unknown","bicycle_pa":"stands","capacity":10,"covered":"","fee":"","operator":"","nameSource":"junction"},"sourceId":"osm"},{"id":"osm:node:9983626137","latitude":53.339573,"longitude":-2.7301133,"name":"Crosville Way near Bridgewater Expressway","properties":{"access":"unknown","bicycle_pa":"stands","capacity":6,"covered":"no","fee":"no","operator":"","nameSource":"junction"},"sourceId":"osm"},{"id":"osm:node:9994716132","latitude":53.374305,"longitude":-2.7300036,"name":"Fairfield Road by Esposito's Deli","properties":{"access":"yes","bicycle_pa":"stands","capacity":4,"covered":"no","fee":"no","operator":"","nameSource":"landmark"},"sourceId":"osm"},{"id":"osm:way:1198199818","latitude":53.338439400000006,"longitude":-2.73860708,"name":"Shaw Street near Cavendish Street","properties":{"access":"unknown","bicycle_pa":"shed","capacity":0,"covered":"yes","fee":"","operator":"","nameSource":"junction"},"sourceId":"osm"},{"id":"osm:way:1198199819","latitude":53.33851916,"longitude":-2.73871924,"name":"Shaw Street near Cavendish Street","properties":{"access":"unknown","bicycle_pa":"shed","capacity":0,"covered":"yes","fee":"","operator":"","nameSource":"junction"},"sourceId":"osm"}],"schemaVersion":2}
