{"key":"12/2016/1340","points":[{"id":"osm:node:10217677477","latitude":52.6879166,"longitude":-2.7489832,"name":"New Meadow cycle parking","properties":{"access":"permissive","bicycle_pa":"stands","capacity":0,"covered":"no","fee":"no","operator":"","nameSource":"landmark"},"sourceId":"osm"},{"id":"osm:node:10889640292","latitude":52.6891081,"longitude":-2.7727872,"name":"Longden Road by Screwfix","properties":{"access":"unknown","bicycle_pa":"stands","capacity":6,"covered":"yes","fee":"","operator":"","nameSource":"landmark"},"sourceId":"osm"},{"id":"osm:node:10994652086","latitude":52.6882682,"longitude":-2.7548714,"name":"Hereford Road by McDonald's","properties":{"access":"customers","bicycle_pa":"stands","capacity":4,"covered":"","fee":"","operator":"","nameSource":"landmark"},"sourceId":"osm"},{"id":"osm:node:11236501047","latitude":52.6919334,"longitude":-2.7497162,"name":"Hazledine Way cycle parking","properties":{"access":"unknown","bicycle_pa":"stands","capacity":0,"covered":"yes","fee":"no","operator":"","nameSource":"street"},"sourceId":"osm"},{"id":"osm:node:12949535411","latitude":52.6867505,"longitude":-2.7415261,"name":"Thrower Road near Maxfield Drive","properties":{"access":"yes","bicycle_pa":"stands","capacity":14,"covered":"no","fee":"no","operator":"","nameSource":"junction"},"sourceId":"osm"},{"id":"osm:node:12949535417","latitude":52.6869188,"longitude":-2.7389594,"name":"The Rose Walk by Hope House","properties":{"access":"yes","bicycle_pa":"stands","capacity":8,"covered":"no","fee":"no","operator":"","nameSource":"landmark"},"sourceId":"osm"},{"id":"osm:node:12949535419","latitude":52.6871612,"longitude":-2.738855,"name":"The Rose Walk by Medivet","properties":{"access":"yes","bicycle_pa":"stands","capacity":20,"covered":"no","fee":"no","operator":"","nameSource":"landmark"},"sourceId":"osm"},{"id":"osm:node:13114514509","latitude":52.6881987,"longitude":-2.7507659,"name":"Meole Brace cycle parking","properties":{"access":"permissive","bicycle_pa":"stands","capacity":40,"covered":"no","fee":"no","operator":"","nameSource":"place"},"sourceId":"osm"},{"id":"osm:node:13114514510","latitude":52.6882557,"longitude":-2.7503806,"name":"New Meadow cycle parking","properties":{"access":"permissive","bicycle_pa":"stands","capacity":0,"covered":"no","fee":"no","operator":"","nameSource":"landmark"},"sourceId":"osm"},{"id":"osm:node:3753281146","latitude":52.687718,"longitude":-2.7532457,"name":"Timpson cycle parking","properties":{"access":"unknown","bicycle_pa":"stands","capacity":12,"covered":"yes","fee":"no","operator":"","nameSource":"landmark"},"sourceId":"osm"},{"id":"osm:node:8528768310","latitude":52.688024,"longitude":-2.7398971,"name":"Oteley Road by ALDI","properties":{"access":"unknown","bicycle_pa":"stands","capacity":0,"covered":"yes","fee":"no","operator":"","nameSource":"landmark"},"sourceId":"osm"},{"id":"osm:node:8671932205","latitude":52.6892455,"longitude":-2.7464234,"name":"Oteley Road cycle parking","properties":{"access":"yes","bicycle_pa":"stands","capacity":0,"covered":"no","fee":"no","operator":"","nameSource":"street"},"sourceId":"osm"},{"id":"osm:node:9038041167","latitude":52.6742421,"longitude":-2.7723316,"name":"Lythwood Road near Beeches Road","properties":{"access":"yes","bicycle_pa":"stands","capacity":6,"covered":"no","fee":"no","operator":"","nameSource":"junction"},"sourceId":"osm"},{"id":"osm:node:9053630193","latitude":52.6893843,"longitude":-2.7539543,"name":"Hereford Road by M&S Foodhall","properties":{"access":"yes","bicycle_pa":"stands","capacity":0,"covered":"no","fee":"no","operator":"","nameSource":"landmark"},"sourceId":"osm"},{"id":"osm:node:9056618240","latitude":52.6920986,"longitude":-2.7326778,"name":"Tilstock Crescent near Rowley Court","properties":{"access":"yes","bicycle_pa":"stands","capacity":6,"covered":"no","fee":"no","operator":"","nameSource":"junction"},"sourceId":"osm"},{"id":"osm:node:9113524669","latitude":52.6916134,"longitude":-2.7676544,"name":"Stanley Lane cycle parking","properties":{"access":"private","bicycle_pa":"","capacity":0,"covered":"yes","fee":"","operator":"","nameSource":"street"},"sourceId":"osm"},{"id":"osm:node:9114743597","latitude":52.6959464,"longitude":-2.7674578,"name":"Longden Road cycle parking","properties":{"access":"private","bicycle_pa":"stands","capacity":0,"covered":"yes","fee":"no","operator":"","nameSource":"street"},"sourceId":"osm"},{"id":"osm:node:9114743598","latitude":52.6959799,"longitude":-2.769216,"name":"Grange Road cycle parking","properties":{"access":"private","bicycle_pa":"stands","capacity":0,"covered":"yes","fee":"no","operator":"","nameSource":"street"},"sourceId":"osm"},{"id":"osm:node:9560764574","latitude":52.6865489,"longitude":-2.7536429,"name":"Wedgewood Crescent cycle parking","properties":{"access":"yes","bicycle_pa":"stands","capacity":8,"covered":"no","fee":"no","operator":"","nameSource":"street"},"sourceId":"osm"},{"id":"osm:node:9713442714","latitude":52.6955546,"longitude":-2.7297037,"name":"Springfield Way near Sutton Way","properties":{"access":"yes","bicycle_pa":"stands","capacity":4,"covered":"","fee":"no","operator":"","nameSource":"junction"},"sourceId":"osm"},{"id":"osm:way:1032544268","latitude":52.694843860000006,"longitude":-2.7267290199999996,"name":"Mereside near Springfield Green","properties":{"access":"private","bicycle_pa":"stands","capacity":0,"covered":"no","fee":"","operator":"","nameSource":"junction"},"sourceId":"osm"}],"schemaVersion":2}
