{"key":"12/2016/1501","points":[{"id":"osm:node:546637125","latitude":43.2220626,"longitude":-2.7352816,"name":"San Pedro kalea near Landatxu kalea","properties":{"access":"unknown","bicycle_pa":"stands","capacity":10,"covered":"no","fee":"","operator":"","nameSource":"junction"},"sourceId":"osm"},{"id":"osm:node:7804845833","latitude":43.2205011,"longitude":-2.7327176,"name":"Karmen kalea near Konbenio kalea","properties":{"access":"unknown","bicycle_pa":"","capacity":5,"covered":"","fee":"","operator":"","nameSource":"junction"},"sourceId":"osm"},{"id":"osm:node:9077126032","latitude":43.2175707,"longitude":-2.7287829,"name":"Santa Ana auzoa near Andrandi auzoa","properties":{"access":"unknown","bicycle_pa":"","capacity":0,"covered":"","fee":"","operator":"","nameSource":"junction"},"sourceId":"osm"},{"id":"osm:node:9135549507","latitude":43.2202134,"longitude":-2.7317779,"name":"Konbenio kalea near Gregorio Mendibil kalea","properties":{"access":"yes","bicycle_pa":"stands","capacity":0,"covered":"no","fee":"no","operator":"","nameSource":"junction"},"sourceId":"osm"},{"id":"osm:node:9359187218","latitude":43.2181237,"longitude":-2.7362115,"name":"Elizalde kalea near Sabino Arana kalea","properties":{"access":"yes","bicycle_pa":"wall_loops","capacity":0,"covered":"","fee":"","operator":"","nameSource":"junction"},"sourceId":"osm"},{"id":"osm:node:9392680517","latitude":43.2166432,"longitude":-2.7384284,"name":"Zubizabala kalea by Salón del Reino de los Testigos de Jehová","properties":{"access":"yes","bicycle_pa":"","capacity":0,"covered":"","fee":"","operator":"","nameSource":"landmark"},"sourceId":"osm"},{"id":"osm:node:9687612417","latitude":43.2207729,"longitude":-2.7306088,"name":"Betarragane kalea cycle parking","properties":{"access":"unknown","bicycle_pa":"","capacity":0,"covered":"","fee":"","operator":"","nameSource":"street"},"sourceId":"osm"}],"schemaVersion":2}
