{"key":"12/1978/1325","points":[{"id":"osm:node:12040708870","latitude":53.447454,"longitude":-6.1516319,"name":"Grove Road near The Rise","properties":{"access":"yes","bicycle_pa":"stands","capacity":10,"covered":"no","fee":"no","operator":"","nameSource":"junction"},"sourceId":"osm"},{"id":"osm:node:12430214818","latitude":53.4859465,"longitude":-6.1510462,"name":"Turvey Walk by Donabate","properties":{"access":"yes","bicycle_pa":"stands","capacity":0,"covered":"yes","fee":"no","operator":"","nameSource":"landmark"},"sourceId":"osm"},{"id":"osm:node:13003706713","latitude":53.4836313,"longitude":-6.1398201,"name":"Orchid Close cycle parking","properties":{"access":"yes","bicycle_pa":"stands","capacity":12,"covered":"no","fee":"no","operator":"","nameSource":"street"},"sourceId":"osm"},{"id":"osm:node:13359971814","latitude":53.4842424,"longitude":-6.1386932,"name":"Marram Avenue near Sea Holly Green","properties":{"access":"yes","bicycle_pa":"stands","capacity":12,"covered":"no","fee":"no","operator":"","nameSource":"junction"},"sourceId":"osm"},{"id":"osm:node:13798037187","latitude":53.4485787,"longitude":-6.1366915,"name":"Coast Road cycle parking","properties":{"access":"unknown","bicycle_pa":"stands","capacity":0,"covered":"","fee":"","operator":"","nameSource":"street"},"sourceId":"osm"},{"id":"osm:node:9522291464","latitude":53.4784809,"longitude":-6.1154981,"name":"Balcarrick Road cycle parking","properties":{"access":"yes","bicycle_pa":"stands","capacity":10,"covered":"no","fee":"no","operator":"Fingal County Council","nameSource":"street"},"sourceId":"osm"},{"id":"osm:node:9957993322","latitude":53.4870712,"longitude":-6.148333,"name":"Donabate Village near Main Street","properties":{"access":"yes","bicycle_pa":"stands","capacity":6,"covered":"no","fee":"no","operator":"Fingal County Council","nameSource":"junction"},"sourceId":"osm"},{"id":"osm:node:9957993323","latitude":53.4861074,"longitude":-6.1487641,"name":"Main Street near Ballisk Court","properties":{"access":"yes","bicycle_pa":"stands","capacity":12,"covered":"no","fee":"no","operator":"Fingal County Council","nameSource":"junction"},"sourceId":"osm"}],"schemaVersion":2}
