{"key":"12/1978/1326","points":[{"id":"osm:node:10138803747","latitude":53.3911159,"longitude":-6.1369686,"name":"Bayside Park near Sutton Park","properties":{"access":"permissive","bicycle_pa":"stands","capacity":16,"covered":"no","fee":"no","operator":"Irish Rail","nameSource":"junction"},"sourceId":"osm"},{"id":"osm:node:10204836119","latitude":53.3903553,"longitude":-6.1521103,"name":"Kilbarrack Parade near Kilbarrack Way","properties":{"access":"permissive","bicycle_pa":"stands","capacity":22,"covered":"no","fee":"no","operator":"Naomh Barróg GAA","nameSource":"junction"},"sourceId":"osm"},{"id":"osm:node:10690101270","latitude":53.3996632,"longitude":-6.1370509,"name":"Castlerosse View cycle parking","properties":{"access":"yes","bicycle_pa":"stands","capacity":10,"covered":"no","fee":"no","operator":"","nameSource":"street"},"sourceId":"osm"},{"id":"osm:node:11077476137","latitude":53.4314465,"longitude":-6.1369774,"name":"Hill Court by Portmarnock Community School","properties":{"access":"customers","bicycle_pa":"","capacity":0,"covered":"yes","fee":"no","operator":"","nameSource":"landmark"},"sourceId":"osm"},{"id":"osm:node:11394149050","latitude":53.402794,"longitude":-6.1315901,"name":"Portmarnock to Baldoyle Greenway cycle parking","properties":{"access":"yes","bicycle_pa":"stands","capacity":4,"covered":"no","fee":"no","operator":"Fingal County Couny","nameSource":"street"},"sourceId":"osm"},{"id":"osm:node:12726056570","latitude":53.3888445,"longitude":-6.1403432,"name":"Bayside Boulevard North near Bayside Square North","properties":{"access":"yes","bicycle_pa":"stands","capacity":10,"covered":"no","fee":"","operator":"","nameSource":"junction"},"sourceId":"osm"},{"id":"osm:node:12895557772","latitude":53.3889858,"longitude":-6.0805987,"name":"Howth Road near Harbour Road","properties":{"access":"yes","bicycle_pa":"stands","capacity":10,"covered":"no","fee":"no","operator":"","nameSource":"junction"},"sourceId":"osm"},{"id":"osm:node:3583768937","latitude":53.3888159,"longitude":-6.0735361,"name":"Harbour Road near Howth Road","properties":{"access":"yes","bicycle_pa":"stands","capacity":8,"covered":"no","fee":"no","operator":"","nameSource":"junction"},"sourceId":"osm"},{"id":"osm:node:3816804885","latitude":53.4182234,"longitude":-6.1511081,"name":"Station Road near The Kilns","properties":{"access":"unknown","bicycle_pa":"stands","capacity":60,"covered":"yes","fee":"","operator":"","nameSource":"junction"},"sourceId":"osm"},{"id":"osm:node:5673670323","latitude":53.4208783,"longitude":-6.1378199,"name":"Golf Links Road near Strand Road","properties":{"access":"yes","bicycle_pa":"stands","capacity":12,"covered":"no","fee":"","operator":"","nameSource":"junction"},"sourceId":"osm"},{"id":"osm:node:5673670328","latitude":53.4217311,"longitude":-6.136051,"name":"Strand Road near Suncroft Avenue","properties":{"access":"yes","bicycle_pa":"stands","capacity":4,"covered":"no","fee":"","operator":"","nameSource":"junction"},"sourceId":"osm"},{"id":"osm:node:6660270529","latitude":53.3877273,"longitude":-6.0665048,"name":"Harbour Road by Il Panorama Café","properties":{"access":"yes","bicycle_pa":"stands","capacity":6,"covered":"no","fee":"no","operator":"Fingal County Council","nameSource":"landmark"},"sourceId":"osm"},{"id":"osm:node:6660426596","latitude":53.3887707,"longitude":-6.0743977,"name":"Howth Road near Harbour Road","properties":{"access":"yes","bicycle_pa":"stands","capacity":8,"covered":"no","fee":"no","operator":"Fingal County Council","nameSource":"junction"},"sourceId":"osm"},{"id":"osm:node:6665803942","latitude":53.3887983,"longitude":-6.0747605,"name":"Howth Road near Marine Villa Apartments","properties":{"access":"yes","bicycle_pa":"stands","capacity":4,"covered":"no","fee":"no","operator":"Fingal County Council","nameSource":"junction"},"sourceId":"osm"},{"id":"osm:node:6665803943","latitude":53.3887998,"longitude":-6.0747263,"name":"Howth Road near Marine Villa Apartments","properties":{"access":"yes","bicycle_pa":"rack","capacity":6,"covered":"no","fee":"no","operator":"Fingal County Council","nameSource":"junction"},"sourceId":"osm"},{"id":"osm:node:6677416011","latitude":53.3889127,"longitude":-6.0731104,"name":"Harbour Road near West Pier","properties":{"access":"yes","bicycle_pa":"stands","capacity":10,"covered":"yes","fee":"no","operator":"Fingal County Council","nameSource":"junction"},"sourceId":"osm"},{"id":"osm:node:6712482756","latitude":53.3919052,"longitude":-6.1165695,"name":"Station Road near Tramway Court","properties":{"access":"customers","bicycle_pa":"lockers","capacity":5,"covered":"yes","fee":"yes","operator":"Bike Locker","nameSource":"junction"},"sourceId":"osm"},{"id":"osm:node:6712482757","latitude":53.391904,"longitude":-6.1165423,"name":"Station Road near Tramway Court","properties":{"access":"permissive","bicycle_pa":"stands","capacity":10,"covered":"no","fee":"no","operator":"Irish Rail","nameSource":"junction"},"sourceId":"osm"},{"id":"osm:node:6720006611","latitude":53.3918896,"longitude":-6.1164018,"name":"Station Road near Tramway Court","properties":{"access":"permissive","bicycle_pa":"wall_loops","capacity":11,"covered":"no","fee":"no","operator":"Irish Rail","nameSource":"junction"},"sourceId":"osm"},{"id":"osm:node:6721789444","latitude":53.3886466,"longitude":-6.0731396,"name":"Harbour Road near West Pier","properties":{"access":"yes","bicycle_pa":"wall_loops","capacity":7,"covered":"no","fee":"no","operator":"","nameSource":"junction"},"sourceId":"osm"},{"id":"osm:node:8679523004","latitude":53.4020743,"longitude":-6.1486867,"name":"Station Hill cycle parking","properties":{"access":"yes","bicycle_pa":"stands","capacity":50,"covered":"no","fee":"no","operator":"","nameSource":"street"},"sourceId":"osm"},{"id":"osm:node:8679538900","latitude":53.4025371,"longitude":-6.1507192,"name":"Station Square near Bridge Street","properties":{"access":"yes","bicycle_pa":"stands","capacity":36,"covered":"yes","fee":"no","operator":"","nameSource":"junction"},"sourceId":"osm"},{"id":"osm:node:8679538901","latitude":53.4025727,"longitude":-6.1511213,"name":"Station Square near Main Street","properties":{"access":"yes","bicycle_pa":"stands","capacity":78,"covered":"yes","fee":"no","operator":"","nameSource":"junction"},"sourceId":"osm"},{"id":"osm:node:8719970949","latitude":53.433977,"longitude":-6.1238645,"name":"Coast Road near Strand Road","properties":{"access":"yes","bicycle_pa":"stands","capacity":10,"covered":"no","fee":"no","operator":"","nameSource":"junction"},"sourceId":"osm"},{"id":"osm:node:8719981416","latitude":53.3966504,"longitude":-6.1258495,"name":"The Mall near Strand Road","properties":{"access":"yes","bicycle_pa":"stands","capacity":14,"covered":"no","fee":"no","operator":"","nameSource":"junction"},"sourceId":"osm"},{"id":"osm:node:8719986160","latitude":53.4209417,"longitude":-6.137361,"name":"Strand Road near Golf Links Road","properties":{"access":"yes","bicycle_pa":"stands","capacity":4,"covered":"no","fee":"no","operator":"","nameSource":"junction"},"sourceId":"osm"},{"id":"osm:node:8720001317","latitude":53.3994331,"longitude":-6.1278198,"name":"Coast Road near Weldon's Lane","properties":{"access":"yes","bicycle_pa":"stands","capacity":10,"covered":"no","fee":"no","operator":"","nameSource":"junction"},"sourceId":"osm"},{"id":"osm:node:8720001318","latitude":53.3968138,"longitude":-6.1345217,"name":"Grange Road near Brookstone Road","properties":{"access":"yes","bicycle_pa":"stands","capacity":10,"covered":"no","fee":"no","operator":"","nameSource":"junction"},"sourceId":"osm"},{"id":"osm:node:8720034436","latitude":53.3980528,"longitude":-6.1270258,"name":"Main Street near Seapoint Avenue","properties":{"access":"yes","bicycle_pa":"stands","capacity":2,"covered":"no","fee":"no","operator":"","nameSource":"junction"},"sourceId":"osm"},{"id":"osm:node:8720044891","latitude":53.3905916,"longitude":-6.1092327,"name":"Sutton Cross cycle parking","properties":{"access":"permissive","bicycle_pa":"stands","capacity":22,"covered":"no","fee":"no","operator":"","nameSource":"street"},"sourceId":"osm"},{"id":"osm:node:8720044892","latitude":53.3904032,"longitude":-6.1095681,"name":"Sutton Cross by SuperValu","properties":{"access":"permissive","bicycle_pa":"stands","capacity":4,"covered":"no","fee":"no","operator":"","nameSource":"landmark"},"sourceId":"osm"},{"id":"osm:node:8721439551","latitude":53.3894299,"longitude":-6.1100682,"name":"Howth Road near Dublin Road","properties":{"access":"yes","bicycle_pa":"stands","capacity":8,"covered":"no","fee":"no","operator":"","nameSource":"junction"},"sourceId":"osm"},{"id":"osm:node:8740885976","latitude":53.4350738,"longitude":-6.1308896,"name":"Wendell Avenue by Mc Cartan's Pharmacy","properties":{"access":"permissive","bicycle_pa":"stands","capacity":8,"covered":"no","fee":"no","operator":"","nameSource":"landmark"},"sourceId":"osm"},{"id":"osm:node:9318883197","latitude":53.3966506,"longitude":-6.1383476,"name":"Grange Road near Racecourse Shopping Centre","properties":{"access":"permissive","bicycle_pa":"stands","capacity":8,"covered":"yes","fee":"no","operator":"","nameSource":"junction"},"sourceId":"osm"},{"id":"osm:node:9962136162","latitude":53.3885097,"longitude":-6.0712552,"name":"Harbour Road near Church Street","properties":{"access":"unknown","bicycle_pa":"stands","capacity":4,"covered":"no","fee":"","operator":"","nameSource":"junction"},"sourceId":"osm"}],"schemaVersion":2}
