{"key":"12/1978/1330","points":[{"id":"osm:node:10047864864","latitude":53.2036686,"longitude":-6.0983976,"name":"Strand Road near Albert Avenue","properties":{"access":"yes","bicycle_pa":"stands","capacity":38,"covered":"no","fee":"no","operator":"","nameSource":"junction"},"sourceId":"osm"},{"id":"osm:node:10047894625","latitude":53.2030477,"longitude":-6.0980937,"name":"Strand Road near Albert Avenue","properties":{"access":"yes","bicycle_pa":"stands","capacity":40,"covered":"yes","fee":"no","operator":"","nameSource":"junction"},"sourceId":"osm"},{"id":"osm:node:11148388719","latitude":53.2023982,"longitude":-6.0973407,"name":"The Promenade cycle parking","properties":{"access":"yes","bicycle_pa":"stands","capacity":20,"covered":"no","fee":"no","operator":"","nameSource":"street"},"sourceId":"osm"},{"id":"osm:node:11148443605","latitude":53.2054318,"longitude":-6.1000748,"name":"Marine Terrace near Quinsborough Road","properties":{"access":"unknown","bicycle_pa":"","capacity":0,"covered":"","fee":"","operator":"","nameSource":"junction"},"sourceId":"osm"},{"id":"osm:node:11148460906","latitude":53.2005757,"longitude":-6.0972771,"name":"Victoria Avenue near Strand Road","properties":{"access":"unknown","bicycle_pa":"","capacity":0,"covered":"","fee":"","operator":"","nameSource":"junction"},"sourceId":"osm"},{"id":"osm:node:11148466805","latitude":53.2007541,"longitude":-6.0974075,"name":"Strand Road near Victoria Avenue","properties":{"access":"unknown","bicycle_pa":"","capacity":0,"covered":"","fee":"","operator":"","nameSource":"junction"},"sourceId":"osm"},{"id":"osm:node:11783393547","latitude":53.1849833,"longitude":-6.1144716,"name":"Southern Cross Road cycle parking","properties":{"access":"unknown","bicycle_pa":"","capacity":10,"covered":"","fee":"","operator":"","nameSource":"street"},"sourceId":"osm"},{"id":"osm:node:11783393548","latitude":53.1849865,"longitude":-6.1145943,"name":"Southern Cross Road cycle parking","properties":{"access":"unknown","bicycle_pa":"","capacity":19,"covered":"","fee":"","operator":"","nameSource":"street"},"sourceId":"osm"},{"id":"osm:node:12332012389","latitude":53.2005147,"longitude":-6.1110402,"name":"Vevay Road near Killarney Road","properties":{"access":"unknown","bicycle_pa":"stands","capacity":10,"covered":"no","fee":"no","operator":"","nameSource":"junction"},"sourceId":"osm"},{"id":"osm:node:13423891788","latitude":53.2217101,"longitude":-6.1111064,"name":"Woodbrook Avenue by Woodbrook","properties":{"access":"yes","bicycle_pa":"stands","capacity":16,"covered":"no","fee":"no","operator":"","nameSource":"landmark"},"sourceId":"osm"},{"id":"osm:node:13423891789","latitude":53.2220902,"longitude":-6.1112487,"name":"Woodbrook Avenue cycle parking","properties":{"access":"yes","bicycle_pa":"stands","capacity":16,"covered":"no","fee":"no","operator":"","nameSource":"street"},"sourceId":"osm"},{"id":"osm:node:13424231176","latitude":53.2218688,"longitude":-6.1110667,"name":"Woodbrook Avenue by Woodbrook","properties":{"access":"unknown","bicycle_pa":"lockers","capacity":8,"covered":"yes","fee":"","operator":"","nameSource":"landmark"},"sourceId":"osm"},{"id":"osm:node:13468901830","latitude":53.2196009,"longitude":-6.1197207,"name":"Dublin Road by St James's","properties":{"access":"unknown","bicycle_pa":"stands","capacity":0,"covered":"no","fee":"no","operator":"","nameSource":"landmark"},"sourceId":"osm"},{"id":"osm:node:13468901831","latitude":53.2196687,"longitude":-6.1195557,"name":"Dublin Road by St James's","properties":{"access":"unknown","bicycle_pa":"stands","capacity":0,"covered":"no","fee":"no","operator":"","nameSource":"landmark"},"sourceId":"osm"},{"id":"osm:node:13529215293","latitude":53.2219757,"longitude":-6.1213055,"name":"Dublin Road near Shanganagh Cemetery","properties":{"access":"unknown","bicycle_pa":"stands","capacity":0,"covered":"no","fee":"","operator":"","nameSource":"junction"},"sourceId":"osm"},{"id":"osm:node:13544726212","latitude":53.2115938,"longitude":-6.1073939,"name":"Shoreside Park cycle parking","properties":{"access":"unknown","bicycle_pa":"stands","capacity":0,"covered":"","fee":"","operator":"","nameSource":"street"},"sourceId":"osm"},{"id":"osm:node:13583599504","latitude":53.2040865,"longitude":-6.1008309,"name":"Station Yard near Albert Walk","properties":{"access":"unknown","bicycle_pa":"stands","capacity":0,"covered":"","fee":"","operator":"","nameSource":"junction"},"sourceId":"osm"},{"id":"osm:node:13687319157","latitude":53.2097743,"longitude":-6.1157236,"name":"Dublin Road near Saint Peter's Terrace","properties":{"access":"unknown","bicycle_pa":"stands","capacity":0,"covered":"","fee":"","operator":"","nameSource":"junction"},"sourceId":"osm"},{"id":"osm:node:13687319160","latitude":53.2182977,"longitude":-6.1193456,"name":"Woodbrook Avenue near Dublin Road","properties":{"access":"unknown","bicycle_pa":"stands","capacity":0,"covered":"","fee":"","operator":"","nameSource":"junction"},"sourceId":"osm"},{"id":"osm:node:6411727759","latitude":53.2047505,"longitude":-6.1064088,"name":"The Boulevard near Galtrim Park","properties":{"access":"yes","bicycle_pa":"stands","capacity":6,"covered":"no","fee":"no","operator":"","nameSource":"junction"},"sourceId":"osm"},{"id":"osm:node:6411727760","latitude":53.2046157,"longitude":-6.1063554,"name":"Galtrim Park near Quinsborough Road","properties":{"access":"yes","bicycle_pa":"stands","capacity":6,"covered":"no","fee":"no","operator":"","nameSource":"junction"},"sourceId":"osm"},{"id":"osm:node:8082984510","latitude":53.2011212,"longitude":-6.1093628,"name":"Father Colahan Terrace by Integrated Care Unit","properties":{"access":"unknown","bicycle_pa":"stands","capacity":5,"covered":"yes","fee":"no","operator":"","nameSource":"landmark"},"sourceId":"osm"},{"id":"osm:node:8419462736","latitude":53.2004266,"longitude":-6.1110198,"name":"Vevay Road near Killarney Road","properties":{"access":"unknown","bicycle_pa":"stands","capacity":12,"covered":"no","fee":"no","operator":"","nameSource":"junction"},"sourceId":"osm"},{"id":"osm:node:8421733724","latitude":53.2004918,"longitude":-6.111403,"name":"Killarney Road near Kilmantain Place","properties":{"access":"unknown","bicycle_pa":"stands","capacity":10,"covered":"no","fee":"no","operator":"","nameSource":"junction"},"sourceId":"osm"},{"id":"osm:node:9307607871","latitude":53.2021131,"longitude":-6.1103964,"name":"St Kevin's Square near Main Street","properties":{"access":"unknown","bicycle_pa":"stands","capacity":8,"covered":"no","fee":"","operator":"","nameSource":"junction"},"sourceId":"osm"},{"id":"osm:node:9820506917","latitude":53.198199,"longitude":-6.094457,"name":"The Promenade by The Coffee Dock","properties":{"access":"unknown","bicycle_pa":"stands","capacity":10,"covered":"no","fee":"","operator":"","nameSource":"landmark"},"sourceId":"osm"},{"id":"osm:node:9820534218","latitude":53.2042476,"longitude":-6.100626,"name":"Station Yard near Albert Walk","properties":{"access":"unknown","bicycle_pa":"wall_loops","capacity":101,"covered":"yes","fee":"","operator":"","nameSource":"junction"},"sourceId":"osm"},{"id":"osm:way:1496912228","latitude":53.21006012,"longitude":-6.10922978,"name":"Corke Abbey cycle parking","properties":{"access":"unknown","bicycle_pa":"shed","capacity":0,"covered":"","fee":"","operator":"","nameSource":"street"},"sourceId":"osm"},{"id":"osm:way:1496912229","latitude":53.21008042,"longitude":-6.109179759999999,"name":"Corke Abbey cycle parking","properties":{"access":"unknown","bicycle_pa":"shed","capacity":0,"covered":"","fee":"","operator":"","nameSource":"street"},"sourceId":"osm"},{"id":"osm:way:1496912230","latitude":53.21010232,"longitude":-6.10912916,"name":"Corke Abbey cycle parking","properties":{"access":"unknown","bicycle_pa":"shed","capacity":0,"covered":"","fee":"","operator":"","nameSource":"street"},"sourceId":"osm"},{"id":"osm:way:1496912231","latitude":53.21012277999999,"longitude":-6.10907948,"name":"Corke Abbey cycle parking","properties":{"access":"unknown","bicycle_pa":"shed","capacity":0,"covered":"","fee":"","operator":"","nameSource":"street"},"sourceId":"osm"}],"schemaVersion":2}
