{"key":"12/1978/1588","points":[{"id":"osm:node:11174470741","latitude":37.3788647,"longitude":-6.1371647,"name":"Avenida de Jerónimo Leal Navarro near Avenida Jerónimo Leal Navarro","properties":{"access":"yes","bicycle_pa":"wall_loops","capacity":22,"covered":"no","fee":"no","operator":"","nameSource":"junction"},"sourceId":"osm"},{"id":"osm:node:12179224198","latitude":37.379327,"longitude":-6.0818258,"name":"Avenida del Trabajo near Calle Confección","properties":{"access":"unknown","bicycle_pa":"wall_loops","capacity":0,"covered":"","fee":"","operator":"","nameSource":"junction"},"sourceId":"osm"},{"id":"osm:node:6332989677","latitude":37.3910364,"longitude":-6.0802528,"name":"Calle Virgen del Pilar near Calle Asturias","properties":{"access":"unknown","bicycle_pa":"","capacity":0,"covered":"","fee":"","operator":"","nameSource":"junction"},"sourceId":"osm"},{"id":"osm:node:6332989678","latitude":37.390943,"longitude":-6.0802626,"name":"Calle Virgen del Pilar near Calle Rodrigo de Triana","properties":{"access":"unknown","bicycle_pa":"","capacity":0,"covered":"","fee":"","operator":"","nameSource":"junction"},"sourceId":"osm"},{"id":"osm:node:6336032973","latitude":37.3871404,"longitude":-6.1052018,"name":"Corredor verde del Riopudio near Cañada Real de las Islas","properties":{"access":"unknown","bicycle_pa":"","capacity":0,"covered":"","fee":"","operator":"","nameSource":"junction"},"sourceId":"osm"},{"id":"osm:node:6347645599","latitude":37.3800045,"longitude":-6.0838067,"name":"Calle Tecnología by Sprinter","properties":{"access":"yes","bicycle_pa":"wall_loops","capacity":5,"covered":"no","fee":"no","operator":"","nameSource":"landmark"},"sourceId":"osm"},{"id":"osm:node:6379183156","latitude":37.3835401,"longitude":-6.1040052,"name":"Corredor verde del Riopudio near Cañada Real de las Islas","properties":{"access":"yes","bicycle_pa":"wall_loops","capacity":0,"covered":"yes","fee":"no","operator":"","nameSource":"junction"},"sourceId":"osm"},{"id":"osm:node:6389107846","latitude":37.3853203,"longitude":-6.0793818,"name":"Avenida de la Concordia near Calle Manuel Canela","properties":{"access":"yes","bicycle_pa":"stands","capacity":0,"covered":"yes","fee":"no","operator":"","nameSource":"junction"},"sourceId":"osm"},{"id":"osm:node:6389107847","latitude":37.3861351,"longitude":-6.075783,"name":"Calle Pío XII near Calle Juan de Dios Soto","properties":{"access":"customers","bicycle_pa":"streetpod","capacity":0,"covered":"","fee":"","operator":"","nameSource":"junction"},"sourceId":"osm"},{"id":"osm:node:6435911747","latitude":37.3891312,"longitude":-6.0844385,"name":"Calle Romero Ressendi near Calle Jiménez Aranda","properties":{"access":"customers","bicycle_pa":"wall_loops","capacity":0,"covered":"no","fee":"no","operator":"","nameSource":"junction"},"sourceId":"osm"},{"id":"osm:node:9666978714","latitude":37.3805288,"longitude":-6.0829964,"name":"Calle Desarrollo by Tuk Tuk","properties":{"access":"yes","bicycle_pa":"wall_loops","capacity":5,"covered":"no","fee":"no","operator":"","nameSource":"landmark"},"sourceId":"osm"},{"id":"osm:node:9684040938","latitude":37.3888898,"longitude":-6.0705883,"name":"Carril bici El Majuelo near Calle Enrique Granados","properties":{"access":"yes","bicycle_pa":"stands","capacity":0,"covered":"no","fee":"no","operator":"","nameSource":"junction"},"sourceId":"osm"},{"id":"osm:node:9739862880","latitude":37.38461,"longitude":-6.0668953,"name":"Avenida de Europa by Heladería Cafetería Francis","properties":{"access":"yes","bicycle_pa":"stands","capacity":5,"covered":"no","fee":"","operator":"","nameSource":"landmark"},"sourceId":"osm"}],"schemaVersion":2}
