{"key":"12/1978/1598","points":[{"id":"osm:node:10113686226","latitude":36.6860754,"longitude":-6.1167166,"name":"Calle Nuestra Señora de la Consolación near Avenida de la Universidad","properties":{"access":"yes","bicycle_pa":"parking_bici","capacity":25,"covered":"yes","fee":"","operator":"PVerde","nameSource":"junction"},"sourceId":"osm"},{"id":"osm:node:11664882483","latitude":36.681236,"longitude":-6.1256399,"name":"Calle Ronda de los Alunados near Glorieta de la Guardia Civil","properties":{"access":"unknown","bicycle_pa":"stands","capacity":5,"covered":"no","fee":"","operator":"","nameSource":"junction"},"sourceId":"osm"},{"id":"osm:node:11731249870","latitude":36.6879112,"longitude":-6.1424761,"name":"Calle Ancha near Calle Ciprés","properties":{"access":"yes","bicycle_pa":"stands","capacity":4,"covered":"no","fee":"no","operator":"","nameSource":"junction"},"sourceId":"osm"},{"id":"osm:node:3037828543","latitude":36.6823556,"longitude":-6.1364833,"name":"Calle Doña Blanca near Calle Mesones","properties":{"access":"unknown","bicycle_pa":"stands","capacity":4,"covered":"no","fee":"","operator":"","nameSource":"junction"},"sourceId":"osm"},{"id":"osm:node:3037831340","latitude":36.6818628,"longitude":-6.1378221,"name":"Calle Consistorio near Plaza del Arenal","properties":{"access":"unknown","bicycle_pa":"stands","capacity":6,"covered":"no","fee":"","operator":"","nameSource":"junction"},"sourceId":"osm"},{"id":"osm:node:3037836828","latitude":36.6858013,"longitude":-6.1370746,"name":"Calle Larga near Alameda Marqués de Casa Domecq","properties":{"access":"unknown","bicycle_pa":"stands","capacity":14,"covered":"no","fee":"","operator":"","nameSource":"junction"},"sourceId":"osm"},{"id":"osm:node:3149699740","latitude":36.6830268,"longitude":-6.1382973,"name":"Plaza de la Yerba near Calle Angostillo de San Dionisio","properties":{"access":"yes","bicycle_pa":"wave","capacity":0,"covered":"no","fee":"","operator":"","nameSource":"junction"},"sourceId":"osm"},{"id":"osm:node:3220150737","latitude":36.6905386,"longitude":-6.1358266,"name":"Calle Sevilla near Avenida Alcalde Álvaro Domecq","properties":{"access":"unknown","bicycle_pa":"stands","capacity":10,"covered":"no","fee":"","operator":"","nameSource":"junction"},"sourceId":"osm"},{"id":"osm:node:3316801042","latitude":36.6878748,"longitude":-6.1375992,"name":"Calle Beato Juan Grande near Calle San Juan de Dios","properties":{"access":"unknown","bicycle_pa":"stands","capacity":8,"covered":"no","fee":"","operator":"","nameSource":"junction"},"sourceId":"osm"},{"id":"osm:node:3619596622","latitude":36.6835987,"longitude":-6.1358186,"name":"Calle Santa María near Calle Graviña","properties":{"access":"yes","bicycle_pa":"stands","capacity":8,"covered":"no","fee":"no","operator":"","nameSource":"junction"},"sourceId":"osm"},{"id":"osm:node:3655472204","latitude":36.6863178,"longitude":-6.1462555,"name":"Calle Arrabal de Santa Isabel near Calle Cristal","properties":{"access":"unknown","bicycle_pa":"","capacity":0,"covered":"","fee":"","operator":"","nameSource":"junction"},"sourceId":"osm"},{"id":"osm:node:3983901417","latitude":36.6936311,"longitude":-6.1438515,"name":"Avenida de la Soleá near Avenida la Serrana","properties":{"access":"unknown","bicycle_pa":"","capacity":0,"covered":"","fee":"","operator":"","nameSource":"junction"},"sourceId":"osm"},{"id":"osm:node:3983901418","latitude":36.6933868,"longitude":-6.1437837,"name":"Avenida la Serrana near Calle Vino Fino","properties":{"access":"unknown","bicycle_pa":"","capacity":0,"covered":"","fee":"","operator":"","nameSource":"junction"},"sourceId":"osm"},{"id":"osm:node:3984377411","latitude":36.6944676,"longitude":-6.143653,"name":"Avenida la Serrana near Calle del Moscatel","properties":{"access":"unknown","bicycle_pa":"","capacity":0,"covered":"","fee":"","operator":"","nameSource":"junction"},"sourceId":"osm"},{"id":"osm:node:3987994854","latitude":36.6937118,"longitude":-6.1428314,"name":"Calle la Plata near Calle Pedro Estupiñán","properties":{"access":"unknown","bicycle_pa":"","capacity":0,"covered":"","fee":"","operator":"","nameSource":"junction"},"sourceId":"osm"},{"id":"osm:node:7885418457","latitude":36.6971504,"longitude":-6.137845,"name":"Avenida de los Marianistas near Calle Candilejas","properties":{"access":"customers","bicycle_pa":"building","capacity":0,"covered":"no","fee":"no","operator":"","nameSource":"junction"},"sourceId":"osm"},{"id":"osm:node:8461440335","latitude":36.6963877,"longitude":-6.1393435,"name":"Avenida de los Marianistas near Calle Marianista Ciriaco Alzola","properties":{"access":"private","bicycle_pa":"building","capacity":0,"covered":"","fee":"","operator":"","nameSource":"junction"},"sourceId":"osm"},{"id":"osm:node:8511434657","latitude":36.6860517,"longitude":-6.1229463,"name":"Calle Ronda del Pelirón near Calle Batalla de Vallehermoso","properties":{"access":"yes","bicycle_pa":"wall_loops","capacity":6,"covered":"","fee":"no","operator":"","nameSource":"junction"},"sourceId":"osm"},{"id":"osm:node:8511434658","latitude":36.6864017,"longitude":-6.122614,"name":"Calle Batalla de Jerez near Calle Batalla de Majaceite","properties":{"access":"yes","bicycle_pa":"wall_loops","capacity":6,"covered":"","fee":"no","operator":"","nameSource":"junction"},"sourceId":"osm"},{"id":"osm:node:9161082383","latitude":36.6803329,"longitude":-6.1392833,"name":"Calle Puerto near Calle Armas","properties":{"access":"unknown","bicycle_pa":"stands","capacity":5,"covered":"","fee":"","operator":"","nameSource":"junction"},"sourceId":"osm"},{"id":"osm:node:9161082388","latitude":36.6801657,"longitude":-6.1270081,"name":"Calle Cartuja near Plaza de la Estación","properties":{"access":"unknown","bicycle_pa":"stands","capacity":8,"covered":"","fee":"","operator":"","nameSource":"junction"},"sourceId":"osm"},{"id":"osm:way:1110383625","latitude":36.67326828,"longitude":-6.12306404,"name":"Calle Obispo Cirarda cycle parking","properties":{"access":"unknown","bicycle_pa":"stands","capacity":5,"covered":"","fee":"","operator":"","nameSource":"street"},"sourceId":"osm"}],"schemaVersion":2}
