{"key":"12/2021/1325","points":[{"categories":["hire"],"id":"osm:node:10205051614","latitude":53.4803719,"longitude":-2.2926572,"name":"Eccles New Road West","properties":{"fee":"yes","network":"tfgm_cycle_hire","operator":"Beryl","website":"https://beryl.cc/scheme/greater-manchester"},"sourceId":"osm"},{"categories":["hire"],"id":"osm:node:10205051616","latitude":53.4568943,"longitude":-2.290096,"name":"Trafford College","properties":{"fee":"yes","network":"tfgm_cycle_hire","operator":"Beryl","website":"https://beryl.cc/scheme/greater-manchester"},"sourceId":"osm"},{"categories":["hire"],"id":"osm:node:10205151641","latitude":53.472231,"longitude":-2.296491,"name":"MediaCityUK Metrolink","properties":{"fee":"yes","network":"tfgm_cycle_hire","operator":"Beryl","website":"https://beryl.cc/scheme/greater-manchester"},"sourceId":"osm"},{"categories":["hire"],"id":"osm:node:10205151643","latitude":53.473198,"longitude":-2.301648,"name":"MediaCityUK - Tomorrow","properties":{"fee":"yes","network":"tfgm_cycle_hire","operator":"Beryl","website":"https://beryl.cc/scheme/greater-manchester"},"sourceId":"osm"},{"categories":["hire"],"id":"osm:node:10205151651","latitude":53.468472,"longitude":-2.296674,"name":"Imperial War Museum Metrolink II","properties":{"fee":"yes","network":"tfgm_cycle_hire","operator":"Beryl","website":"https://beryl.cc/scheme/greater-manchester"},"sourceId":"osm"},{"categories":["hire"],"id":"osm:node:10205294218","latitude":53.486174,"longitude":-2.294865,"name":"Langworthy Road/Jubilee Street","properties":{"fee":"yes","network":"tfgm_cycle_hire","operator":"Beryl","website":"https://beryl.cc/scheme/greater-manchester"},"sourceId":"osm"},{"categories":["hire"],"id":"osm:node:10207623491","latitude":53.479667,"longitude":-2.287542,"name":"Eccles New Road East","properties":{"fee":"yes","network":"tfgm_cycle_hire","operator":"Beryl","website":"https://beryl.cc/scheme/greater-manchester"},"sourceId":"osm"},{"categories":["hire"],"id":"osm:node:10207662326","latitude":53.468194,"longitude":-2.29563,"name":"Imperial War Museum Metrolink I","properties":{"brand":"Beryl","fee":"yes","network":"Beryl","operator":"Beryl","website":"https://beryl.cc/scheme/greater-manchester"},"sourceId":"osm"},{"categories":["hire"],"id":"osm:node:10207662327","latitude":53.46503,"longitude":-2.289889,"name":"Wharfside Way/Victoria Place","properties":{"brand":"Beryl","fee":"yes","network":"Beryl","operator":"Beryl","website":"https://beryl.cc/scheme/greater-manchester"},"sourceId":"osm"},{"categories":["hire"],"id":"osm:node:12132070352","latitude":53.4741067,"longitude":-2.2914712,"name":"Cycle hire","properties":{},"sourceId":"osm"},{"categories":["repair"],"id":"osm:node:3006887958","latitude":53.4609598,"longitude":-2.2856022,"name":"Halfords","properties":{"brand":"Halfords","openingHours":"Mo-Fr 08:00-20:00; Sa 08:00-18:00; Su 10:00-17:00","serviceRepair":"yes","website":"https://www.halfords.com/locations/white-city-store/"},"sourceId":"osm"},{"categories":["shop"],"id":"osm:node:6245588607","latitude":53.468515,"longitude":-2.3623676,"name":"Evans Cycles","properties":{"brand":"Evans Cycles"},"sourceId":"osm"},{"categories":["shop"],"id":"osm:node:6247301652","latitude":53.4464795,"longitude":-2.3538071,"name":"Sixth Element","properties":{"website":"https://www.sixthelement.co.uk/"},"sourceId":"osm"},{"categories":["shop"],"id":"osm:node:718623034","latitude":53.4589164,"longitude":-2.3581205,"name":"Manchester Cycle Exchange","properties":{},"sourceId":"osm"},{"categories":["repair"],"id":"osm:node:7423227579","latitude":53.471817,"longitude":-2.2986437,"name":"Bicycle repair station","properties":{"openingHours":"24/7","servicePump":"yes","serviceTools":"yes"},"sourceId":"osm"}],"schemaVersion":2}
