{"key":"12/2021/1326","points":[{"categories":["shop"],"id":"osm:node:308939795","latitude":53.3896239,"longitude":-2.3457436,"name":"Bike Shak","properties":{},"sourceId":"osm"},{"categories":["shop"],"id":"osm:node:760334867","latitude":53.4299277,"longitude":-2.342619,"name":"Devereux Cycles","properties":{},"sourceId":"osm"},{"categories":["shop"],"id":"osm:node:7995795146","latitude":53.4243658,"longitude":-2.3221415,"name":"Folk Like You","properties":{"openingHours":"Mo-Sa 10:00-17:00 closed; Tu, Su 11:00-15:00"},"sourceId":"osm"},{"categories":["shop","repair","hire"],"id":"osm:node:847060439","latitude":53.4299593,"longitude":-2.2874901,"name":"Velo Times","properties":{"openingHours":"\"See website\"","serviceRental":"yes","serviceRepair":"yes"},"sourceId":"osm"},{"categories":["repair"],"id":"osm:way:520540561","latitude":53.39899988,"longitude":-2.3518088199999996,"name":"Halfords","properties":{"brand":"Halfords","serviceRepair":"yes"},"sourceId":"osm"}],"schemaVersion":2}
