{"key":"12/1999/1277","points":[{"categories":["hire"],"id":"osm:node:11007692904","latitude":55.8769855,"longitude":-4.3062242,"name":"Hyndland Road Station (8232)","properties":{"brand":"OVO Bikes","fee":"yes","network":"nextbike","operator":"nextbike"},"sourceId":"osm"},{"categories":["shop","repair"],"id":"osm:node:1110380030","latitude":55.8795181,"longitude":-4.2700026,"name":"Bike Love","properties":{"openingHours":"Mo,We,Fr,Sa 09:00-18:00","servicePump":"no","serviceRepair":"yes","website":"http://www.bikelove.co.uk/"},"sourceId":"osm"},{"categories":["hire"],"id":"osm:node:12177301101","latitude":55.891058,"longitude":-4.2906139,"name":"Maryhill Library Station (8213)","properties":{"brand":"OVO Bikes","network":"nextbike","operator":"nextbike"},"sourceId":"osm"},{"categories":["hire"],"id":"osm:node:12177301232","latitude":55.8869202,"longitude":-4.285026,"name":"Shakespeare Street (Maryhill) Station (8427)","properties":{"brand":"OVO Bikes","network":"nextbike Glasgow","operator":"nextbike"},"sourceId":"osm"},{"categories":["repair"],"id":"osm:node:13275866789","latitude":55.8828153,"longitude":-4.2772812,"name":"Bicycle repair station","properties":{},"sourceId":"osm"},{"categories":["hire"],"id":"osm:node:2913234634","latitude":55.8783012,"longitude":-4.2884874,"name":"Botanic Gardens Station (8417)","properties":{"brand":"OVO Bikes","fee":"yes","network":"nextbike","operator":"Nextbike"},"sourceId":"osm"},{"categories":["shop"],"id":"osm:node:3494977516","latitude":55.879777,"longitude":-4.2706011,"name":"Kinetics","properties":{"openingHours":"Tu-Sa 10:00-17:00","website":"https://www.kinetics-online.co.uk/"},"sourceId":"osm"},{"categories":["hire"],"id":"osm:node:663425642","latitude":55.8849584,"longitude":-4.2812983,"name":"Queen Margaret Drive / Maryhill Road Station (8419)","properties":{"brand":"OVO Bikes","network":"nextbike Glasgow","operator":"nextbike"},"sourceId":"osm"},{"categories":["shop"],"id":"osm:node:663427889","latitude":55.8879035,"longitude":-4.2850416,"name":"Common Wheel","properties":{},"sourceId":"osm"},{"categories":["hire"],"id":"osm:node:6996278789","latitude":55.8787741,"longitude":-4.2685645,"name":"Firhill Road Station (8464)","properties":{"brand":"nextbike Glasgow","fee":"yes","network":"nextbike Glasgow","operator":"nextbike"},"sourceId":"osm"},{"categories":["hire"],"id":"osm:node:8830096801","latitude":55.8782085,"longitude":-4.2425306,"name":"St Rollox","properties":{"brand":"OVO Bikes","network":"nextbike","operator":"nextbike"},"sourceId":"osm"},{"categories":["shop"],"id":"osm:node:9239113568","latitude":55.8759926,"longitude":-4.2918257,"name":"Cyclecycles","properties":{"website":"https://cyclecycles.co.uk/"},"sourceId":"osm"}],"schemaVersion":2}
