{"key":"12/1999/1278","points":[{"categories":["hire"],"id":"osm:node:10224184050","latitude":55.8750307,"longitude":-4.2706638,"name":"Woodside (North) Station (8465)","properties":{"brand":"OVO Bikes","fee":"yes","network":"nextbike","operator":"Nextbike"},"sourceId":"osm"},{"categories":["hire"],"id":"osm:node:10245786453","latitude":55.8652981,"longitude":-4.2863517,"name":"Kelvinhaugh Street / Argyle Street Station (8451)","properties":{"brand":"OVO Bikes","fee":"yes","network":"nextbike","operator":"nextbike"},"sourceId":"osm"},{"categories":["hire"],"id":"osm:node:10971672694","latitude":55.8280893,"longitude":-4.2474897,"name":"Cycle hire","properties":{},"sourceId":"osm"},{"categories":["hire"],"id":"osm:node:11546050057","latitude":55.8415199,"longitude":-4.2697041,"name":"nextbike","properties":{"brand":"OVO Bikes","fee":"yes","network":"nextbike","operator":"nextbike"},"sourceId":"osm"},{"categories":["hire"],"id":"osm:node:11546050058","latitude":55.8410536,"longitude":-4.289955,"name":"nextbike","properties":{"brand":"OVO Bikes","fee":"yes","network":"nextbike","operator":"nextbike"},"sourceId":"osm"},{"categories":["hire"],"id":"osm:node:11546050059","latitude":55.8458219,"longitude":-4.2751078,"name":"nextbike","properties":{"brand":"OVO Bikes","fee":"yes","network":"nextbike","operator":"nextbike"},"sourceId":"osm"},{"categories":["hire"],"id":"osm:node:11868501672","latitude":55.8585273,"longitude":-4.2597296,"name":"Glasgow Central West Station (8216)","properties":{"brand":"OVO Bikes","network":"nextbike","operator":"Nextbike"},"sourceId":"osm"},{"categories":["hire"],"id":"osm:node:12177316894","latitude":55.8565175,"longitude":-4.2685532,"name":"Broomielaw West Station (8217)","properties":{"brand":"OVO Bikes","fee":"yes","network":"nextbike","operator":"Nextbike"},"sourceId":"osm"},{"categories":["hire"],"id":"osm:node:12177325249","latitude":55.8641768,"longitude":-4.2929017,"name":"Yorkhill Street South Station (8310)","properties":{"brand":"OVO Bikes","network":"nextbike","operator":"Nextbike"},"sourceId":"osm"},{"categories":["hire"],"id":"osm:node:12177365018","latitude":55.866933,"longitude":-4.2789032,"name":"Clifton St / Kelvingrove Park East Station (8205)","properties":{"brand":"OVO Bikes","fee":"yes","network":"nextbike","operator":"Nextbike"},"sourceId":"osm"},{"categories":["hire"],"id":"osm:node:12185415749","latitude":55.8651589,"longitude":-4.2603023,"name":"Cambridge Street Station (8434)","properties":{"brand":"OVO Bikes","fee":"yes","network":"nextbike","operator":"Nextbike"},"sourceId":"osm"},{"categories":["hire"],"id":"osm:node:12185415750","latitude":55.8654007,"longitude":-4.2617476,"name":"Sauchiehall Street Station (8463)","properties":{"brand":"OVO Bikes","network":"nextbike","operator":"Nextbike"},"sourceId":"osm"},{"categories":["hire"],"id":"osm:node:12185416281","latitude":55.8638387,"longitude":-4.2637222,"name":"Blythswood Square Station (8484)","properties":{"brand":"OVO Bikes","network":"nextbike","operator":"Nextbike"},"sourceId":"osm"},{"categories":["hire"],"id":"osm:node:12185461190","latitude":55.8740967,"longitude":-4.2612226,"name":"Round Toll Station (8218)","properties":{"brand":"OVO Bikes","fee":"yes","network":"nextbike","operator":"Nextbike"},"sourceId":"osm"},{"categories":["hire"],"id":"osm:node:1254168363","latitude":55.8709128,"longitude":-4.3006692,"name":"Kelvinhall Subway Station (8314)","properties":{"brand":"OVO Bikes","fee":"yes","network":"nextbike","operator":"nextbike"},"sourceId":"osm"},{"categories":["repair"],"id":"osm:node:12638291860","latitude":55.8556189,"longitude":-4.2467582,"name":"Bicycle repair station","properties":{},"sourceId":"osm"},{"categories":["repair"],"id":"osm:node:12747477799","latitude":55.874623,"longitude":-4.2786183,"name":"Benito","properties":{"operator":"Benito","servicePump":"no","serviceTools":"yes"},"sourceId":"osm"},{"categories":["shop","repair"],"id":"osm:node:1291964896","latitude":55.8558612,"longitude":-4.2391598,"name":"Philip Lang Cycles","properties":{"serviceRepair":"yes"},"sourceId":"osm"},{"categories":["repair"],"id":"osm:node:12922675862","latitude":55.8691451,"longitude":-4.2935811,"name":"Bicycle repair station","properties":{"fee":"no","servicePump":"yes","serviceTools":"no"},"sourceId":"osm"},{"categories":["repair"],"id":"osm:node:13061601399","latitude":55.8620206,"longitude":-4.2506548,"name":"Scotrail","properties":{"fee":"no","operator":"Scotrail","servicePump":"no","serviceTools":"yes"},"sourceId":"osm"},{"categories":["shop","repair","hire"],"id":"osm:node:13089622631","latitude":55.8340116,"longitude":-4.2648287,"name":"Bike for Good","properties":{"servicePump":"yes","serviceRental":"yes","serviceRepair":"yes","serviceTools":"yes"},"sourceId":"osm"},{"categories":["repair"],"id":"osm:node:13108882429","latitude":55.8547456,"longitude":-4.2618774,"name":"Bicycle repair station","properties":{"servicePump":"yes","serviceTools":"yes"},"sourceId":"osm"},{"categories":["repair"],"id":"osm:node:13362139229","latitude":55.8700722,"longitude":-4.2965532,"name":"Bicycle repair station","properties":{"fee":"no","openingHours":"24/7","servicePump":"yes","serviceTools":"yes"},"sourceId":"osm"},{"categories":["hire"],"id":"osm:node:13671549798","latitude":55.8547981,"longitude":-4.251769,"name":"Voi","properties":{"fee":"yes","operator":"Voi"},"sourceId":"osm"},{"categories":["hire"],"id":"osm:node:13917791475","latitude":55.8374697,"longitude":-4.271976,"name":"Voi bike station - Nithsdale Street","properties":{"fee":"yes","network":"Voi","operator":"Voi"},"sourceId":"osm"},{"categories":["hire"],"id":"osm:node:1531326326","latitude":55.8598545,"longitude":-4.2699658,"name":"Anderston Railway Station Station (8312)","properties":{"brand":"OVO Bikes","fee":"yes","network":"nextbike","operator":"Nextbike"},"sourceId":"osm"},{"categories":["shop","repair"],"id":"osm:node:1637944090","latitude":55.8582539,"longitude":-4.220397,"name":"JG Cycles","properties":{"openingHours":"Tu-Fr 09:00-18:00; Th 11:00-20:00; Sa 10:00-16:00","operator":"JG Cycles Limited","servicePump":"yes","serviceRepair":"yes"},"sourceId":"osm"},{"categories":["shop","repair"],"id":"osm:node:1893653480","latitude":55.8416415,"longitude":-4.2640439,"name":"Willy Bain's Bicycle Repairî","properties":{"openingHours":"Mo, We-Fr 10:00-17:00; Sa 10:00-13:00","servicePump":"yes","serviceRepair":"yes"},"sourceId":"osm"},{"categories":["shop"],"id":"osm:node:2449936500","latitude":55.8634772,"longitude":-4.2542484,"name":"Evans Cycles","properties":{"brand":"Evans Cycles","openingHours":"Mo-Fr 08:00-18:00; Sa 09:00-18:00; Su 09:00-17:00","servicePump":"yes"},"sourceId":"osm"},{"categories":["shop","repair"],"id":"osm:node:248163618","latitude":55.8544869,"longitude":-4.2460757,"name":"Billy Bilsland","properties":{"servicePump":"yes","serviceRepair":"yes"},"sourceId":"osm"},{"categories":["shop"],"id":"osm:node:248163654","latitude":55.8679305,"longitude":-4.2453994,"name":"Alpine Bikes (Tiso)","properties":{},"sourceId":"osm"},{"categories":["shop"],"id":"osm:node:259197206","latitude":55.8723261,"longitude":-4.2823428,"name":"Gear Bikes","properties":{"openingHours":"Mo-Sa 10:00-18:00; Su 12:00-17:00"},"sourceId":"osm"},{"categories":["hire"],"id":"osm:node:2609550746","latitude":55.8344961,"longitude":-4.2654464,"name":"Nextbike","properties":{"brand":"OVO Bikes","network":"nextbike","operator":"Nextbike"},"sourceId":"osm"},{"categories":["shop"],"id":"osm:node:2694705916","latitude":55.8654268,"longitude":-4.2902762,"name":"Bike for Good West/Velogik UK Ltd.","properties":{"openingHours":"Tu-Sa 10:00-18:00; We 10:00-20:00; Su,Mo closed"},"sourceId":"osm"},{"categories":["hire"],"id":"osm:node:2889605124","latitude":55.8629039,"longitude":-4.2374301,"name":"Glasgow Cathedral","properties":{"brand":"OVO Bikes","network":"nextbike","operator":"nextbike"},"sourceId":"osm"},{"categories":["hire"],"id":"osm:node:2889615098","latitude":55.8630134,"longitude":-4.2407873,"name":"University of Strathclyde North","properties":{"operator":"OVO energy"},"sourceId":"osm"},{"categories":["hire"],"id":"osm:node:2889619927","latitude":55.8606541,"longitude":-4.2419537,"name":"University of Strathclyde (South)","properties":{"brand":"OVO Bikes","network":"nextbike","openingHours":"Mo-Th 08:00-24:00; Fr-Sa 08:00-03:00","operator":"nextbike"},"sourceId":"osm"},{"categories":["hire"],"id":"osm:node:2889628336","latitude":55.8581373,"longitude":-4.2454434,"name":"Merchant Square Cycle Hire Station (8407)","properties":{"brand":"OVO Bikes","network":"nextbike","operator":"Nextbike"},"sourceId":"osm"},{"categories":["hire"],"id":"osm:node:2889659468","latitude":55.8559571,"longitude":-4.2447318,"name":"Trongate Cycle Hire Station (8431)","properties":{"brand":"OVO Bikes","fee":"yes","network":"nextbike","operator":"Nextbike"},"sourceId":"osm"},{"categories":["hire"],"id":"osm:node:2889663337","latitude":55.8575961,"longitude":-4.249974,"name":"Argyle Street Railway Station Cycle Hire Station (8411)","properties":{"brand":"OVO Bikes","network":"nextbike","operator":"Nextbike"},"sourceId":"osm"},{"categories":["hire"],"id":"osm:node:2889665003","latitude":55.8569096,"longitude":-4.2555747,"name":"St Enoch Square Cycle Hire Station (8410)","properties":{"brand":"OVO Bikes","fee":"yes","network":"nextbike","operator":"Nextbike"},"sourceId":"osm"},{"categories":["hire"],"id":"osm:node:2889670527","latitude":55.8597147,"longitude":-4.2519613,"name":"Gallery of Modern Art Cycle Hire Station (8430)","properties":{"brand":"OVO Bikes","network":"nextbike","operator":"Nextbike"},"sourceId":"osm"},{"categories":["hire"],"id":"osm:node:2889677146","latitude":55.8615488,"longitude":-4.249409,"name":"George Square Cycle Hire Station (8406)","properties":{"brand":"OVO Bikes","network":"nextbike","operator":"Nextbike"},"sourceId":"osm"},{"categories":["hire"],"id":"osm:node:2889680746","latitude":55.8621681,"longitude":-4.2521545,"name":"Queen Street Railway Station Cycle Hire Station (8403)","properties":{"brand":"OVO Bikes","fee":"yes","network":"nextbike","operator":"Nextbike"},"sourceId":"osm"},{"categories":["hire"],"id":"osm:node:2889690341","latitude":55.8494433,"longitude":-4.2337533,"name":"Glasgow Green","properties":{"operator":"nextbike"},"sourceId":"osm"},{"categories":["hire"],"id":"osm:node:2889693252","latitude":55.8566174,"longitude":-4.2635162,"name":"Broomielaw Cycle Hire Station (8413)","properties":{"brand":"OVO Bikes","fee":"yes","network":"nextbike","operator":"Voi"},"sourceId":"osm"},{"categories":["hire"],"id":"osm:node:2889693725","latitude":55.8524915,"longitude":-4.2588272,"name":"Bridge Street Subway Cycle Hire Station (8432)","properties":{"brand":"OVO Bikes","network":"nextbike","operator":"nextbike"},"sourceId":"osm"},{"categories":["hire"],"id":"osm:node:2889694433","latitude":55.8646077,"longitude":-4.2700522,"name":"Charing Cross Railway Station Cycle Hire Station (8421)","properties":{"brand":"OVO Bikes","fee":"yes","network":"nextbike","operator":"Nextbike"},"sourceId":"osm"},{"categories":["hire"],"id":"osm:node:2889695188","latitude":55.8607628,"longitude":-4.264028,"name":"Waterloo Street Station (8402)","properties":{"brand":"OVO Bikes","network":"nextbike","operator":"Nextbike"},"sourceId":"osm"},{"categories":["hire"],"id":"osm:node:2889697044","latitude":55.8658307,"longitude":-4.2513625,"name":"Glasgow Caledonian University","properties":{"brand":"OVO Bikes","network":"nextbike","operator":"Nextbike"},"sourceId":"osm"},{"categories":["hire"],"id":"osm:node:2889697517","latitude":55.8649992,"longitude":-4.2525191,"name":"Buchanan Street Bus Station","properties":{"brand":"OVO Bikes","network":"nextbike","operator":"Nextbike"},"sourceId":"osm"},{"categories":["hire"],"id":"osm:node:2889704273","latitude":55.8653812,"longitude":-4.272202,"name":"Mitchell Library Cycle Hire Station (8425)","properties":{},"sourceId":"osm"},{"categories":["hire"],"id":"osm:node:2889705381","latitude":55.8714162,"longitude":-4.2691024,"name":"St George's Cross Cycle Hire Station (8408)","properties":{"brand":"OVO Bikes","fee":"yes","network":"nextbike","operator":"Nextbike"},"sourceId":"osm"},{"categories":["hire"],"id":"osm:node:2889705399","latitude":55.871666,"longitude":-4.2778997,"name":"University of Glasgow (East) Station (8435)","properties":{"brand":"OVO Bikes","fee":"yes","network":"nextbike","operator":"Nextbike"},"sourceId":"osm"},{"categories":["hire"],"id":"osm:node:2889707767","latitude":55.8750536,"longitude":-4.2803722,"name":"Kelvinbridge Subway Cycle Hire Station (8418)","properties":{"brand":"OVO Bikes","fee":"yes","network":"nextbike","operator":"Nextbike"},"sourceId":"osm"},{"categories":["hire"],"id":"osm:node:2889711001","latitude":55.8727036,"longitude":-4.2919966,"name":"University of Glasgow (West) Station (8422)","properties":{"brand":"OVO Bikes","fee":"yes","network":"nextbike Glasgow","operator":"nextbike"},"sourceId":"osm"},{"categories":["hire"],"id":"osm:node:2889712342","latitude":55.8683611,"longitude":-4.2893924,"name":"Kelvingrove Art Gallery (8420)","properties":{"brand":"OVO Bikes","fee":"yes","network":"nextbike","operator":"Nextbike"},"sourceId":"osm"},{"categories":["hire"],"id":"osm:node:2889716348","latitude":55.8591108,"longitude":-4.2872817,"name":"Scottish Event Campus (formally S.E.C.C) Station (8415)","properties":{"brand":"OVO Bikes","network":"nextbike","operator":"nextbike"},"sourceId":"osm"},{"categories":["hire"],"id":"osm:node:2889717945","latitude":55.8657147,"longitude":-4.3052102,"name":"Riverside Museum Cycle Hire Station (8416)","properties":{"brand":"OVO Bikes","fee":"yes","network":"nextbike","operator":"Nextbike"},"sourceId":"osm"},{"categories":["hire"],"id":"osm:node:2944397283","latitude":55.8647937,"longitude":-4.2718136,"name":"Mitchell Library Station (8425)","properties":{"brand":"OVO Bikes","fee":"yes","network":"nextbike","operator":"Nextbike"},"sourceId":"osm"},{"categories":["hire"],"id":"osm:node:3028550280","latitude":55.8607819,"longitude":-4.2586295,"name":"Glasgow Central Station","properties":{"brand":"OVO Bikes","network":"nextbike","operator":"Nextbike"},"sourceId":"osm"},{"categories":["shop"],"id":"osm:node:3620815923","latitude":55.8276258,"longitude":-4.2822537,"name":"Corner Bikes","properties":{},"sourceId":"osm"},{"categories":["hire"],"id":"osm:node:3791893976","latitude":55.8580976,"longitude":-4.2244907,"name":"Bellgrove Railway Station (North)","properties":{"network":"nextbike Glasgow","operator":"nextbike"},"sourceId":"osm"},{"categories":["hire"],"id":"osm:node:4304353170","latitude":55.8433049,"longitude":-4.2621818,"name":"Eglinton Toll (8446)","properties":{"brand":"OVO Bikes","network":"nextbike","operator":"nextbike"},"sourceId":"osm"},{"categories":["hire"],"id":"osm:node:4304570111","latitude":55.8350281,"longitude":-4.2723502,"name":"Voi bike station - Queens Park West","properties":{"fee":"yes","network":"Voi","operator":"Voi"},"sourceId":"osm"},{"categories":["shop"],"id":"osm:node:4451967285","latitude":55.8264885,"longitude":-4.2212443,"name":"Bike Town","properties":{},"sourceId":"osm"},{"categories":["hire"],"id":"osm:node:4539260219","latitude":55.8348565,"longitude":-4.2655362,"name":"Queens Park Railway Station (8447)","properties":{"network":"nextbike Glasgow","operator":"nextbike UK"},"sourceId":"osm"},{"categories":["hire"],"id":"osm:node:4781405493","latitude":55.8519484,"longitude":-4.2944415,"name":"Cessnock Subway Station (8444)","properties":{"brand":"nextbike","operator":"nextbike"},"sourceId":"osm"},{"categories":["hire"],"id":"osm:node:4872483841","latitude":55.8551245,"longitude":-4.2352797,"name":"Barrowlands Cycle Hire Station (8440)","properties":{"brand":"OVO Bikes","network":"nextbike","operator":"nextbike"},"sourceId":"osm"},{"categories":["shop"],"id":"osm:node:517529498","latitude":55.8718532,"longitude":-4.2985293,"name":"West End Cycles","properties":{},"sourceId":"osm"},{"categories":["repair"],"id":"osm:node:5263979151","latitude":55.8264035,"longitude":-4.2212379,"name":"Dero","properties":{"brand":"Dero","openingHours":"24/7","servicePump":"yes","serviceTools":"yes"},"sourceId":"osm"},{"categories":["hire"],"id":"osm:node:5403497468","latitude":55.8537657,"longitude":-4.2791319,"name":"Paisley Road Toll, Glasgow","properties":{"brand":"OVO Bikes","network":"nextbike","operator":"Nextbike"},"sourceId":"osm"},{"categories":["hire"],"id":"osm:node:6564724304","latitude":55.8709633,"longitude":-4.2603536,"name":"Speirs Wharf Station (8459)","properties":{"brand":"OVO Bikes","fee":"yes","network":"nextbike","operator":"Nextbike"},"sourceId":"osm"},{"categories":["hire"],"id":"osm:node:6777113239","latitude":55.8644694,"longitude":-4.2231837,"name":"Alexandra Parade (West)","properties":{"network":"nextbike Glasgow","operator":"nextbike"},"sourceId":"osm"},{"categories":["shop"],"id":"osm:node:6797611004","latitude":55.8588317,"longitude":-4.2204776,"name":"East End Bicycle Workshop","properties":{"openingHours":"Tu-Fr 10:00-18:00; Sa 10:00-16:00; Nov-Dec Tu off"},"sourceId":"osm"},{"categories":["hire"],"id":"osm:node:6812862117","latitude":55.8634218,"longitude":-4.2806071,"name":"Finnieston Street Station (8438)","properties":{"brand":"OVO Bikes","fee":"yes","network":"nextbike","operator":"Nextbike"},"sourceId":"osm"},{"categories":["repair"],"id":"osm:node:6812862120","latitude":55.865234,"longitude":-4.2860775,"name":"Bicycle repair station","properties":{"servicePump":"yes","serviceTools":"no"},"sourceId":"osm"},{"categories":["hire"],"id":"osm:node:6838973081","latitude":55.8532403,"longitude":-4.2470835,"name":"Glasgow Green - Saltmarket / Clyde Place","properties":{"brand":"OVO Bikes","network":"nextbike","operator":"nextbike"},"sourceId":"osm"},{"categories":["shop"],"id":"osm:node:7284422262","latitude":55.8495732,"longitude":-4.2197975,"name":"Common Wheel","properties":{},"sourceId":"osm"},{"categories":["hire"],"id":"osm:node:8262367639","latitude":55.8509883,"longitude":-4.3014083,"name":"Ibrox (8452)","properties":{"brand":"OVO Bikes","network":"nextbike","operator":"Nextbike"},"sourceId":"osm"},{"categories":["hire"],"id":"osm:node:8267328740","latitude":55.8455387,"longitude":-4.2865143,"name":"St Andrews Drive @ Maxwell Drive (8235)","properties":{"brand":"OVO Bikes","fee":"yes","network":"nextbike","operator":"nextbike"},"sourceId":"osm"},{"categories":["repair"],"id":"osm:node:8382126165","latitude":55.8285709,"longitude":-4.2647019,"name":"Bicycle repair station","properties":{"fee":"no","openingHours":"24/7","servicePump":"yes","serviceTools":"yes"},"sourceId":"osm"},{"categories":["hire"],"id":"osm:node:8562237543","latitude":55.8274907,"longitude":-4.2950506,"name":"Shawlands Railway Cycle Hire Station (8455)","properties":{"brand":"OVO Bikes","fee":"yes","network":"nextbike","operator":"Voi"},"sourceId":"osm"},{"categories":["repair"],"id":"osm:node:9064016943","latitude":55.8484621,"longitude":-4.25181,"name":"Bicycle repair station","properties":{"fee":"no","openingHours":"24/7","servicePump":"yes","serviceTools":"no"},"sourceId":"osm"},{"categories":["repair"],"id":"osm:node:9064031096","latitude":55.8464604,"longitude":-4.2577787,"name":"Bicycle repair station","properties":{"fee":"no","openingHours":"24/7","servicePump":"no","serviceTools":"no"},"sourceId":"osm"},{"categories":["hire"],"id":"osm:node:9843387606","latitude":55.8552584,"longitude":-4.2733557,"name":"Springfield Quay (8461)","properties":{"brand":"OVO Bikes","network":"nextbike","operator":"Nextbike"},"sourceId":"osm"},{"categories":["hire"],"id":"osm:node:9843390821","latitude":55.8543852,"longitude":-4.2747813,"name":"Springfield Quay (8462)","properties":{"brand":"OVO Bikes","network":"nextbike","operator":"Nextbike"},"sourceId":"osm"},{"categories":["repair"],"id":"osm:node:9866561384","latitude":55.8615953,"longitude":-4.2748684,"name":"Bicycle repair station","properties":{"servicePump":"broken","serviceTools":"yes"},"sourceId":"osm"},{"categories":["repair"],"id":"osm:node:9987015617","latitude":55.8578189,"longitude":-4.2930695,"name":"Glasgow Science Centre","properties":{"brand":"turvec","fee":"no","openingHours":"24/7","operator":"Glasgow Science Centre","servicePump":"yes","serviceTools":"yes"},"sourceId":"osm"},{"categories":["shop"],"id":"osm:way:138351533","latitude":55.86774244000001,"longitude":-4.248222719999999,"name":"Dales Cycles","properties":{"openingHours":"Mo-Sa 10:00-18:00; Su 10:00-17:00"},"sourceId":"osm"},{"categories":["repair"],"id":"osm:way:167854470","latitude":55.83689181999999,"longitude":-4.229165979999999,"name":"Halfords","properties":{"brand":"Halfords","serviceRepair":"yes"},"sourceId":"osm"},{"categories":["shop"],"id":"osm:way:171269264","latitude":55.8505072,"longitude":-4.244244299999999,"name":"Number Ten","properties":{"openingHours":"Mo-Fr 10:00-16:00"},"sourceId":"osm"},{"categories":["shop"],"id":"osm:way:204058559","latitude":55.8486008,"longitude":-4.23966317142857,"name":"Cycletrade","properties":{"openingHours":"Tu-Su 10:00-18:00; We off","serviceRepair":"no"},"sourceId":"osm"}],"schemaVersion":2}
