{"key":"12/2023/1549","points":[{"categories":["shop"],"id":"osm:node:11159252632","latitude":40.0584155,"longitude":-2.1404546,"name":"3HCycles Cuenca","properties":{},"sourceId":"osm"},{"categories":["hire"],"id":"osm:node:1549169316","latitude":40.073512,"longitude":-2.1407464,"name":"Cycle hire","properties":{},"sourceId":"osm"},{"categories":["shop"],"id":"osm:node:2051946223","latitude":40.0789923,"longitude":-2.1496717,"name":"Todobici Cuenca","properties":{},"sourceId":"osm"},{"categories":["shop"],"id":"osm:node:2051965871","latitude":40.0704757,"longitude":-2.1397233,"name":"Bicycle shop","properties":{},"sourceId":"osm"},{"categories":["shop"],"id":"osm:node:2051965872","latitude":40.0654385,"longitude":-2.139085,"name":"Bicicletas Chafe","properties":{},"sourceId":"osm"},{"categories":["repair"],"id":"osm:node:6456800796","latitude":40.0783578,"longitude":-2.1363686,"name":"Recicleta San Antón","properties":{},"sourceId":"osm"}],"schemaVersion":2}
