{"key":"12/1961/1351","points":[{"categories":["repair"],"id":"osm:node:11226958384","latitude":52.0918399,"longitude":-7.6158406,"name":"Bicycle repair station","properties":{},"sourceId":"osm"},{"categories":["hire"],"id":"osm:node:11227275549","latitude":52.0927367,"longitude":-7.62211,"name":"Cycle hire","properties":{},"sourceId":"osm"},{"categories":["shop"],"id":"osm:node:2892153958","latitude":52.093429,"longitude":-7.6308902,"name":"Cycle Sports","properties":{},"sourceId":"osm"},{"categories":["shop","repair","hire"],"id":"osm:node:4746878266","latitude":52.0924894,"longitude":-7.6150076,"name":"O'Mahony Cycles","properties":{"openingHours":"Mo-Sa","servicePump":"yes","serviceRental":"yes","serviceRepair":"yes","website":"https://dungarvangreenwaybikehire.com/"},"sourceId":"osm"},{"categories":["hire"],"id":"osm:node:5740553201","latitude":52.0920987,"longitude":-7.6159305,"name":"Waterford Greenway Bike Hire","properties":{"website":"https://www.waterfordgreenwaybikehire.com/"},"sourceId":"osm"},{"categories":["hire"],"id":"osm:node:5740553204","latitude":52.0913348,"longitude":-7.6204392,"name":"Waterford Greenway Cycle Tours & Bike Hire","properties":{"fee":"yes","network":"Waterford Greenway","website":"http://dungarvanbikehire.com/"},"sourceId":"osm"}],"schemaVersion":2}
