{"key":"12/2058/1355","points":[{"id":"osm:node:10100747068","latitude":51.8879656,"longitude":0.9042047,"name":"Priory Street near St Botolphs Street","properties":{"access":"unknown","bicycle_pa":"stands","capacity":16,"covered":"no","fee":"no","operator":"","nameSource":"junction"},"sourceId":"osm"},{"id":"osm:node:10100747069","latitude":51.8897045,"longitude":0.9005033,"name":"High Street near Red Lion Yard","properties":{"access":"unknown","bicycle_pa":"stands","capacity":10,"covered":"no","fee":"no","operator":"","nameSource":"junction"},"sourceId":"osm"},{"id":"osm:node:1026296261","latitude":51.8896678,"longitude":0.8993105,"name":"High Street near Pelham's Lane","properties":{"access":"unknown","bicycle_pa":"stands","capacity":12,"covered":"no","fee":"","operator":"","nameSource":"junction"},"sourceId":"osm"},{"id":"osm:node:11415174350","latitude":51.8887201,"longitude":0.9031388,"name":"Priory Walk near Long Wyre Street","properties":{"access":"yes","bicycle_pa":"stands","capacity":10,"covered":"yes","fee":"no","operator":"","nameSource":"junction"},"sourceId":"osm"},{"id":"osm:node:11930359298","latitude":51.8841408,"longitude":0.9137629,"name":"Wimpole Road near Winsley Road","properties":{"access":"unknown","bicycle_pa":"stands","capacity":2,"covered":"","fee":"","operator":"","nameSource":"junction"},"sourceId":"osm"},{"id":"osm:node:11930360212","latitude":51.8850959,"longitude":0.9084085,"name":"Bakery Place near Magdalen Street","properties":{"access":"unknown","bicycle_pa":"stands","capacity":0,"covered":"","fee":"","operator":"","nameSource":"junction"},"sourceId":"osm"},{"id":"osm:node:12395549862","latitude":51.8890624,"longitude":0.8965452,"name":"Culver Street West near Head Street","properties":{"access":"unknown","bicycle_pa":"rack","capacity":6,"covered":"","fee":"no","operator":"","nameSource":"junction"},"sourceId":"osm"},{"id":"osm:node:12397739292","latitude":51.8826525,"longitude":0.8935829,"name":"Crimea Walk near Cavalry Road","properties":{"access":"unknown","bicycle_pa":"rack","capacity":8,"covered":"","fee":"no","operator":"","nameSource":"junction"},"sourceId":"osm"},{"id":"osm:node:13190224890","latitude":51.8665848,"longitude":0.879167,"name":"Homefield Road near Fallowfield Road","properties":{"access":"yes","bicycle_pa":"stands","capacity":16,"covered":"no","fee":"no","operator":"","nameSource":"junction"},"sourceId":"osm"},{"id":"osm:node:13236706832","latitude":51.8878321,"longitude":0.8963672,"name":"Headgate near Sir Isaac's Walk","properties":{"access":"yes","bicycle_pa":"stands","capacity":8,"covered":"no","fee":"no","operator":"","nameSource":"junction"},"sourceId":"osm"},{"id":"osm:node:13579934603","latitude":51.8762714,"longitude":0.8926171,"name":"Lodders Walk cycle parking","properties":{"access":"customers","bicycle_pa":"stands","capacity":0,"covered":"no","fee":"","operator":"","nameSource":"street"},"sourceId":"osm"},{"id":"osm:node:13581607215","latitude":51.8709408,"longitude":0.903629,"name":"The Willows cycle parking","properties":{"access":"unknown","bicycle_pa":"stands","capacity":2,"covered":"no","fee":"","operator":"","nameSource":"street"},"sourceId":"osm"},{"id":"osm:node:13611449269","latitude":51.8800417,"longitude":0.8857467,"name":"Drury Road near Butt Road","properties":{"access":"unknown","bicycle_pa":"","capacity":0,"covered":"","fee":"","operator":"","nameSource":"junction"},"sourceId":"osm"},{"id":"osm:node:13675128885","latitude":51.8877645,"longitude":0.8910856,"name":"Rawstorn Road near Crouch Street","properties":{"access":"unknown","bicycle_pa":"","capacity":0,"covered":"","fee":"","operator":"","nameSource":"junction"},"sourceId":"osm"},{"id":"osm:node:13675912473","latitude":51.8876949,"longitude":0.8998156,"name":"Osborne Street near Abbey Gate Street","properties":{"access":"unknown","bicycle_pa":"","capacity":0,"covered":"","fee":"","operator":"","nameSource":"junction"},"sourceId":"osm"},{"id":"osm:node:13695850333","latitude":51.8851945,"longitude":0.9124086,"name":"Magdalen Street near Simons Lane","properties":{"access":"unknown","bicycle_pa":"stands","capacity":6,"covered":"no","fee":"no","operator":"","nameSource":"junction"},"sourceId":"osm"},{"id":"osm:node:13698502485","latitude":51.8815927,"longitude":0.9375943,"name":"Elmstead Road cycle parking","properties":{"access":"private","bicycle_pa":"shed","capacity":0,"covered":"yes","fee":"no","operator":"","nameSource":"street"},"sourceId":"osm"},{"id":"osm:node:13698560987","latitude":51.8796438,"longitude":0.9341496,"name":"Lightship Way cycle parking","properties":{"access":"customers","bicycle_pa":"stands","capacity":54,"covered":"yes","fee":"","operator":"","nameSource":"street"},"sourceId":"osm"},{"id":"osm:node:13887670328","latitude":51.856499,"longitude":0.9561676,"name":"B1028 near Station Road","properties":{"access":"unknown","bicycle_pa":"","capacity":0,"covered":"","fee":"","operator":"","nameSource":"junction"},"sourceId":"osm"},{"id":"osm:node:13907962519","latitude":51.8795298,"longitude":0.9288121,"name":"King Edward Quay near Distillery Lane","properties":{"access":"yes","bicycle_pa":"stands","capacity":16,"covered":"no","fee":"","operator":"","nameSource":"junction"},"sourceId":"osm"},{"id":"osm:node:13925735042","latitude":51.8592524,"longitude":0.9579648,"name":"De Vere Lane near Woodland Way","properties":{"access":"yes","bicycle_pa":"stands","capacity":8,"covered":"no","fee":"no","operator":"","nameSource":"junction"},"sourceId":"osm"},{"id":"osm:node:1497130310","latitude":51.8812432,"longitude":0.9304611,"name":"Phoenix Court near Hawkins Road","properties":{"access":"unknown","bicycle_pa":"stands","capacity":72,"covered":"no","fee":"","operator":"","nameSource":"junction"},"sourceId":"osm"},{"id":"osm:node:1711434252","latitude":51.884888,"longitude":0.9300022,"name":"Greenstead Road by Tesco","properties":{"access":"unknown","bicycle_pa":"","capacity":0,"covered":"yes","fee":"","operator":"","nameSource":"landmark"},"sourceId":"osm"},{"id":"osm:node:2199386341","latitude":51.8890323,"longitude":0.8948759,"name":"Church Street near Balkerne Gardens","properties":{"access":"unknown","bicycle_pa":"stands","capacity":28,"covered":"no","fee":"","operator":"","nameSource":"junction"},"sourceId":"osm"},{"id":"osm:node:2456923762","latitude":51.8787478,"longitude":0.934841,"name":"Lightship Way cycle parking","properties":{"access":"unknown","bicycle_pa":"stands","capacity":66,"covered":"no","fee":"","operator":"","nameSource":"street"},"sourceId":"osm"},{"id":"osm:node:2456923764","latitude":51.8781879,"longitude":0.9350515,"name":"Lightship Way cycle parking","properties":{"access":"unknown","bicycle_pa":"stands","capacity":100,"covered":"yes","fee":"","operator":"","nameSource":"street"},"sourceId":"osm"},{"id":"osm:node:2483833660","latitude":51.8876533,"longitude":0.8910959,"name":"Crouch Street near Rawstorn Road","properties":{"access":"yes","bicycle_pa":"stands","capacity":20,"covered":"no","fee":"no","operator":"","nameSource":"junction"},"sourceId":"osm"},{"id":"osm:node:2578005309","latitude":51.8863445,"longitude":0.9043249,"name":"Magdalen Street near St Botolph's Circus","properties":{"access":"unknown","bicycle_pa":"stands","capacity":10,"covered":"no","fee":"","operator":"","nameSource":"junction"},"sourceId":"osm"},{"id":"osm:node:2956218233","latitude":51.8891466,"longitude":0.9057061,"name":"Lewis Gardens cycle parking","properties":{"access":"unknown","bicycle_pa":"","capacity":14,"covered":"","fee":"","operator":"","nameSource":"street"},"sourceId":"osm"},{"id":"osm:node:2989607633","latitude":51.8857187,"longitude":0.9273861,"name":"Hythe Station Road near Hawkins Road","properties":{"access":"unknown","bicycle_pa":"stands","capacity":22,"covered":"yes","fee":"","operator":"","nameSource":"junction"},"sourceId":"osm"},{"id":"osm:node:3392465151","latitude":51.8885395,"longitude":0.8992991,"name":"Trinity Street near Trinity Square","properties":{"access":"unknown","bicycle_pa":"","capacity":22,"covered":"","fee":"","operator":"","nameSource":"junction"},"sourceId":"osm"},{"id":"osm:node:3392465153","latitude":51.8885813,"longitude":0.8995715,"name":"Trinity Square near Trinity Street","properties":{"access":"unknown","bicycle_pa":"","capacity":6,"covered":"","fee":"","operator":"","nameSource":"junction"},"sourceId":"osm"},{"id":"osm:node:3409054398","latitude":51.8566522,"longitude":0.9591839,"name":"High Street near Queen's Road","properties":{"access":"unknown","bicycle_pa":"stands","capacity":8,"covered":"no","fee":"no","operator":"","nameSource":"junction"},"sourceId":"osm"},{"id":"osm:node:3439379015","latitude":51.8841222,"longitude":0.8941241,"name":"Le Cateau Road near Roman Circus Walk","properties":{"access":"unknown","bicycle_pa":"stands","capacity":10,"covered":"no","fee":"","operator":"","nameSource":"junction"},"sourceId":"osm"},{"id":"osm:node:350566089","latitude":51.8897825,"longitude":0.8928892,"name":"Popes Lane near St Mary's Fields","properties":{"access":"unknown","bicycle_pa":"","capacity":20,"covered":"yes","fee":"","operator":"","nameSource":"junction"},"sourceId":"osm"},{"id":"osm:node:368241704","latitude":51.8898911,"longitude":0.9000402,"name":"East Stockwell Street near High Street","properties":{"access":"unknown","bicycle_pa":"stands","capacity":10,"covered":"no","fee":"","operator":"","nameSource":"junction"},"sourceId":"osm"},{"id":"osm:node:3700517005","latitude":51.8877965,"longitude":0.9006988,"name":"Vineyard Gate near Osborne Street","properties":{"access":"unknown","bicycle_pa":"","capacity":6,"covered":"no","fee":"","operator":"","nameSource":"junction"},"sourceId":"osm"},{"id":"osm:node:377858780","latitude":51.8897622,"longitude":0.901509,"name":"High Street near St Nicholas Passage","properties":{"access":"unknown","bicycle_pa":"stands","capacity":18,"covered":"no","fee":"","operator":"","nameSource":"junction"},"sourceId":"osm"},{"id":"osm:node:377858806","latitude":51.8867547,"longitude":0.903213,"name":"St Botolphs Street near Osborne Street","properties":{"access":"unknown","bicycle_pa":"stands","capacity":10,"covered":"no","fee":"","operator":"","nameSource":"junction"},"sourceId":"osm"},{"id":"osm:node:377858832","latitude":51.8896044,"longitude":0.8969392,"name":"Bank Passage near High Street","properties":{"access":"unknown","bicycle_pa":"stands","capacity":16,"covered":"no","fee":"","operator":"","nameSource":"junction"},"sourceId":"osm"},{"id":"osm:node:381431852","latitude":51.8876086,"longitude":0.9022462,"name":"Vineyard Street by It's All At Number Eleven","properties":{"access":"unknown","bicycle_pa":"","capacity":8,"covered":"","fee":"","operator":"","nameSource":"landmark"},"sourceId":"osm"},{"id":"osm:node:381434286","latitude":51.8876053,"longitude":0.9018928,"name":"Vineyard Street by Paragon","properties":{"access":"unknown","bicycle_pa":"","capacity":3,"covered":"yes","fee":"","operator":"","nameSource":"landmark"},"sourceId":"osm"},{"id":"osm:node:381440518","latitude":51.887752,"longitude":0.8999056,"name":"Osborne Street near Abbey Gate Street","properties":{"access":"unknown","bicycle_pa":"","capacity":6,"covered":"","fee":"","operator":"","nameSource":"junction"},"sourceId":"osm"},{"id":"osm:node:381537405","latitude":51.8885304,"longitude":0.9041277,"name":"Queen Street by MH Perfect Nails","properties":{"access":"unknown","bicycle_pa":"","capacity":4,"covered":"yes","fee":"","operator":"","nameSource":"landmark"},"sourceId":"osm"},{"id":"osm:node:4432212884","latitude":51.8888077,"longitude":0.8977731,"name":"Shewel Walk near Culver Square","properties":{"access":"unknown","bicycle_pa":"","capacity":0,"covered":"","fee":"","operator":"","nameSource":"junction"},"sourceId":"osm"},{"id":"osm:node:4837302178","latitude":51.8533945,"longitude":0.9633945,"name":"Walter Radcliffe Road near Cooks Crescent","properties":{"access":"unknown","bicycle_pa":"","capacity":0,"covered":"","fee":"","operator":"","nameSource":"junction"},"sourceId":"osm"},{"id":"osm:node:4837302346","latitude":51.8536895,"longitude":0.9626126,"name":"Pearl Walk cycle parking","properties":{"access":"unknown","bicycle_pa":"","capacity":6,"covered":"","fee":"","operator":"","nameSource":"street"},"sourceId":"osm"},{"id":"osm:node:4839583056","latitude":51.8891329,"longitude":0.9008557,"name":"Culver Street East near Culver Walk","properties":{"access":"unknown","bicycle_pa":"","capacity":5,"covered":"","fee":"","operator":"","nameSource":"junction"},"sourceId":"osm"},{"id":"osm:node:5083992652","latitude":51.8858048,"longitude":0.8968442,"name":"Chapel Street South near South Street","properties":{"access":"unknown","bicycle_pa":"","capacity":0,"covered":"","fee":"","operator":"","nameSource":"junction"},"sourceId":"osm"},{"id":"osm:node:553485014","latitude":51.8865205,"longitude":0.9386609,"name":"Hawthorn Avenue near Lugar Close","properties":{"access":"unknown","bicycle_pa":"","capacity":0,"covered":"","fee":"","operator":"","nameSource":"junction"},"sourceId":"osm"},{"id":"osm:node:5627331463","latitude":51.8752226,"longitude":0.9480726,"name":"Knowledge Gateway cycle parking","properties":{"access":"unknown","bicycle_pa":"","capacity":0,"covered":"","fee":"","operator":"","nameSource":"place"},"sourceId":"osm"},{"id":"osm:node:5687155218","latitude":51.8566901,"longitude":0.9555966,"name":"Wivenhoe Trail by Steam","properties":{"access":"unknown","bicycle_pa":"stands","capacity":20,"covered":"yes","fee":"","operator":"","nameSource":"landmark"},"sourceId":"osm"},{"id":"osm:node:573390080","latitude":51.8776899,"longitude":0.9449965,"name":"Rayleigh Square cycle parking","properties":{"access":"unknown","bicycle_pa":"","capacity":96,"covered":"","fee":"","operator":"","nameSource":"street"},"sourceId":"osm"},{"id":"osm:node:5815410120","latitude":51.876878,"longitude":0.9471943,"name":"Valley Road by Waterstones","properties":{"access":"unknown","bicycle_pa":"rack","capacity":0,"covered":"","fee":"","operator":"","nameSource":"landmark"},"sourceId":"osm"},{"id":"osm:node:5815410121","latitude":51.8767007,"longitude":0.9473359,"name":"Square 5 by Waterstones","properties":{"access":"yes","bicycle_pa":"stands","capacity":0,"covered":"yes","fee":"no","operator":"","nameSource":"landmark"},"sourceId":"osm"},{"id":"osm:node:5815410122","latitude":51.8767733,"longitude":0.9474447,"name":"Valley Road by Waterstones","properties":{"access":"unknown","bicycle_pa":"stands","capacity":0,"covered":"","fee":"","operator":"","nameSource":"landmark"},"sourceId":"osm"},{"id":"osm:node:5815410123","latitude":51.8779798,"longitude":0.941897,"name":"Boundary Road near North Towers Road","properties":{"access":"yes","bicycle_pa":"stands","capacity":0,"covered":"","fee":"","operator":"","nameSource":"junction"},"sourceId":"osm"},{"id":"osm:node:6000608665","latitude":51.8900242,"longitude":0.9026714,"name":"Castle Bailey near Museum Street","properties":{"access":"unknown","bicycle_pa":"stands","capacity":8,"covered":"no","fee":"","operator":"","nameSource":"junction"},"sourceId":"osm"},{"id":"osm:node:6121745651","latitude":51.8748347,"longitude":0.9477019,"name":"Knowledge Gateway cycle parking","properties":{"access":"unknown","bicycle_pa":"stands","capacity":40,"covered":"no","fee":"","operator":"","nameSource":"place"},"sourceId":"osm"},{"id":"osm:node:8459473389","latitude":51.8781985,"longitude":0.9408512,"name":"Boundary Road near North Towers Road","properties":{"access":"unknown","bicycle_pa":"","capacity":0,"covered":"","fee":"","operator":"","nameSource":"junction"},"sourceId":"osm"},{"id":"osm:node:8459479956","latitude":51.8750216,"longitude":0.9497115,"name":"Knowledge Gateway cycle parking","properties":{"access":"unknown","bicycle_pa":"","capacity":0,"covered":"","fee":"","operator":"","nameSource":"place"},"sourceId":"osm"},{"id":"osm:node:8459479960","latitude":51.8742642,"longitude":0.9444462,"name":"Knowledge Gateway cycle parking","properties":{"access":"unknown","bicycle_pa":"","capacity":0,"covered":"","fee":"","operator":"","nameSource":"place"},"sourceId":"osm"},{"id":"osm:node:8459480020","latitude":51.8789945,"longitude":0.9425775,"name":"North Towers Road cycle parking","properties":{"access":"unknown","bicycle_pa":"","capacity":0,"covered":"","fee":"","operator":"","nameSource":"street"},"sourceId":"osm"},{"id":"osm:way:1165339198","latitude":51.88817923333335,"longitude":0.8987775333333333,"name":"Portal Precinct near Sir Isaac's Walk","properties":{"access":"yes","bicycle_pa":"building","capacity":23,"covered":"yes","fee":"yes","operator":"Spokesafe","nameSource":"junction"},"sourceId":"osm"},{"id":"osm:way:1495077539","latitude":51.8799279,"longitude":0.9322682400000002,"name":"Lightship Way near Quayside Drive","properties":{"access":"customers","bicycle_pa":"shed","capacity":0,"covered":"yes","fee":"no","operator":"","nameSource":"junction"},"sourceId":"osm"},{"id":"osm:way:448358689","latitude":51.8803761,"longitude":0.93160918,"name":"Lightship Way near A134","properties":{"access":"unknown","bicycle_pa":"stands","capacity":6,"covered":"","fee":"","operator":"","nameSource":"junction"},"sourceId":"osm"},{"id":"osm:way:624265142","latitude":51.87238412000001,"longitude":0.9152644600000001,"name":"Abbot's Road by Lidl","properties":{"access":"unknown","bicycle_pa":"","capacity":10,"covered":"","fee":"","operator":"","nameSource":"landmark"},"sourceId":"osm"},{"id":"osm:way:851617739","latitude":51.86569422,"longitude":0.9569238,"name":"Cappillar Close near Broome Grove","properties":{"access":"private","bicycle_pa":"","capacity":0,"covered":"","fee":"","operator":"","nameSource":"junction"},"sourceId":"osm"}],"schemaVersion":2}
