{"key":"12/2058/1365","points":[{"id":"osm:node:1051772882","latitude":51.3180121,"longitude":0.8960527,"name":"Shooting Meadow near Abbey Place","properties":{"access":"destination","bicycle_pa":"stands","capacity":40,"covered":"yes","fee":"","operator":"","nameSource":"junction"},"sourceId":"osm"},{"id":"osm:node:11196203031","latitude":51.3155779,"longitude":0.8898966,"name":"Leslie Smith Drive near Bedlington Square","properties":{"access":"yes","bicycle_pa":"lockers","capacity":0,"covered":"yes","fee":"","operator":"","nameSource":"junction"},"sourceId":"osm"},{"id":"osm:node:11196298938","latitude":51.3152518,"longitude":0.8895761,"name":"Leslie Smith Drive near Bedlington Square","properties":{"access":"unknown","bicycle_pa":"wall_loops","capacity":10,"covered":"no","fee":"","operator":"","nameSource":"junction"},"sourceId":"osm"},{"id":"osm:node:11377320785","latitude":51.3150609,"longitude":0.892589,"name":"East Street near Crescent Road","properties":{"access":"unknown","bicycle_pa":"stands","capacity":8,"covered":"no","fee":"","operator":"","nameSource":"junction"},"sourceId":"osm"},{"id":"osm:node:11449306680","latitude":51.3050963,"longitude":0.9027591,"name":"Selling Road by Macknade Food Hall","properties":{"access":"unknown","bicycle_pa":"stands","capacity":8,"covered":"no","fee":"","operator":"","nameSource":"landmark"},"sourceId":"osm"},{"id":"osm:node:11496677073","latitude":51.3144417,"longitude":0.8929354,"name":"Newton Road near Institute Road","properties":{"access":"unknown","bicycle_pa":"wall_loops","capacity":2,"covered":"no","fee":"","operator":"","nameSource":"junction"},"sourceId":"osm"},{"id":"osm:node:11496677075","latitude":51.3143629,"longitude":0.8928853,"name":"Newton Road near Institute Road","properties":{"access":"unknown","bicycle_pa":"stands","capacity":4,"covered":"no","fee":"","operator":"","nameSource":"junction"},"sourceId":"osm"},{"id":"osm:node:11919335366","latitude":51.3137048,"longitude":0.8909279,"name":"Preston Street near Stone Street","properties":{"access":"unknown","bicycle_pa":"stands","capacity":8,"covered":"no","fee":"","operator":"","nameSource":"junction"},"sourceId":"osm"},{"id":"osm:node:12897995591","latitude":51.2978769,"longitude":0.9503698,"name":"Boughton Village Hall cycle parking","properties":{"access":"unknown","bicycle_pa":"stands","capacity":4,"covered":"no","fee":"","operator":"","nameSource":"landmark"},"sourceId":"osm"},{"id":"osm:node:12945305150","latitude":51.3158335,"longitude":0.8910252,"name":"Market Place near Market Street","properties":{"access":"unknown","bicycle_pa":"stands","capacity":4,"covered":"","fee":"","operator":"","nameSource":"junction"},"sourceId":"osm"},{"id":"osm:node:13104024823","latitude":51.3288855,"longitude":0.8800151,"name":"Oare Road near The Street","properties":{"access":"unknown","bicycle_pa":"","capacity":0,"covered":"","fee":"","operator":"","nameSource":"junction"},"sourceId":"osm"},{"id":"osm:node:349254233","latitude":51.3127697,"longitude":0.8957192,"name":"Park Road near William Street","properties":{"access":"unknown","bicycle_pa":"front_wheel","capacity":25,"covered":"no","fee":"","operator":"","nameSource":"junction"},"sourceId":"osm"},{"id":"osm:node:349254374","latitude":51.315217,"longitude":0.8927026,"name":"East Street near Crescent Road","properties":{"access":"unknown","bicycle_pa":"stands","capacity":10,"covered":"no","fee":"","operator":"","nameSource":"junction"},"sourceId":"osm"},{"id":"osm:node:349254418","latitude":51.3145348,"longitude":0.8935722,"name":"Institute Road near St. Mary's Road","properties":{"access":"unknown","bicycle_pa":"stands","capacity":6,"covered":"no","fee":"","operator":"","nameSource":"junction"},"sourceId":"osm"},{"id":"osm:node:350201554","latitude":51.3151448,"longitude":0.8904903,"name":"Leslie Smith Drive near Bedlington Square","properties":{"access":"unknown","bicycle_pa":"stands","capacity":4,"covered":"no","fee":"","operator":"","nameSource":"junction"},"sourceId":"osm"},{"id":"osm:node:350201745","latitude":51.3154997,"longitude":0.8894697,"name":"Leslie Smith Drive near Bedlington Square","properties":{"access":"unknown","bicycle_pa":"stands","capacity":6,"covered":"no","fee":"","operator":"","nameSource":"junction"},"sourceId":"osm"},{"id":"osm:node:616702711","latitude":51.3166987,"longitude":0.89383,"name":"Church Road near St. Mary Court","properties":{"access":"unknown","bicycle_pa":"stands","capacity":18,"covered":"no","fee":"","operator":"","nameSource":"junction"},"sourceId":"osm"},{"id":"osm:node:616702712","latitude":51.316738,"longitude":0.8936109,"name":"Church Road near St. Mary Court","properties":{"access":"unknown","bicycle_pa":"stands","capacity":6,"covered":"yes","fee":"","operator":"","nameSource":"junction"},"sourceId":"osm"},{"id":"osm:node:713440518","latitude":51.3115902,"longitude":0.88966,"name":"The Mall near Ticklebelly Alley","properties":{"access":"unknown","bicycle_pa":"stands","capacity":20,"covered":"yes","fee":"","operator":"","nameSource":"junction"},"sourceId":"osm"},{"id":"osm:node:713440521","latitude":51.3114428,"longitude":0.8904183,"name":"Station Road by Faversham","properties":{"access":"unknown","bicycle_pa":"stands","capacity":16,"covered":"yes","fee":"","operator":"","nameSource":"landmark"},"sourceId":"osm"},{"id":"osm:node:713440523","latitude":51.3114029,"longitude":0.8903218,"name":"The Mall by Faversham","properties":{"access":"unknown","bicycle_pa":"stands","capacity":12,"covered":"no","fee":"","operator":"","nameSource":"landmark"},"sourceId":"osm"},{"id":"osm:node:7271350763","latitude":51.3168122,"longitude":0.8920214,"name":"Court Street near Crescent Road","properties":{"access":"unknown","bicycle_pa":"stands","capacity":4,"covered":"no","fee":"","operator":"","nameSource":"junction"},"sourceId":"osm"}],"schemaVersion":2}
