{"key":"12/2058/1367","points":[{"id":"osm:node:1013536224","latitude":51.1851125,"longitude":0.9293851,"name":"Briar Close cycle parking","properties":{"access":"unknown","bicycle_pa":"stands","capacity":2,"covered":"no","fee":"no","operator":"","nameSource":"street"},"sourceId":"osm"},{"id":"osm:node:11231273919","latitude":51.1823766,"longitude":0.9316673,"name":"Little Chequers cycle parking","properties":{"access":"unknown","bicycle_pa":"stands","capacity":12,"covered":"no","fee":"","operator":"","nameSource":"street"},"sourceId":"osm"},{"id":"osm:node:11231285731","latitude":51.1851184,"longitude":0.9291554,"name":"Briar Close cycle parking","properties":{"access":"unknown","bicycle_pa":"stands","capacity":4,"covered":"no","fee":"no","operator":"","nameSource":"street"},"sourceId":"osm"},{"id":"osm:node:11231304237","latitude":51.183428,"longitude":0.9318026,"name":"Bridge Street by Wye Village Hall","properties":{"access":"unknown","bicycle_pa":"stands","capacity":4,"covered":"no","fee":"","operator":"","nameSource":"landmark"},"sourceId":"osm"},{"id":"osm:node:11231304238","latitude":51.1835556,"longitude":0.9320375,"name":"Bridge Street by Wye Village Hall","properties":{"access":"unknown","bicycle_pa":"stands","capacity":6,"covered":"no","fee":"","operator":"","nameSource":"landmark"},"sourceId":"osm"},{"id":"osm:node:11231319610","latitude":51.1850957,"longitude":0.929083,"name":"Briar Close cycle parking","properties":{"access":"unknown","bicycle_pa":"stands","capacity":6,"covered":"yes","fee":"no","operator":"","nameSource":"street"},"sourceId":"osm"},{"id":"osm:node:11231319611","latitude":51.1850675,"longitude":0.929079,"name":"Bridge Street near Bramble Lane","properties":{"access":"unknown","bicycle_pa":"stands","capacity":4,"covered":"no","fee":"no","operator":"","nameSource":"junction"},"sourceId":"osm"},{"id":"osm:node:1140444714","latitude":51.1838845,"longitude":0.9379962,"name":"High Street near Church Street","properties":{"access":"unknown","bicycle_pa":"stands","capacity":2,"covered":"no","fee":"","operator":"","nameSource":"junction"},"sourceId":"osm"},{"id":"osm:node:11966555331","latitude":51.2178246,"longitude":0.957617,"name":"The Street near Ashford Road","properties":{"access":"unknown","bicycle_pa":"stands","capacity":10,"covered":"no","fee":"","operator":"","nameSource":"junction"},"sourceId":"osm"},{"id":"osm:node:521219468","latitude":51.1822846,"longitude":0.9374706,"name":"Upper Bridge Street near Oxenturn Road","properties":{"access":"unknown","bicycle_pa":"stands","capacity":2,"covered":"no","fee":"","operator":"","nameSource":"junction"},"sourceId":"osm"},{"id":"osm:node:659457850","latitude":51.1850411,"longitude":0.9290942,"name":"Bridge Street near Bramble Lane","properties":{"access":"unknown","bicycle_pa":"stands","capacity":4,"covered":"no","fee":"no","operator":"","nameSource":"junction"},"sourceId":"osm"}],"schemaVersion":2}
