{"key":"12/1975/1315","points":[{"id":"osm:node:12152075124","latitude":54.0042405,"longitude":-6.3976541,"name":"Chapel Street near Roden Place","properties":{"access":"yes","bicycle_pa":"shed","capacity":6,"covered":"","fee":"no","operator":"","nameSource":"junction"},"sourceId":"osm"},{"id":"osm:node:12163562776","latitude":54.0012381,"longitude":-6.4122099,"name":"Demesne Terrace by Dundalk Clarke","properties":{"access":"unknown","bicycle_pa":"wall_loops","capacity":15,"covered":"no","fee":"","operator":"","nameSource":"landmark"},"sourceId":"osm"},{"id":"osm:node:12171611114","latitude":54.0044541,"longitude":-6.4008705,"name":"Crowe Street near Market Square","properties":{"access":"unknown","bicycle_pa":"stands","capacity":6,"covered":"no","fee":"","operator":"","nameSource":"junction"},"sourceId":"osm"},{"id":"osm:node:12171635214","latitude":54.004541,"longitude":-6.4028522,"name":"Market Square near Clanbrassil Street","properties":{"access":"unknown","bicycle_pa":"stands","capacity":6,"covered":"no","fee":"","operator":"","nameSource":"junction"},"sourceId":"osm"},{"id":"osm:node:12174443515","latitude":54.0044019,"longitude":-6.3995442,"name":"Roden Place near Crowe Street","properties":{"access":"unknown","bicycle_pa":"stands","capacity":10,"covered":"no","fee":"","operator":"","nameSource":"junction"},"sourceId":"osm"},{"id":"osm:node:12174484476","latitude":54.0042025,"longitude":-6.3981456,"name":"Roden Place near Chapel Street","properties":{"access":"unknown","bicycle_pa":"stands","capacity":10,"covered":"no","fee":"","operator":"","nameSource":"junction"},"sourceId":"osm"},{"id":"osm:node:12186652421","latitude":53.990183,"longitude":-6.3852996,"name":"Dundalk Sports Centre cycle parking","properties":{"access":"unknown","bicycle_pa":"stands","capacity":10,"covered":"no","fee":"","operator":"","nameSource":"landmark"},"sourceId":"osm"},{"id":"osm:node:12190127236","latitude":53.9986011,"longitude":-6.4056824,"name":"Hill Street near Stapleton Place","properties":{"access":"unknown","bicycle_pa":"stands","capacity":6,"covered":"no","fee":"","operator":"","nameSource":"junction"},"sourceId":"osm"},{"id":"osm:node:12190164922","latitude":54.0012476,"longitude":-6.4123778,"name":"Demesne Terrace by Dundalk Clarke","properties":{"access":"unknown","bicycle_pa":"lockers","capacity":0,"covered":"","fee":"","operator":"","nameSource":"landmark"},"sourceId":"osm"},{"id":"osm:node:12192614766","latitude":53.9995752,"longitude":-6.3993423,"name":"L20028 cycle parking","properties":{"access":"unknown","bicycle_pa":"stands","capacity":14,"covered":"no","fee":"","operator":"","nameSource":"street"},"sourceId":"osm"},{"id":"osm:node:12199985966","latitude":53.9847373,"longitude":-6.3942694,"name":"Dundalk Institute of Technology - DKIT cycle parking","properties":{"access":"unknown","bicycle_pa":"stands","capacity":12,"covered":"no","fee":"","operator":"","nameSource":"landmark"},"sourceId":"osm"},{"id":"osm:node:12219025741","latitude":53.9859089,"longitude":-6.3803151,"name":"Aghameen Park by Tipping's Neighbourhood Pharmacy & Medical Practice","properties":{"access":"unknown","bicycle_pa":"stands","capacity":20,"covered":"no","fee":"","operator":"","nameSource":"landmark"},"sourceId":"osm"},{"id":"osm:node:12249937581","latitude":54.0049742,"longitude":-6.3871333,"name":"Coe's Road cycle parking","properties":{"access":"unknown","bicycle_pa":"wall_loops","capacity":5,"covered":"no","fee":"","operator":"","nameSource":"street"},"sourceId":"osm"},{"id":"osm:node:12250046952","latitude":54.0048457,"longitude":-6.3969573,"name":"Distillery Lane near Jocelyn Street","properties":{"access":"unknown","bicycle_pa":"stands","capacity":6,"covered":"no","fee":"","operator":"","nameSource":"junction"},"sourceId":"osm"},{"id":"osm:node:12272994549","latitude":54.0069444,"longitude":-6.4021889,"name":"Clanbrassil Street near Wrighton's Lane","properties":{"access":"unknown","bicycle_pa":"stands","capacity":4,"covered":"no","fee":"","operator":"","nameSource":"junction"},"sourceId":"osm"},{"id":"osm:node:12430173964","latitude":54.0029997,"longitude":-6.3877814,"name":"Centenary Road near R172","properties":{"access":"unknown","bicycle_pa":"stands","capacity":8,"covered":"no","fee":"","operator":"","nameSource":"junction"},"sourceId":"osm"},{"id":"osm:node:12430173965","latitude":54.003173,"longitude":-6.3877619,"name":"L20051 cycle parking","properties":{"access":"unknown","bicycle_pa":"stands","capacity":12,"covered":"no","fee":"","operator":"","nameSource":"street"},"sourceId":"osm"},{"id":"osm:node:12495676551","latitude":53.9621996,"longitude":-6.3663729,"name":"Main Street near Kerney's Lane","properties":{"access":"unknown","bicycle_pa":"stands","capacity":4,"covered":"no","fee":"","operator":"","nameSource":"junction"},"sourceId":"osm"},{"id":"osm:node:12495699494","latitude":53.9635721,"longitude":-6.3655107,"name":"Main Street near Sandy Lane","properties":{"access":"unknown","bicycle_pa":"stands","capacity":8,"covered":"no","fee":"","operator":"","nameSource":"junction"},"sourceId":"osm"},{"id":"osm:node:12514236794","latitude":53.964153,"longitude":-6.3718244,"name":"Sandy Lane by Blackrock Community Centre","properties":{"access":"unknown","bicycle_pa":"stands","capacity":10,"covered":"no","fee":"","operator":"","nameSource":"landmark"},"sourceId":"osm"},{"id":"osm:node:14005036284","latitude":54.0018333,"longitude":-6.4044602,"name":"Park Street near Anne Street","properties":{"access":"unknown","bicycle_pa":"stands","capacity":6,"covered":"no","fee":"","operator":"","nameSource":"junction"},"sourceId":"osm"},{"id":"osm:node:3073427032","latitude":54.0027674,"longitude":-6.3997192,"name":"Rampart Road near Marshes Avenue","properties":{"access":"yes","bicycle_pa":"wall_loops","capacity":12,"covered":"no","fee":"no","operator":"","nameSource":"junction"},"sourceId":"osm"},{"id":"osm:node:3467746593","latitude":53.9988265,"longitude":-6.403658,"name":"Rampart Road near L20026","properties":{"access":"yes","bicycle_pa":"stands","capacity":0,"covered":"no","fee":"no","operator":"","nameSource":"junction"},"sourceId":"osm"},{"id":"osm:node:3467746594","latitude":53.9987461,"longitude":-6.403666,"name":"Rampart Road near L20026","properties":{"access":"yes","bicycle_pa":"stands","capacity":0,"covered":"no","fee":"no","operator":"","nameSource":"junction"},"sourceId":"osm"},{"id":"osm:node:3467746595","latitude":53.9988865,"longitude":-6.4036446,"name":"L20026 near Rampart Road","properties":{"access":"yes","bicycle_pa":"stands","capacity":0,"covered":"no","fee":"no","operator":"","nameSource":"junction"},"sourceId":"osm"},{"id":"osm:node:3467746597","latitude":53.9984041,"longitude":-6.4038242,"name":"Rampart Road by The Electronic Cigarette Co.","properties":{"access":"yes","bicycle_pa":"stands","capacity":6,"covered":"no","fee":"no","operator":"","nameSource":"landmark"},"sourceId":"osm"},{"id":"osm:node:3467794861","latitude":54.0035582,"longitude":-6.4018458,"name":"Earl Street near Frances Street","properties":{"access":"unknown","bicycle_pa":"bollard","capacity":6,"covered":"no","fee":"","operator":"","nameSource":"junction"},"sourceId":"osm"},{"id":"osm:node:3469099833","latitude":54.0040927,"longitude":-6.4019852,"name":"Earl Street near Market Square","properties":{"access":"yes","bicycle_pa":"bollard","capacity":6,"covered":"no","fee":"no","operator":"","nameSource":"junction"},"sourceId":"osm"},{"id":"osm:node:3469100785","latitude":54.0015577,"longitude":-6.3982891,"name":"Marshes Avenue by Eir / Meteor","properties":{"access":"yes","bicycle_pa":"wall_loops","capacity":12,"covered":"no","fee":"no","operator":"","nameSource":"landmark"},"sourceId":"osm"},{"id":"osm:node:3507055245","latitude":54.0044007,"longitude":-6.4035824,"name":"Market Square near L20016","properties":{"access":"unknown","bicycle_pa":"stands","capacity":10,"covered":"no","fee":"no","operator":"","nameSource":"junction"},"sourceId":"osm"},{"id":"osm:node:3507055246","latitude":54.0061962,"longitude":-6.4044487,"name":"The Long Walk by Alterations","properties":{"access":"unknown","bicycle_pa":"wall_loops","capacity":8,"covered":"no","fee":"no","operator":"","nameSource":"landmark"},"sourceId":"osm"},{"id":"osm:node:3536710774","latitude":54.0045217,"longitude":-6.4002707,"name":"Crowe Street near R215","properties":{"access":"unknown","bicycle_pa":"stands","capacity":14,"covered":"no","fee":"no","operator":"","nameSource":"junction"},"sourceId":"osm"},{"id":"osm:node:3539495160","latitude":54.0024706,"longitude":-6.4031884,"name":"Park Street near Magnet Road","properties":{"access":"unknown","bicycle_pa":"stands","capacity":0,"covered":"no","fee":"no","operator":"","nameSource":"junction"},"sourceId":"osm"},{"id":"osm:node:3539495162","latitude":54.0025778,"longitude":-6.4030142,"name":"Park Street near Magnet Road","properties":{"access":"unknown","bicycle_pa":"stands","capacity":0,"covered":"no","fee":"no","operator":"","nameSource":"junction"},"sourceId":"osm"},{"id":"osm:node:3543481651","latitude":54.0045911,"longitude":-6.4023602,"name":"Market Square near Clanbrassil Street","properties":{"access":"unknown","bicycle_pa":"stands","capacity":6,"covered":"no","fee":"no","operator":"","nameSource":"junction"},"sourceId":"osm"},{"id":"osm:node:3566671516","latitude":54.0031276,"longitude":-6.3862564,"name":"Coe's Road cycle parking","properties":{"access":"unknown","bicycle_pa":"","capacity":0,"covered":"no","fee":"no","operator":"","nameSource":"street"},"sourceId":"osm"},{"id":"osm:node:3587908526","latitude":54.001197,"longitude":-6.4121954,"name":"Demesne Terrace by Dundalk Clarke","properties":{"access":"unknown","bicycle_pa":"stands","capacity":0,"covered":"no","fee":"","operator":"","nameSource":"landmark"},"sourceId":"osm"},{"id":"osm:node:3587908527","latitude":54.0011513,"longitude":-6.4121954,"name":"Demesne Terrace by Dundalk Clarke","properties":{"access":"unknown","bicycle_pa":"stands","capacity":10,"covered":"yes","fee":"","operator":"","nameSource":"landmark"},"sourceId":"osm"},{"id":"osm:way:262365191","latitude":53.97686718,"longitude":-6.396455039999999,"name":"Haggardstown Cross cycle parking","properties":{"access":"unknown","bicycle_pa":"","capacity":0,"covered":"yes","fee":"","operator":"","nameSource":"place"},"sourceId":"osm"},{"id":"osm:way:346962443","latitude":53.98308242,"longitude":-6.393445079999999,"name":"Mac Anna Theatre cycle parking","properties":{"access":"unknown","bicycle_pa":"wall_loops","capacity":0,"covered":"yes","fee":"","operator":"","nameSource":"landmark"},"sourceId":"osm"}],"schemaVersion":2}
