{"key":"12/2046/1360","points":[{"id":"osm:node:10110077347","latitude":51.5647967,"longitude":-0.1051493,"name":"Stroud Green Road near Station Place","properties":{"access":"unknown","bicycle_pa":"","capacity":8,"covered":"","fee":"","operator":"","nameSource":"junction"},"sourceId":"osm"},{"id":"osm:node:10137586399","latitude":51.5897627,"longitude":-0.1460503,"name":"Fortis Green Road near Athenaeum Place","properties":{"access":"yes","bicycle_pa":"stands","capacity":6,"covered":"no","fee":"","operator":"","nameSource":"junction"},"sourceId":"osm"},{"id":"osm:node:10138311678","latitude":51.5899492,"longitude":-0.1439973,"name":"Hillfield Park near Muswell Hill Broadway","properties":{"access":"unknown","bicycle_pa":"stands","capacity":2,"covered":"no","fee":"","operator":"","nameSource":"junction"},"sourceId":"osm"},{"id":"osm:node:10138325876","latitude":51.5897315,"longitude":-0.1417635,"name":"Hillfield Park by Muswell Hill Centre","properties":{"access":"yes","bicycle_pa":"stands","capacity":6,"covered":"no","fee":"","operator":"","nameSource":"landmark"},"sourceId":"osm"},{"id":"osm:node:10176358274","latitude":51.5978155,"longitude":-0.1514633,"name":"Wilton Road near Coppetts Road","properties":{"access":"customers","bicycle_pa":"stands","capacity":4,"covered":"no","fee":"","operator":"","nameSource":"junction"},"sourceId":"osm"},{"id":"osm:node:10181089243","latitude":51.5987514,"longitude":-0.1375752,"name":"Alexandra Park Road near Grosvenor Road","properties":{"access":"unknown","bicycle_pa":"stands","capacity":6,"covered":"no","fee":"","operator":"","nameSource":"junction"},"sourceId":"osm"},{"id":"osm:node:10202926958","latitude":51.5945299,"longitude":-0.0926889,"name":"Boundary Road near Crawley Road","properties":{"access":"unknown","bicycle_pa":"shed","capacity":0,"covered":"","fee":"","operator":"","nameSource":"junction"},"sourceId":"osm"},{"id":"osm:node:10213894373","latitude":51.6131221,"longitude":-0.1757616,"name":"High Road near Grand Arcade","properties":{"access":"unknown","bicycle_pa":"stands","capacity":6,"covered":"no","fee":"","operator":"","nameSource":"junction"},"sourceId":"osm"},{"id":"osm:node:10220016220","latitude":51.5948557,"longitude":-0.1291229,"name":"Alexandra Palace Way cycle parking","properties":{"access":"unknown","bicycle_pa":"stands","capacity":16,"covered":"no","fee":"","operator":"","nameSource":"street"},"sourceId":"osm"},{"id":"osm:node:10236587712","latitude":51.5656694,"longitude":-0.1118714,"name":"Hatley Road near Playford Road","properties":{"access":"private","bicycle_pa":"shed","capacity":6,"covered":"yes","fee":"","operator":"cyclehoop","nameSource":"junction"},"sourceId":"osm"},{"id":"osm:node:10238034793","latitude":51.5895045,"longitude":-0.141115,"name":"The Viaduct by Bonafide Studio","properties":{"access":"unknown","bicycle_pa":"stands","capacity":10,"covered":"no","fee":"","operator":"","nameSource":"landmark"},"sourceId":"osm"},{"id":"osm:node:10269923929","latitude":51.5884306,"longitude":-0.1331845,"name":"Alexandra Palace Way by Alexandra Palace Farmers Market","properties":{"access":"unknown","bicycle_pa":"stands","capacity":6,"covered":"no","fee":"","operator":"","nameSource":"landmark"},"sourceId":"osm"},{"id":"osm:node:10273095210","latitude":51.5966763,"longitude":-0.1096945,"name":"High Road near Buller Road","properties":{"access":"unknown","bicycle_pa":"stands","capacity":8,"covered":"no","fee":"","operator":"","nameSource":"junction"},"sourceId":"osm"},{"id":"osm:node:10273095211","latitude":51.5989582,"longitude":-0.1029133,"name":"Lordship Lane near Salisbury Road","properties":{"access":"unknown","bicycle_pa":"stands","capacity":4,"covered":"","fee":"","operator":"","nameSource":"junction"},"sourceId":"osm"},{"id":"osm:node:10273095212","latitude":51.5999528,"longitude":-0.103898,"name":"Winkfield Road near Bracknell Close","properties":{"access":"unknown","bicycle_pa":"stands","capacity":10,"covered":"no","fee":"","operator":"","nameSource":"junction"},"sourceId":"osm"},{"id":"osm:node:10273095213","latitude":51.5942974,"longitude":-0.1054066,"name":"Lymington Avenue near Glynne Road","properties":{"access":"unknown","bicycle_pa":"stands","capacity":4,"covered":"no","fee":"","operator":"","nameSource":"junction"},"sourceId":"osm"},{"id":"osm:node:10273095214","latitude":51.5938517,"longitude":-0.1062526,"name":"Lymington Avenue near Bury Road","properties":{"access":"unknown","bicycle_pa":"stands","capacity":8,"covered":"","fee":"","operator":"","nameSource":"junction"},"sourceId":"osm"},{"id":"osm:node:10273108541","latitude":51.5738321,"longitude":-0.0888353,"name":"New River Path cycle parking","properties":{"access":"unknown","bicycle_pa":"lockers","capacity":3,"covered":"","fee":"","operator":"","nameSource":"street"},"sourceId":"osm"},{"id":"osm:node:10273109621","latitude":51.5727828,"longitude":-0.0903734,"name":"Seven Sisters Road near Woodberry Grove","properties":{"access":"unknown","bicycle_pa":"stands","capacity":8,"covered":"no","fee":"no","operator":"","nameSource":"junction"},"sourceId":"osm"},{"id":"osm:node:10273114909","latitude":51.5950732,"longitude":-0.1088326,"name":"High Road near Parkland Road","properties":{"access":"unknown","bicycle_pa":"stands","capacity":8,"covered":"no","fee":"","operator":"","nameSource":"junction"},"sourceId":"osm"},{"id":"osm:node:10273114910","latitude":51.5954723,"longitude":-0.1091054,"name":"Wood Green Free Speech Area by Capital Restaurants","properties":{"access":"unknown","bicycle_pa":"stands","capacity":4,"covered":"no","fee":"","operator":"","nameSource":"landmark"},"sourceId":"osm"},{"id":"osm:node:10273115009","latitude":51.5952699,"longitude":-0.1090441,"name":"Wood Green Free Speech Area by Foreign Exchange","properties":{"access":"unknown","bicycle_pa":"stands","capacity":16,"covered":"no","fee":"","operator":"","nameSource":"landmark"},"sourceId":"osm"},{"id":"osm:node:10273115010","latitude":51.5962337,"longitude":-0.1086978,"name":"Gladstone Avenue near High Road","properties":{"access":"unknown","bicycle_pa":"stands","capacity":6,"covered":"no","fee":"no","operator":"","nameSource":"junction"},"sourceId":"osm"},{"id":"osm:node:10273115011","latitude":51.5973036,"longitude":-0.1082173,"name":"Lordship Lane near Redvers Road","properties":{"access":"unknown","bicycle_pa":"stands","capacity":8,"covered":"no","fee":"","operator":"","nameSource":"junction"},"sourceId":"osm"},{"id":"osm:node:10273115012","latitude":51.5991764,"longitude":-0.10222,"name":"Lordship Lane near Acacia Road","properties":{"access":"unknown","bicycle_pa":"stands","capacity":2,"covered":"","fee":"","operator":"","nameSource":"junction"},"sourceId":"osm"},{"id":"osm:node:10273115073","latitude":51.5638197,"longitude":-0.0941568,"name":"Digby Crescent near Brownswood Road","properties":{"access":"unknown","bicycle_pa":"post_hoop","capacity":2,"covered":"","fee":"","operator":"","nameSource":"junction"},"sourceId":"osm"},{"id":"osm:node:10273115074","latitude":51.5637881,"longitude":-0.0934569,"name":"Digby Crescent near Brownswood Road","properties":{"access":"unknown","bicycle_pa":"post_hoop","capacity":2,"covered":"no","fee":"","operator":"","nameSource":"junction"},"sourceId":"osm"},{"id":"osm:node:10273115075","latitude":51.5636284,"longitude":-0.0950983,"name":"Brownswood Road near Sim Street","properties":{"access":"unknown","bicycle_pa":"post_hoop","capacity":2,"covered":"no","fee":"","operator":"","nameSource":"junction"},"sourceId":"osm"},{"id":"osm:node:10273115076","latitude":51.5634615,"longitude":-0.0956166,"name":"Digby Crescent cycle parking","properties":{"access":"unknown","bicycle_pa":"post_hoop","capacity":2,"covered":"no","fee":"","operator":"","nameSource":"street"},"sourceId":"osm"},{"id":"osm:node:10273115077","latitude":51.5663551,"longitude":-0.0973251,"name":"Gloucester Drive near Alexandra Grove","properties":{"access":"private","bicycle_pa":"shed","capacity":6,"covered":"yes","fee":"","operator":"Cyclehoop Rentals","nameSource":"junction"},"sourceId":"osm"},{"id":"osm:node:10273115109","latitude":51.5966255,"longitude":-0.1091998,"name":"High Road near Buller Road","properties":{"access":"yes","bicycle_pa":"stands","capacity":12,"covered":"no","fee":"no","operator":"Haringey Council","nameSource":"junction"},"sourceId":"osm"},{"id":"osm:node:10273115110","latitude":51.5993365,"longitude":-0.1016352,"name":"Lordship Lane near Acacia Road","properties":{"access":"unknown","bicycle_pa":"stands","capacity":2,"covered":"no","fee":"","operator":"","nameSource":"junction"},"sourceId":"osm"},{"id":"osm:node:10273115141","latitude":51.5660638,"longitude":-0.0927177,"name":"Amwell Court cycle parking","properties":{"access":"private","bicycle_pa":"shed","capacity":6,"covered":"yes","fee":"","operator":"Cyclehoop Rentals","nameSource":"street"},"sourceId":"osm"},{"id":"osm:node:10273115142","latitude":51.5662821,"longitude":-0.0926319,"name":"Amwell Court cycle parking","properties":{"access":"unknown","bicycle_pa":"stands","capacity":10,"covered":"","fee":"","operator":"","nameSource":"street"},"sourceId":"osm"},{"id":"osm:node:10273115143","latitude":51.5637977,"longitude":-0.093713,"name":"Digby Crescent near Brownswood Road","properties":{"access":"private","bicycle_pa":"shed","capacity":6,"covered":"yes","fee":"","operator":"Cyclehoop Rentals","nameSource":"junction"},"sourceId":"osm"},{"id":"osm:node:10273115144","latitude":51.5635872,"longitude":-0.0950815,"name":"Brownswood Road near Sim Street","properties":{"access":"unknown","bicycle_pa":"post_hoop","capacity":2,"covered":"no","fee":"","operator":"","nameSource":"junction"},"sourceId":"osm"},{"id":"osm:node:10273115145","latitude":51.5635792,"longitude":-0.0951363,"name":"Brownswood Road near Sim Street","properties":{"access":"private","bicycle_pa":"shed","capacity":12,"covered":"yes","fee":"","operator":"Cyclehoop Rentals","nameSource":"junction"},"sourceId":"osm"},{"id":"osm:node:10273115209","latitude":51.5963617,"longitude":-0.1093295,"name":"Buller Road near High Road","properties":{"access":"unknown","bicycle_pa":"stands","capacity":10,"covered":"no","fee":"","operator":"","nameSource":"junction"},"sourceId":"osm"},{"id":"osm:node:10273115210","latitude":51.5965259,"longitude":-0.1088962,"name":"Buller Road near High Road","properties":{"access":"unknown","bicycle_pa":"stands","capacity":6,"covered":"","fee":"","operator":"","nameSource":"junction"},"sourceId":"osm"},{"id":"osm:node:10273115211","latitude":51.5938986,"longitude":-0.1079498,"name":"High Road near Alexandra Road","properties":{"access":"unknown","bicycle_pa":"stands","capacity":12,"covered":"","fee":"","operator":"","nameSource":"junction"},"sourceId":"osm"},{"id":"osm:node:10273115212","latitude":51.5987649,"longitude":-0.103068,"name":"Lordship Lane near Winkfield Road","properties":{"access":"unknown","bicycle_pa":"stands","capacity":2,"covered":"","fee":"","operator":"","nameSource":"junction"},"sourceId":"osm"},{"id":"osm:node:10273115213","latitude":51.5993692,"longitude":-0.1032643,"name":"Crown Close near Winkfield Road","properties":{"access":"unknown","bicycle_pa":"","capacity":10,"covered":"","fee":"","operator":"","nameSource":"junction"},"sourceId":"osm"},{"id":"osm:node:10273115214","latitude":51.5992931,"longitude":-0.1017976,"name":"Lordship Lane near Acacia Road","properties":{"access":"unknown","bicycle_pa":"stands","capacity":2,"covered":"no","fee":"","operator":"","nameSource":"junction"},"sourceId":"osm"},{"id":"osm:node:10273115215","latitude":51.5999076,"longitude":-0.0998315,"name":"Lordship Lane near Granville Road","properties":{"access":"unknown","bicycle_pa":"stands","capacity":2,"covered":"","fee":"","operator":"","nameSource":"junction"},"sourceId":"osm"},{"id":"osm:node:10273115264","latitude":51.5665208,"longitude":-0.0928315,"name":"Amwell Court cycle parking","properties":{"access":"unknown","bicycle_pa":"stands","capacity":10,"covered":"","fee":"","operator":"","nameSource":"street"},"sourceId":"osm"},{"id":"osm:node:10273115266","latitude":51.5635862,"longitude":-0.0953384,"name":"Brownswood Road cycle parking","properties":{"access":"unknown","bicycle_pa":"post_hoop","capacity":2,"covered":"no","fee":"","operator":"","nameSource":"street"},"sourceId":"osm"},{"id":"osm:node:10273115268","latitude":51.5664156,"longitude":-0.0949,"name":"Gloucester Drive cycle parking","properties":{"access":"private","bicycle_pa":"shed","capacity":6,"covered":"yes","fee":"","operator":"Cyclehoop Rentals","nameSource":"street"},"sourceId":"osm"},{"id":"osm:node:10273115309","latitude":51.5960465,"longitude":-0.1089686,"name":"High Road near Gladstone Avenue","properties":{"access":"unknown","bicycle_pa":"stands","capacity":12,"covered":"no","fee":"","operator":"","nameSource":"junction"},"sourceId":"osm"},{"id":"osm:node:10273115310","latitude":51.5994267,"longitude":-0.1013077,"name":"Lordship Lane near Perth Road","properties":{"access":"unknown","bicycle_pa":"stands","capacity":2,"covered":"","fee":"","operator":"","nameSource":"junction"},"sourceId":"osm"},{"id":"osm:node:10273115709","latitude":51.5972921,"longitude":-0.1104292,"name":"Station Road near High Road","properties":{"access":"unknown","bicycle_pa":"stands","capacity":10,"covered":"no","fee":"","operator":"","nameSource":"junction"},"sourceId":"osm"},{"id":"osm:node:10273115710","latitude":51.593075,"longitude":-0.1068088,"name":"High Road near Lymington Avenue","properties":{"access":"unknown","bicycle_pa":"stands","capacity":6,"covered":"","fee":"","operator":"","nameSource":"junction"},"sourceId":"osm"},{"id":"osm:node:10273115711","latitude":51.5988531,"longitude":-0.0994648,"name":"Moselle Avenue near Coldham Court","properties":{"access":"private","bicycle_pa":"shed","capacity":6,"covered":"yes","fee":"","operator":"Cyclehoop Rentals","nameSource":"junction"},"sourceId":"osm"},{"id":"osm:node:10273115731","latitude":51.5662048,"longitude":-0.0930793,"name":"Amwell Court cycle parking","properties":{"access":"unknown","bicycle_pa":"stands","capacity":10,"covered":"no","fee":"","operator":"","nameSource":"street"},"sourceId":"osm"},{"id":"osm:node:10273115733","latitude":51.5664566,"longitude":-0.0966152,"name":"Gloucester Drive near Alexandra Grove","properties":{"access":"unknown","bicycle_pa":"post_hoop","capacity":2,"covered":"no","fee":"","operator":"","nameSource":"junction"},"sourceId":"osm"},{"id":"osm:node:10273115734","latitude":51.56578,"longitude":-0.0926233,"name":"Amwell Court by The Castle Shop","properties":{"access":"unknown","bicycle_pa":"stands","capacity":12,"covered":"no","fee":"","operator":"","nameSource":"landmark"},"sourceId":"osm"},{"id":"osm:node:10273115809","latitude":51.5936709,"longitude":-0.1101899,"name":"Hornsey Park Road near Mayes Road","properties":{"access":"unknown","bicycle_pa":"stands","capacity":4,"covered":"","fee":"","operator":"","nameSource":"junction"},"sourceId":"osm"},{"id":"osm:node:10273115810","latitude":51.5941283,"longitude":-0.1104845,"name":"Mayes Road near Hornsey Park Road","properties":{"access":"unknown","bicycle_pa":"stands","capacity":4,"covered":"no","fee":"","operator":"","nameSource":"junction"},"sourceId":"osm"},{"id":"osm:node:10273115811","latitude":51.5990638,"longitude":-0.1026435,"name":"Lordship Lane near Salisbury Road","properties":{"access":"unknown","bicycle_pa":"stands","capacity":2,"covered":"","fee":"","operator":"","nameSource":"junction"},"sourceId":"osm"},{"id":"osm:node:10273115812","latitude":51.6000067,"longitude":-0.1000213,"name":"Perth Road near Solway Road","properties":{"access":"unknown","bicycle_pa":"stands","capacity":2,"covered":"","fee":"","operator":"","nameSource":"junction"},"sourceId":"osm"},{"id":"osm:node:10273115909","latitude":51.5943465,"longitude":-0.1052885,"name":"Lymington Avenue near Glynne Road","properties":{"access":"unknown","bicycle_pa":"stands","capacity":6,"covered":"no","fee":"","operator":"","nameSource":"junction"},"sourceId":"osm"},{"id":"osm:node:10273119013","latitude":51.5666959,"longitude":-0.0957964,"name":"Gloucester Drive near Alexandra Grove","properties":{"access":"unknown","bicycle_pa":"post_hoop","capacity":2,"covered":"no","fee":"","operator":"","nameSource":"junction"},"sourceId":"osm"},{"id":"osm:node:10273124713","latitude":51.563579,"longitude":-0.0951369,"name":"Brownswood Road near Sim Street","properties":{"access":"private","bicycle_pa":"shed","capacity":12,"covered":"yes","fee":"","operator":"Cyclehoop Rentals","nameSource":"junction"},"sourceId":"osm"},{"id":"osm:node:10273126611","latitude":51.5667834,"longitude":-0.0949758,"name":"Gloucester Drive near Green Lanes","properties":{"access":"unknown","bicycle_pa":"post_hoop","capacity":2,"covered":"no","fee":"","operator":"","nameSource":"junction"},"sourceId":"osm"},{"id":"osm:node:10273128609","latitude":51.563725,"longitude":-0.0946169,"name":"Digby Crescent cycle parking","properties":{"access":"unknown","bicycle_pa":"post_hoop","capacity":2,"covered":"no","fee":"","operator":"","nameSource":"street"},"sourceId":"osm"},{"id":"osm:node:10273132111","latitude":51.5786852,"longitude":-0.1236088,"name":"The Broadway near Crouch Hill","properties":{"access":"unknown","bicycle_pa":"stands","capacity":6,"covered":"","fee":"","operator":"","nameSource":"junction"},"sourceId":"osm"},{"id":"osm:node:10273132112","latitude":51.5785471,"longitude":-0.1238021,"name":"Crouch Hill near The Broadway","properties":{"access":"unknown","bicycle_pa":"stands","capacity":2,"covered":"no","fee":"","operator":"","nameSource":"junction"},"sourceId":"osm"},{"id":"osm:node:10273132113","latitude":51.5781731,"longitude":-0.1239675,"name":"Crouch End Hill near Coleridge Road","properties":{"access":"unknown","bicycle_pa":"stands","capacity":6,"covered":"no","fee":"","operator":"","nameSource":"junction"},"sourceId":"osm"},{"id":"osm:node:10273132114","latitude":51.5781898,"longitude":-0.1238241,"name":"Crouch Hill near Coleridge Road","properties":{"access":"unknown","bicycle_pa":"stands","capacity":6,"covered":"no","fee":"","operator":"","nameSource":"junction"},"sourceId":"osm"},{"id":"osm:node:10273132115","latitude":51.5817466,"longitude":-0.123709,"name":"Middle Lane near New Road","properties":{"access":"unknown","bicycle_pa":"stands","capacity":6,"covered":"no","fee":"","operator":"","nameSource":"junction"},"sourceId":"osm"},{"id":"osm:node:10273132116","latitude":51.5810401,"longitude":-0.1254546,"name":"New Road near Park Road","properties":{"access":"unknown","bicycle_pa":"stands","capacity":2,"covered":"no","fee":"","operator":"","nameSource":"junction"},"sourceId":"osm"},{"id":"osm:node:10273132117","latitude":51.5780025,"longitude":-0.1254489,"name":"Tara Mews near Edison Road","properties":{"access":"unknown","bicycle_pa":"stands","capacity":2,"covered":"","fee":"","operator":"","nameSource":"junction"},"sourceId":"osm"},{"id":"osm:node:10273132118","latitude":51.5780259,"longitude":-0.1253872,"name":"Tara Mews near Edison Road","properties":{"access":"unknown","bicycle_pa":"stands","capacity":2,"covered":"","fee":"","operator":"","nameSource":"junction"},"sourceId":"osm"},{"id":"osm:node:10273132119","latitude":51.5810997,"longitude":-0.1231078,"name":"Middle Lane Mews near Middle Lane","properties":{"access":"unknown","bicycle_pa":"wall_loops","capacity":8,"covered":"yes","fee":"","operator":"","nameSource":"junction"},"sourceId":"osm"},{"id":"osm:node:10273132120","latitude":51.580584,"longitude":-0.1237264,"name":"Middle Lane Mews near Middle Lane","properties":{"access":"unknown","bicycle_pa":"stands","capacity":2,"covered":"no","fee":"","operator":"","nameSource":"junction"},"sourceId":"osm"},{"id":"osm:node:10273132121","latitude":51.5781291,"longitude":-0.1226161,"name":"Haringey Park near Hatherley Gardens","properties":{"access":"unknown","bicycle_pa":"stands","capacity":2,"covered":"no","fee":"no","operator":"","nameSource":"junction"},"sourceId":"osm"},{"id":"osm:node:10273132122","latitude":51.5787123,"longitude":-0.1227769,"name":"Hatherley Gardens by Hornsey Town Hall","properties":{"access":"unknown","bicycle_pa":"wall_loops","capacity":3,"covered":"","fee":"","operator":"","nameSource":"landmark"},"sourceId":"osm"},{"id":"osm:node:10273132210","latitude":51.5786848,"longitude":-0.1235502,"name":"The Broadway near Crouch Hill","properties":{"access":"unknown","bicycle_pa":"stands","capacity":4,"covered":"","fee":"","operator":"","nameSource":"junction"},"sourceId":"osm"},{"id":"osm:node:10273132211","latitude":51.5815554,"longitude":-0.1234916,"name":"Elder Avenue near Middle Lane","properties":{"access":"unknown","bicycle_pa":"stands","capacity":4,"covered":"no","fee":"no","operator":"","nameSource":"junction"},"sourceId":"osm"},{"id":"osm:node:10273132212","latitude":51.5817461,"longitude":-0.1237007,"name":"Middle Lane near New Road","properties":{"access":"unknown","bicycle_pa":"wall_loops","capacity":6,"covered":"no","fee":"","operator":"","nameSource":"junction"},"sourceId":"osm"},{"id":"osm:node:10273132213","latitude":51.5808787,"longitude":-0.1251851,"name":"Park Road near New Road","properties":{"access":"unknown","bicycle_pa":"stands","capacity":2,"covered":"no","fee":"","operator":"","nameSource":"junction"},"sourceId":"osm"},{"id":"osm:node:10273132214","latitude":51.5807504,"longitude":-0.123342,"name":"Middle Lane Mews near Middle Lane","properties":{"access":"unknown","bicycle_pa":"stands","capacity":12,"covered":"","fee":"","operator":"","nameSource":"junction"},"sourceId":"osm"},{"id":"osm:node:10273132215","latitude":51.5814665,"longitude":-0.1260089,"name":"Park Road near Shanklin Road","properties":{"access":"unknown","bicycle_pa":"stands","capacity":4,"covered":"no","fee":"","operator":"","nameSource":"junction"},"sourceId":"osm"},{"id":"osm:node:10273132216","latitude":51.5806611,"longitude":-0.1226245,"name":"Tottenham Lane by Marie Curie","properties":{"access":"unknown","bicycle_pa":"stands","capacity":2,"covered":"","fee":"","operator":"","nameSource":"landmark"},"sourceId":"osm"},{"id":"osm:node:10273132217","latitude":51.5799333,"longitude":-0.1234985,"name":"A1201 near Tottenham Lane","properties":{"access":"unknown","bicycle_pa":"stands","capacity":2,"covered":"no","fee":"","operator":"","nameSource":"junction"},"sourceId":"osm"},{"id":"osm:node:10273132310","latitude":51.5784976,"longitude":-0.1238133,"name":"Crouch Hill near The Broadway","properties":{"access":"unknown","bicycle_pa":"stands","capacity":4,"covered":"no","fee":"","operator":"","nameSource":"junction"},"sourceId":"osm"},{"id":"osm:node:10273132311","latitude":51.5780777,"longitude":-0.1243413,"name":"Crouch End Hill near Coleridge Road","properties":{"access":"unknown","bicycle_pa":"stands","capacity":2,"covered":"no","fee":"","operator":"","nameSource":"junction"},"sourceId":"osm"},{"id":"osm:node:10273132312","latitude":51.5806916,"longitude":-0.1247405,"name":"Park Mews near Park Road","properties":{"access":"unknown","bicycle_pa":"stands","capacity":4,"covered":"no","fee":"","operator":"","nameSource":"junction"},"sourceId":"osm"},{"id":"osm:node:10273132354","latitude":51.5641927,"longitude":-0.0987025,"name":"Queen's Drive near Princess Crescent","properties":{"access":"unknown","bicycle_pa":"post_hoop","capacity":2,"covered":"","fee":"","operator":"","nameSource":"junction"},"sourceId":"osm"},{"id":"osm:node:10273132355","latitude":51.5643084,"longitude":-0.0990902,"name":"Queen's Drive near Princess Crescent","properties":{"access":"unknown","bicycle_pa":"post_hoop","capacity":2,"covered":"","fee":"","operator":"","nameSource":"junction"},"sourceId":"osm"},{"id":"osm:node:10273132356","latitude":51.5653963,"longitude":-0.1005906,"name":"Queen's Drive near Joseph Close","properties":{"access":"unknown","bicycle_pa":"post_hoop","capacity":2,"covered":"","fee":"","operator":"","nameSource":"junction"},"sourceId":"osm"},{"id":"osm:node:10273132410","latitude":51.5784236,"longitude":-0.124177,"name":"Coleridge Road near Crouch End Hill","properties":{"access":"unknown","bicycle_pa":"stands","capacity":6,"covered":"no","fee":"","operator":"","nameSource":"junction"},"sourceId":"osm"},{"id":"osm:node:10273132411","latitude":51.5778028,"longitude":-0.1246471,"name":"Crouch End Hill near Edison Road","properties":{"access":"unknown","bicycle_pa":"stands","capacity":6,"covered":"no","fee":"","operator":"","nameSource":"junction"},"sourceId":"osm"},{"id":"osm:node:10273132412","latitude":51.5795885,"longitude":-0.1233828,"name":"Weston Park near Tottenham Lane","properties":{"access":"unknown","bicycle_pa":"post_hoop","capacity":2,"covered":"","fee":"","operator":"","nameSource":"junction"},"sourceId":"osm"},{"id":"osm:node:10273132441","latitude":51.5638665,"longitude":-0.1017956,"name":"Finsbury Park Road near Somerfield Road","properties":{"access":"private","bicycle_pa":"shed","capacity":6,"covered":"yes","fee":"","operator":"Cyclehoop Rentals","nameSource":"junction"},"sourceId":"osm"},{"id":"osm:node:10273132442","latitude":51.5635967,"longitude":-0.1012662,"name":"Finsbury Park Road near Somerfield Road","properties":{"access":"private","bicycle_pa":"shed","capacity":6,"covered":"yes","fee":"","operator":"Cyclehoop Rentals","nameSource":"junction"},"sourceId":"osm"},{"id":"osm:node:10273132443","latitude":51.5637984,"longitude":-0.1013481,"name":"Finsbury Park Road near Somerfield Road","properties":{"access":"unknown","bicycle_pa":"post_hoop","capacity":2,"covered":"no","fee":"","operator":"","nameSource":"junction"},"sourceId":"osm"},{"id":"osm:node:10273132444","latitude":51.5638298,"longitude":-0.0990266,"name":"Queen's Drive cycle parking","properties":{"access":"private","bicycle_pa":"shed","capacity":6,"covered":"yes","fee":"","operator":"Cyclehoop Rentals","nameSource":"street"},"sourceId":"osm"},{"id":"osm:node:10273132445","latitude":51.5650729,"longitude":-0.1001193,"name":"Queen's Drive near Somerfield Road","properties":{"access":"private","bicycle_pa":"shed","capacity":6,"covered":"yes","fee":"","operator":"Cyclehoop Rentals","nameSource":"junction"},"sourceId":"osm"},{"id":"osm:node:10273132446","latitude":51.5646857,"longitude":-0.0996486,"name":"Queen's Drive near Somerfield Road","properties":{"access":"private","bicycle_pa":"shed","capacity":6,"covered":"yes","fee":"","operator":"Cyclehoop Rentals","nameSource":"junction"},"sourceId":"osm"},{"id":"osm:node:10273132931","latitude":51.5634953,"longitude":-0.1023591,"name":"Blackstock Road near Ambler Road","properties":{"access":"unknown","bicycle_pa":"post_hoop","capacity":2,"covered":"","fee":"","operator":"","nameSource":"junction"},"sourceId":"osm"},{"id":"osm:node:10273135749","latitude":51.5645175,"longitude":-0.0991759,"name":"Princess Crescent near Queen's Drive","properties":{"access":"unknown","bicycle_pa":"post_hoop","capacity":2,"covered":"","fee":"","operator":"","nameSource":"junction"},"sourceId":"osm"},{"id":"osm:node:10273135750","latitude":51.5646656,"longitude":-0.0983962,"name":"St. Johns Court near Princess Crescent","properties":{"access":"unknown","bicycle_pa":"stands","capacity":10,"covered":"","fee":"","operator":"","nameSource":"junction"},"sourceId":"osm"},{"id":"osm:node:10273135751","latitude":51.5646512,"longitude":-0.0983771,"name":"St. Johns Court near Princess Crescent","properties":{"access":"private","bicycle_pa":"shed","capacity":6,"covered":"yes","fee":"","operator":"Cyclehoop Rentals","nameSource":"junction"},"sourceId":"osm"},{"id":"osm:node:10273135752","latitude":51.5634328,"longitude":-0.1018988,"name":"Somerfield Road near Ambler Road","properties":{"access":"unknown","bicycle_pa":"post_hoop","capacity":2,"covered":"","fee":"","operator":"","nameSource":"junction"},"sourceId":"osm"},{"id":"osm:node:10273135754","latitude":51.563872,"longitude":-0.1014173,"name":"Finsbury Park Road near Somerfield Road","properties":{"access":"private","bicycle_pa":"shed","capacity":6,"covered":"yes","fee":"","operator":"Cyclehoop Rentals","nameSource":"junction"},"sourceId":"osm"},{"id":"osm:node:10273135755","latitude":51.5635835,"longitude":-0.1016825,"name":"Finsbury Park Road near Somerfield Road","properties":{"access":"unknown","bicycle_pa":"post_hoop","capacity":2,"covered":"","fee":"","operator":"","nameSource":"junction"},"sourceId":"osm"},{"id":"osm:node:10273135756","latitude":51.5654416,"longitude":-0.1008594,"name":"Queen's Drive near Gloucester Drive","properties":{"access":"unknown","bicycle_pa":"post_hoop","capacity":2,"covered":"","fee":"","operator":"","nameSource":"junction"},"sourceId":"osm"},{"id":"osm:node:10273135757","latitude":51.5653577,"longitude":-0.1007303,"name":"Queen's Drive near Joseph Close","properties":{"access":"unknown","bicycle_pa":"post_hoop","capacity":2,"covered":"","fee":"","operator":"","nameSource":"junction"},"sourceId":"osm"},{"id":"osm:node:10273135758","latitude":51.5639279,"longitude":-0.1006286,"name":"Somerfield Road near Wilberforce Road","properties":{"access":"private","bicycle_pa":"shed","capacity":6,"covered":"yes","fee":"","operator":"Cyclehoop Rentals","nameSource":"junction"},"sourceId":"osm"},{"id":"osm:node:10273135759","latitude":51.5639617,"longitude":-0.1005169,"name":"Somerfield Road near Wilberforce Road","properties":{"access":"unknown","bicycle_pa":"post_hoop","capacity":2,"covered":"","fee":"","operator":"","nameSource":"junction"},"sourceId":"osm"},{"id":"osm:node:10273135760","latitude":51.5636583,"longitude":-0.0978856,"name":"Queen's Drive cycle parking","properties":{"access":"unknown","bicycle_pa":"post_hoop","capacity":2,"covered":"","fee":"","operator":"","nameSource":"street"},"sourceId":"osm"},{"id":"osm:node:10273135761","latitude":51.5659489,"longitude":-0.1016909,"name":"Queen's Drive near Seven Sisters Road","properties":{"access":"unknown","bicycle_pa":"post_hoop","capacity":2,"covered":"no","fee":"","operator":"","nameSource":"junction"},"sourceId":"osm"},{"id":"osm:node:10273135762","latitude":51.5650461,"longitude":-0.1002467,"name":"Queen's Drive near Joseph Close","properties":{"access":"unknown","bicycle_pa":"post_hoop","capacity":2,"covered":"","fee":"","operator":"","nameSource":"junction"},"sourceId":"osm"},{"id":"osm:node:10275588426","latitude":51.5636868,"longitude":-0.1408665,"name":"Dartmouth Park Hill near Hargrave Park","properties":{"access":"unknown","bicycle_pa":"stands","capacity":4,"covered":"","fee":"","operator":"","nameSource":"junction"},"sourceId":"osm"},{"id":"osm:node:10275588427","latitude":51.5637742,"longitude":-0.1408477,"name":"Dartmouth Park Hill near Hargrave Park","properties":{"access":"unknown","bicycle_pa":"stands","capacity":4,"covered":"","fee":"","operator":"","nameSource":"junction"},"sourceId":"osm"},{"id":"osm:node:10275588428","latitude":51.5644161,"longitude":-0.1405382,"name":"Dartmouth Park Hill near Bredgar Road","properties":{"access":"unknown","bicycle_pa":"stands","capacity":4,"covered":"","fee":"","operator":"","nameSource":"junction"},"sourceId":"osm"},{"id":"osm:node:10275588556","latitude":51.5847615,"longitude":-0.1155104,"name":"Church Lane near Tottenham Lane","properties":{"access":"unknown","bicycle_pa":"stands","capacity":2,"covered":"no","fee":"","operator":"","nameSource":"junction"},"sourceId":"osm"},{"id":"osm:node:10275588623","latitude":51.564866,"longitude":-0.1409503,"name":"Dartmouth Park Hill near Raydon Street","properties":{"access":"unknown","bicycle_pa":"stands","capacity":4,"covered":"","fee":"","operator":"","nameSource":"junction"},"sourceId":"osm"},{"id":"osm:node:10275588624","latitude":51.563957,"longitude":-0.140816,"name":"Dartmouth Park Hill near Hargrave Park","properties":{"access":"unknown","bicycle_pa":"stands","capacity":4,"covered":"","fee":"","operator":"","nameSource":"junction"},"sourceId":"osm"},{"id":"osm:node:10275588738","latitude":51.5640712,"longitude":-0.1407988,"name":"Dartmouth Park Hill near Hargrave Park","properties":{"access":"unknown","bicycle_pa":"stands","capacity":4,"covered":"","fee":"","operator":"","nameSource":"junction"},"sourceId":"osm"},{"id":"osm:node:10275588739","latitude":51.5641893,"longitude":-0.1407751,"name":"Dartmouth Park Hill near Hargrave Park","properties":{"access":"unknown","bicycle_pa":"stands","capacity":2,"covered":"","fee":"","operator":"","nameSource":"junction"},"sourceId":"osm"},{"id":"osm:node:10275588740","latitude":51.5644897,"longitude":-0.1407586,"name":"Bredgar Road near Dartmouth Park Hill","properties":{"access":"unknown","bicycle_pa":"stands","capacity":4,"covered":"","fee":"","operator":"","nameSource":"junction"},"sourceId":"osm"},{"id":"osm:node:10275588741","latitude":51.5638632,"longitude":-0.1408292,"name":"Dartmouth Park Hill near Hargrave Park","properties":{"access":"unknown","bicycle_pa":"stands","capacity":4,"covered":"","fee":"","operator":"","nameSource":"junction"},"sourceId":"osm"},{"id":"osm:node:10275588742","latitude":51.5645493,"longitude":-0.1405575,"name":"Dartmouth Park Hill near Bredgar Road","properties":{"access":"unknown","bicycle_pa":"stands","capacity":2,"covered":"","fee":"","operator":"","nameSource":"junction"},"sourceId":"osm"},{"id":"osm:node:10275588743","latitude":51.5634484,"longitude":-0.1423957,"name":"Chester Road near Winscombe Street","properties":{"access":"unknown","bicycle_pa":"stands","capacity":2,"covered":"","fee":"","operator":"","nameSource":"junction"},"sourceId":"osm"},{"id":"osm:node:10275588744","latitude":51.5642006,"longitude":-0.1389215,"name":"Bredgar Road near Rowan Walk","properties":{"access":"unknown","bicycle_pa":"stands","capacity":2,"covered":"","fee":"","operator":"","nameSource":"junction"},"sourceId":"osm"},{"id":"osm:node:10275588745","latitude":51.5640546,"longitude":-0.1379798,"name":"Forest Way near Bredgar Road","properties":{"access":"unknown","bicycle_pa":"stands","capacity":2,"covered":"","fee":"","operator":"","nameSource":"junction"},"sourceId":"osm"},{"id":"osm:node:10275588811","latitude":51.5647946,"longitude":-0.1408461,"name":"Anatola Road near Dartmouth Park Hill","properties":{"access":"unknown","bicycle_pa":"stands","capacity":4,"covered":"","fee":"","operator":"","nameSource":"junction"},"sourceId":"osm"},{"id":"osm:node:10275588825","latitude":51.5839882,"longitude":-0.1163389,"name":"Elmcroft near Tottenham Lane","properties":{"access":"unknown","bicycle_pa":"stands","capacity":2,"covered":"no","fee":"no","operator":"","nameSource":"junction"},"sourceId":"osm"},{"id":"osm:node:10275588849","latitude":51.5886058,"longitude":-0.1004252,"name":"Milton Road near West Green Road","properties":{"access":"unknown","bicycle_pa":"stands","capacity":2,"covered":"","fee":"","operator":"","nameSource":"junction"},"sourceId":"osm"},{"id":"osm:node:10275588989","latitude":51.5899201,"longitude":-0.1051111,"name":"Waldegrave Road near Turnpike Lane","properties":{"access":"unknown","bicycle_pa":"stands","capacity":2,"covered":"yes","fee":"","operator":"","nameSource":"junction"},"sourceId":"osm"},{"id":"osm:node:10275588990","latitude":51.5919098,"longitude":-0.1051122,"name":"High Road near Coleraine Road","properties":{"access":"unknown","bicycle_pa":"stands","capacity":10,"covered":"","fee":"","operator":"","nameSource":"junction"},"sourceId":"osm"},{"id":"osm:node:10275588991","latitude":51.5885835,"longitude":-0.1007474,"name":"Milton Road near West Green Road","properties":{"access":"unknown","bicycle_pa":"stands","capacity":2,"covered":"","fee":"","operator":"","nameSource":"junction"},"sourceId":"osm"},{"id":"osm:node:10275589011","latitude":51.5646489,"longitude":-0.1408205,"name":"Anatola Road near Dartmouth Park Hill","properties":{"access":"unknown","bicycle_pa":"stands","capacity":4,"covered":"","fee":"","operator":"","nameSource":"junction"},"sourceId":"osm"},{"id":"osm:node:10275589030","latitude":51.5849776,"longitude":-0.1151478,"name":"Rathcoole Avenue near Tottenham Lane","properties":{"access":"unknown","bicycle_pa":"stands","capacity":2,"covered":"no","fee":"","operator":"","nameSource":"junction"},"sourceId":"osm"},{"id":"osm:node:10275589031","latitude":51.5876809,"longitude":-0.1172782,"name":"High Street near Hillfield Avenue","properties":{"access":"yes","bicycle_pa":"stands","capacity":2,"covered":"no","fee":"no","operator":"","nameSource":"junction"},"sourceId":"osm"},{"id":"osm:node:10275589339","latitude":51.5894805,"longitude":-0.1069959,"name":"Turnpike Mews near Turnpike Lane","properties":{"access":"unknown","bicycle_pa":"stands","capacity":2,"covered":"no","fee":"","operator":"","nameSource":"junction"},"sourceId":"osm"},{"id":"osm:node:10275589340","latitude":51.5894396,"longitude":-0.0998062,"name":"Milton Road cycle parking","properties":{"access":"unknown","bicycle_pa":"stands","capacity":2,"covered":"","fee":"","operator":"","nameSource":"street"},"sourceId":"osm"},{"id":"osm:node:10275589341","latitude":51.5881856,"longitude":-0.0997389,"name":"Willow Walk near West Green Road","properties":{"access":"unknown","bicycle_pa":"stands","capacity":4,"covered":"","fee":"","operator":"","nameSource":"junction"},"sourceId":"osm"},{"id":"osm:node:10275589419","latitude":51.5642895,"longitude":-0.1407568,"name":"Dartmouth Park Hill near Bredgar Road","properties":{"access":"unknown","bicycle_pa":"stands","capacity":4,"covered":"","fee":"","operator":"","nameSource":"junction"},"sourceId":"osm"},{"id":"osm:node:10275589490","latitude":51.5875839,"longitude":-0.118707,"name":"High Street near Myddelton Road","properties":{"access":"unknown","bicycle_pa":"stands","capacity":2,"covered":"","fee":"","operator":"","nameSource":"junction"},"sourceId":"osm"},{"id":"osm:node:10275589491","latitude":51.5848358,"longitude":-0.1153911,"name":"Tottenham Lane near Church Lane","properties":{"access":"unknown","bicycle_pa":"stands","capacity":2,"covered":"no","fee":"","operator":"","nameSource":"junction"},"sourceId":"osm"},{"id":"osm:node:10275589492","latitude":51.58522,"longitude":-0.1152318,"name":"Church Lane near Tottenham Lane","properties":{"access":"unknown","bicycle_pa":"stands","capacity":2,"covered":"","fee":"","operator":"","nameSource":"junction"},"sourceId":"osm"},{"id":"osm:node:10275589493","latitude":51.5835479,"longitude":-0.1166201,"name":"Tottenham Lane near Montague Road","properties":{"access":"unknown","bicycle_pa":"stands","capacity":2,"covered":"","fee":"","operator":"","nameSource":"junction"},"sourceId":"osm"},{"id":"osm:node:10275589494","latitude":51.583703,"longitude":-0.1164497,"name":"Church Path near Tottenham Lane","properties":{"access":"unknown","bicycle_pa":"stands","capacity":2,"covered":"no","fee":"","operator":"","nameSource":"junction"},"sourceId":"osm"},{"id":"osm:node:10275589495","latitude":51.5837612,"longitude":-0.116588,"name":"Church Path near Tottenham Lane","properties":{"access":"unknown","bicycle_pa":"post_hoop","capacity":2,"covered":"no","fee":"no","operator":"","nameSource":"junction"},"sourceId":"osm"},{"id":"osm:node:10275589725","latitude":51.5898941,"longitude":-0.1052378,"name":"Vernon Road near Turnpike Lane","properties":{"access":"unknown","bicycle_pa":"stands","capacity":2,"covered":"no","fee":"","operator":"","nameSource":"junction"},"sourceId":"osm"},{"id":"osm:node:10275598152","latitude":51.5876487,"longitude":-0.1189336,"name":"Campsbourne Road near High Street","properties":{"access":"yes","bicycle_pa":"stands","capacity":4,"covered":"no","fee":"no","operator":"","nameSource":"junction"},"sourceId":"osm"},{"id":"osm:node:10275598153","latitude":51.5874877,"longitude":-0.1193346,"name":"Campsbourne Road near High Street","properties":{"access":"unknown","bicycle_pa":"stands","capacity":4,"covered":"no","fee":"","operator":"","nameSource":"junction"},"sourceId":"osm"},{"id":"osm:node:10275598154","latitude":51.5871828,"longitude":-0.1209266,"name":"High Street near Rectory Gardens","properties":{"access":"unknown","bicycle_pa":"stands","capacity":2,"covered":"","fee":"","operator":"","nameSource":"junction"},"sourceId":"osm"},{"id":"osm:node:10275598155","latitude":51.5870116,"longitude":-0.1216828,"name":"High Street near Middle Lane","properties":{"access":"unknown","bicycle_pa":"stands","capacity":6,"covered":"no","fee":"","operator":"","nameSource":"junction"},"sourceId":"osm"},{"id":"osm:node:10275598156","latitude":51.5851914,"longitude":-0.1151755,"name":"Church Lane near Tottenham Lane","properties":{"access":"unknown","bicycle_pa":"stands","capacity":2,"covered":"","fee":"","operator":"","nameSource":"junction"},"sourceId":"osm"},{"id":"osm:node:10275598157","latitude":51.5841313,"longitude":-0.1160053,"name":"Tottenham Lane near Elmcroft","properties":{"access":"unknown","bicycle_pa":"stands","capacity":2,"covered":"no","fee":"no","operator":"","nameSource":"junction"},"sourceId":"osm"},{"id":"osm:node:10275598158","latitude":51.583999,"longitude":-0.1161421,"name":"Elmcroft near Tottenham Lane","properties":{"access":"unknown","bicycle_pa":"stands","capacity":2,"covered":"no","fee":"","operator":"","nameSource":"junction"},"sourceId":"osm"},{"id":"osm:node:10275598159","latitude":51.5876941,"longitude":-0.1166223,"name":"High Street near Hillfield Avenue","properties":{"access":"unknown","bicycle_pa":"post_hoop","capacity":2,"covered":"","fee":"","operator":"","nameSource":"junction"},"sourceId":"osm"},{"id":"osm:node:10275602269","latitude":51.5635215,"longitude":-0.1312703,"name":"St John's Grove near Pemberton Gardens","properties":{"access":"unknown","bicycle_pa":"stands","capacity":4,"covered":"no","fee":"","operator":"","nameSource":"junction"},"sourceId":"osm"},{"id":"osm:node:10275602270","latitude":51.565985,"longitude":-0.1258348,"name":"Hatchard Road near Cornwallis Road","properties":{"access":"unknown","bicycle_pa":"stands","capacity":2,"covered":"","fee":"","operator":"","nameSource":"junction"},"sourceId":"osm"},{"id":"osm:node:10275602271","latitude":51.5658267,"longitude":-0.12604,"name":"Hatchard Road near Cornwallis Road","properties":{"access":"unknown","bicycle_pa":"stands","capacity":2,"covered":"","fee":"","operator":"","nameSource":"junction"},"sourceId":"osm"},{"id":"osm:node:10275607535","latitude":51.5656983,"longitude":-0.1314785,"name":"Elthorne Road near Old Forge Road","properties":{"access":"unknown","bicycle_pa":"stands","capacity":2,"covered":"","fee":"","operator":"","nameSource":"junction"},"sourceId":"osm"},{"id":"osm:node:10275607536","latitude":51.5676592,"longitude":-0.1310969,"name":"Ashbrook Road near St John's Way","properties":{"access":"unknown","bicycle_pa":"stands","capacity":4,"covered":"","fee":"","operator":"","nameSource":"junction"},"sourceId":"osm"},{"id":"osm:node:10275607537","latitude":51.5660336,"longitude":-0.1309002,"name":"Elthorne Road near Old Forge Road","properties":{"access":"unknown","bicycle_pa":"post_hoop","capacity":2,"covered":"","fee":"","operator":"","nameSource":"junction"},"sourceId":"osm"},{"id":"osm:node:10275607538","latitude":51.5660037,"longitude":-0.125803,"name":"Hatchard Road near Cornwallis Road","properties":{"access":"unknown","bicycle_pa":"stands","capacity":2,"covered":"","fee":"","operator":"","nameSource":"junction"},"sourceId":"osm"},{"id":"osm:node:10275607539","latitude":51.5656315,"longitude":-0.1261072,"name":"Hatchard Road near Cornwallis Road","properties":{"access":"unknown","bicycle_pa":"post_hoop","capacity":2,"covered":"","fee":"","operator":"","nameSource":"junction"},"sourceId":"osm"},{"id":"osm:node:10275607540","latitude":51.5640528,"longitude":-0.1228305,"name":"Cornwallis Road near Kingsdown Road","properties":{"access":"unknown","bicycle_pa":"post_hoop","capacity":2,"covered":"","fee":"","operator":"","nameSource":"junction"},"sourceId":"osm"},{"id":"osm:node:10275607541","latitude":51.5640689,"longitude":-0.1225443,"name":"Kingsdown Road near Cornwallis Road","properties":{"access":"unknown","bicycle_pa":"post_hoop","capacity":2,"covered":"","fee":"","operator":"","nameSource":"junction"},"sourceId":"osm"},{"id":"osm:node:10275607542","latitude":51.5674506,"longitude":-0.1249604,"name":"Sussex Way near Fairbridge Road","properties":{"access":"unknown","bicycle_pa":"stands","capacity":4,"covered":"","fee":"","operator":"","nameSource":"junction"},"sourceId":"osm"},{"id":"osm:node:10275607543","latitude":51.5674211,"longitude":-0.1250298,"name":"Sussex Way near Fairbridge Road","properties":{"access":"unknown","bicycle_pa":"stands","capacity":4,"covered":"","fee":"","operator":"","nameSource":"junction"},"sourceId":"osm"},{"id":"osm:node:10275607544","latitude":51.564617,"longitude":-0.123671,"name":"Bavaria Road near Cornwallis Road","properties":{"access":"unknown","bicycle_pa":"stands","capacity":8,"covered":"","fee":"","operator":"","nameSource":"junction"},"sourceId":"osm"},{"id":"osm:node:10275607545","latitude":51.5636214,"longitude":-0.1282044,"name":"Marlborough Road near Holloway Road","properties":{"access":"unknown","bicycle_pa":"stands","capacity":2,"covered":"","fee":"","operator":"","nameSource":"junction"},"sourceId":"osm"},{"id":"osm:node:10275607546","latitude":51.5636746,"longitude":-0.1283056,"name":"Marlborough Road near Holloway Road","properties":{"access":"unknown","bicycle_pa":"stands","capacity":2,"covered":"","fee":"","operator":"","nameSource":"junction"},"sourceId":"osm"},{"id":"osm:node:10275607547","latitude":51.5644783,"longitude":-0.1312518,"name":"St John's Villas near Holloway Road","properties":{"access":"unknown","bicycle_pa":"stands","capacity":4,"covered":"no","fee":"","operator":"","nameSource":"junction"},"sourceId":"osm"},{"id":"osm:node:10275612746","latitude":51.5861635,"longitude":-0.0904528,"name":"Abbotsford Avenue near West Green Road","properties":{"access":"unknown","bicycle_pa":"stands","capacity":2,"covered":"no","fee":"","operator":"","nameSource":"junction"},"sourceId":"osm"},{"id":"osm:node:10275612747","latitude":51.5827352,"longitude":-0.0883506,"name":"Cornwall Road near Penrith Road","properties":{"access":"unknown","bicycle_pa":"stands","capacity":8,"covered":"no","fee":"","operator":"","nameSource":"junction"},"sourceId":"osm"},{"id":"osm:node:10275612748","latitude":51.5862683,"longitude":-0.0895599,"name":"West Green Road near La Rose Lane","properties":{"access":"unknown","bicycle_pa":"stands","capacity":2,"covered":"no","fee":"","operator":"","nameSource":"junction"},"sourceId":"osm"},{"id":"osm:node:10275613427","latitude":51.5860451,"longitude":-0.0925156,"name":"Terront Road near West Green Road","properties":{"access":"unknown","bicycle_pa":"stands","capacity":2,"covered":"no","fee":"","operator":"","nameSource":"junction"},"sourceId":"osm"},{"id":"osm:node:10275614239","latitude":51.5881737,"longitude":-0.1032525,"name":"Hampden Road near Willoughby Road","properties":{"access":"unknown","bicycle_pa":"stands","capacity":2,"covered":"","fee":"","operator":"","nameSource":"junction"},"sourceId":"osm"},{"id":"osm:node:10275614240","latitude":51.5909494,"longitude":-0.1026527,"name":"Westbury Avenue near Frome Road","properties":{"access":"unknown","bicycle_pa":"stands","capacity":6,"covered":"no","fee":"","operator":"","nameSource":"junction"},"sourceId":"osm"},{"id":"osm:node:10275614241","latitude":51.5888009,"longitude":-0.0997744,"name":"Willow Walk cycle parking","properties":{"access":"unknown","bicycle_pa":"stands","capacity":2,"covered":"","fee":"","operator":"","nameSource":"street"},"sourceId":"osm"},{"id":"osm:node:10275614242","latitude":51.5888494,"longitude":-0.0995098,"name":"Willow Walk cycle parking","properties":{"access":"unknown","bicycle_pa":"stands","capacity":2,"covered":"","fee":"","operator":"","nameSource":"street"},"sourceId":"osm"},{"id":"osm:node:10275614243","latitude":51.5890608,"longitude":-0.1007128,"name":"Milton Road cycle parking","properties":{"access":"unknown","bicycle_pa":"stands","capacity":14,"covered":"","fee":"","operator":"","nameSource":"street"},"sourceId":"osm"},{"id":"osm:node:10275614244","latitude":51.5910538,"longitude":-0.1001453,"name":"Graham Road near Langham Place","properties":{"access":"private","bicycle_pa":"shed","capacity":6,"covered":"yes","fee":"","operator":"Cyclehoop Rentals","nameSource":"junction"},"sourceId":"osm"},{"id":"osm:node:10275614245","latitude":51.5912042,"longitude":-0.1042981,"name":"High Road near Whymark Avenue","properties":{"access":"unknown","bicycle_pa":"stands","capacity":6,"covered":"","fee":"","operator":"","nameSource":"junction"},"sourceId":"osm"},{"id":"osm:node:10275621942","latitude":51.5862115,"longitude":-0.0899716,"name":"West Green Road near Abbotsford Avenue","properties":{"access":"unknown","bicycle_pa":"stands","capacity":2,"covered":"no","fee":"no","operator":"","nameSource":"junction"},"sourceId":"osm"},{"id":"osm:node:10275621943","latitude":51.5861229,"longitude":-0.0908384,"name":"Langham Road near West Green Road","properties":{"access":"unknown","bicycle_pa":"stands","capacity":2,"covered":"no","fee":"no","operator":"","nameSource":"junction"},"sourceId":"osm"},{"id":"osm:node:10275622061","latitude":51.5862647,"longitude":-0.090414,"name":"Abbotsford Avenue near West Green Road","properties":{"access":"unknown","bicycle_pa":"stands","capacity":4,"covered":"no","fee":"","operator":"","nameSource":"junction"},"sourceId":"osm"},{"id":"osm:node:10275622062","latitude":51.5838976,"longitude":-0.0902766,"name":"La Rose Lane near Clarence Road","properties":{"access":"unknown","bicycle_pa":"stands","capacity":4,"covered":"no","fee":"no","operator":"","nameSource":"junction"},"sourceId":"osm"},{"id":"osm:node:10275622063","latitude":51.5835672,"longitude":-0.0918967,"name":"Etherley Road near Cranleigh Road","properties":{"access":"private","bicycle_pa":"shed","capacity":6,"covered":"yes","fee":"","operator":"Cyclehoop Rentals","nameSource":"junction"},"sourceId":"osm"},{"id":"osm:node:10275622064","latitude":51.5838625,"longitude":-0.0893413,"name":"Falmer Road near Clarence Road","properties":{"access":"private","bicycle_pa":"shed","capacity":6,"covered":"yes","fee":"","operator":"Cyclehoop Rentals","nameSource":"junction"},"sourceId":"osm"},{"id":"osm:node:10275622067","latitude":51.5861517,"longitude":-0.0915443,"name":"West Green Road near Etherley Road","properties":{"access":"unknown","bicycle_pa":"stands","capacity":12,"covered":"no","fee":"no","operator":"","nameSource":"junction"},"sourceId":"osm"},{"id":"osm:node:10277984649","latitude":51.602283,"longitude":-0.1128052,"name":"Commerce Road near High Road","properties":{"access":"unknown","bicycle_pa":"stands","capacity":2,"covered":"","fee":"","operator":"","nameSource":"junction"},"sourceId":"osm"},{"id":"osm:node:10277984991","latitude":51.6022779,"longitude":-0.1131438,"name":"Commerce Road near High Road","properties":{"access":"unknown","bicycle_pa":"stands","capacity":2,"covered":"","fee":"","operator":"","nameSource":"junction"},"sourceId":"osm"},{"id":"osm:node:10277984992","latitude":51.602105,"longitude":-0.1174452,"name":"Partridge Way cycle parking","properties":{"access":"unknown","bicycle_pa":"stands","capacity":6,"covered":"","fee":"","operator":"","nameSource":"street"},"sourceId":"osm"},{"id":"osm:node:10277984993","latitude":51.6012113,"longitude":-0.1160146,"name":"Finsbury Road near Trinity Road","properties":{"access":"unknown","bicycle_pa":"stands","capacity":6,"covered":"","fee":"","operator":"","nameSource":"junction"},"sourceId":"osm"},{"id":"osm:node:10277984994","latitude":51.5979344,"longitude":-0.1103856,"name":"High Road near Station Road","properties":{"access":"unknown","bicycle_pa":"stands","capacity":2,"covered":"no","fee":"","operator":"","nameSource":"junction"},"sourceId":"osm"},{"id":"osm:node:10277984995","latitude":51.5983566,"longitude":-0.1106202,"name":"Cranbrook Park near High Road","properties":{"access":"unknown","bicycle_pa":"stands","capacity":4,"covered":"no","fee":"","operator":"","nameSource":"junction"},"sourceId":"osm"},{"id":"osm:node:10277984996","latitude":51.5987033,"longitude":-0.1107219,"name":"High Road near Cranbrook Park","properties":{"access":"unknown","bicycle_pa":"stands","capacity":2,"covered":"no","fee":"","operator":"","nameSource":"junction"},"sourceId":"osm"},{"id":"osm:node:10277984997","latitude":51.5997284,"longitude":-0.1113507,"name":"Ewart Grove near High Road","properties":{"access":"unknown","bicycle_pa":"stands","capacity":4,"covered":"","fee":"","operator":"","nameSource":"junction"},"sourceId":"osm"},{"id":"osm:node:10277984998","latitude":51.6002351,"longitude":-0.1115617,"name":"High Road near White Hart Lane","properties":{"access":"unknown","bicycle_pa":"stands","capacity":8,"covered":"no","fee":"","operator":"","nameSource":"junction"},"sourceId":"osm"},{"id":"osm:node:10277986724","latitude":51.6022819,"longitude":-0.1129338,"name":"Commerce Road near High Road","properties":{"access":"unknown","bicycle_pa":"stands","capacity":2,"covered":"","fee":"","operator":"","nameSource":"junction"},"sourceId":"osm"},{"id":"osm:node:10277986725","latitude":51.6022726,"longitude":-0.1132902,"name":"Commerce Road by The Tasty Bakery","properties":{"access":"unknown","bicycle_pa":"stands","capacity":2,"covered":"","fee":"","operator":"","nameSource":"landmark"},"sourceId":"osm"},{"id":"osm:node:10277986726","latitude":51.6022681,"longitude":-0.1133795,"name":"Commerce Road cycle parking","properties":{"access":"unknown","bicycle_pa":"stands","capacity":2,"covered":"","fee":"","operator":"","nameSource":"street"},"sourceId":"osm"},{"id":"osm:node:10277986876","latitude":51.5977302,"longitude":-0.1144608,"name":"Cumberland Road near Warberry Road","properties":{"access":"private","bicycle_pa":"shed","capacity":6,"covered":"yes","fee":"","operator":"Cyclehoop Rentals","nameSource":"junction"},"sourceId":"osm"},{"id":"osm:node:10277991355","latitude":51.572855,"longitude":-0.1317859,"name":"Hornsey Lane near Ridgeway Gardens","properties":{"access":"private","bicycle_pa":"shed","capacity":6,"covered":"yes","fee":"","operator":"Cyclehoop Rentals","nameSource":"junction"},"sourceId":"osm"},{"id":"osm:node:10277991356","latitude":51.5759486,"longitude":-0.1292124,"name":"Avenue Road near Coolhurst Road","properties":{"access":"private","bicycle_pa":"shed","capacity":6,"covered":"yes","fee":"","operator":"Cyclehoop Rentals","nameSource":"junction"},"sourceId":"osm"},{"id":"osm:node:10277991357","latitude":51.577356,"longitude":-0.1251092,"name":"Crouch End Hill near Edison Road","properties":{"access":"yes","bicycle_pa":"stands","capacity":2,"covered":"no","fee":"no","operator":"","nameSource":"junction"},"sourceId":"osm"},{"id":"osm:node:10277991394","latitude":51.582174,"longitude":-0.1204281,"name":"Elmfield Avenue near Tottenham Lane","properties":{"access":"unknown","bicycle_pa":"stands","capacity":2,"covered":"no","fee":"","operator":"","nameSource":"junction"},"sourceId":"osm"},{"id":"osm:node:10277991395","latitude":51.5822823,"longitude":-0.1205801,"name":"Elmfield Avenue near Tottenham Lane","properties":{"access":"unknown","bicycle_pa":"stands","capacity":2,"covered":"no","fee":"","operator":"","nameSource":"junction"},"sourceId":"osm"},{"id":"osm:node:10277991396","latitude":51.5822656,"longitude":-0.120551,"name":"Elmfield Avenue near Tottenham Lane","properties":{"access":"unknown","bicycle_pa":"stands","capacity":2,"covered":"no","fee":"","operator":"","nameSource":"junction"},"sourceId":"osm"},{"id":"osm:node:10277991397","latitude":51.5819079,"longitude":-0.1206453,"name":"Tottenham Lane near Elmfield Avenue","properties":{"access":"unknown","bicycle_pa":"stands","capacity":6,"covered":"no","fee":"no","operator":"","nameSource":"junction"},"sourceId":"osm"},{"id":"osm:node:10277991456","latitude":51.5728598,"longitude":-0.1318398,"name":"Hornsey Lane near Ridgeway Gardens","properties":{"access":"unknown","bicycle_pa":"wall_loops","capacity":11,"covered":"","fee":"","operator":"","nameSource":"junction"},"sourceId":"osm"},{"id":"osm:node:10277991498","latitude":51.5822538,"longitude":-0.1205331,"name":"Elmfield Avenue near Tottenham Lane","properties":{"access":"unknown","bicycle_pa":"stands","capacity":2,"covered":"no","fee":"","operator":"","nameSource":"junction"},"sourceId":"osm"},{"id":"osm:node:10277991499","latitude":51.5822893,"longitude":-0.1191907,"name":"Tottenham Lane near Ferme Park Road","properties":{"access":"unknown","bicycle_pa":"stands","capacity":2,"covered":"","fee":"","operator":"","nameSource":"junction"},"sourceId":"osm"},{"id":"osm:node:10277991500","latitude":51.581285,"longitude":-0.1219719,"name":"Elder Avenue near Tottenham Lane","properties":{"access":"unknown","bicycle_pa":"stands","capacity":4,"covered":"no","fee":"no","operator":"","nameSource":"junction"},"sourceId":"osm"},{"id":"osm:node:10277991858","latitude":51.5650617,"longitude":-0.1082552,"name":"Wells Terrace near City North Place","properties":{"access":"unknown","bicycle_pa":"stands","capacity":2,"covered":"","fee":"","operator":"","nameSource":"junction"},"sourceId":"osm"},{"id":"osm:node:10277991859","latitude":51.5696457,"longitude":-0.1250043,"name":"Hazellville Road near Courtauld Road","properties":{"access":"unknown","bicycle_pa":"stands","capacity":2,"covered":"","fee":"","operator":"","nameSource":"junction"},"sourceId":"osm"},{"id":"osm:node:10277991860","latitude":51.5689304,"longitude":-0.1236604,"name":"Hornsey Road near Lambton Road","properties":{"access":"unknown","bicycle_pa":"stands","capacity":4,"covered":"","fee":"","operator":"","nameSource":"junction"},"sourceId":"osm"},{"id":"osm:node:10277991861","latitude":51.5703448,"longitude":-0.1259441,"name":"Hazellville Road near Scholars Court","properties":{"access":"unknown","bicycle_pa":"stands","capacity":2,"covered":"","fee":"","operator":"","nameSource":"junction"},"sourceId":"osm"},{"id":"osm:node:10277991862","latitude":51.5717949,"longitude":-0.1181133,"name":"Holly Park near Crouch Hill","properties":{"access":"unknown","bicycle_pa":"upright_stands","capacity":16,"covered":"","fee":"","operator":"","nameSource":"junction"},"sourceId":"osm"},{"id":"osm:node:10277991863","latitude":51.5724529,"longitude":-0.1200333,"name":"Crouch Hill near Ashley Road","properties":{"access":"unknown","bicycle_pa":"post_hoop","capacity":2,"covered":"","fee":"","operator":"","nameSource":"junction"},"sourceId":"osm"},{"id":"osm:node:10277991885","latitude":51.5656045,"longitude":-0.1356577,"name":"Navigator Square by Archway Library","properties":{"access":"unknown","bicycle_pa":"stands","capacity":10,"covered":"yes","fee":"","operator":"","nameSource":"landmark"},"sourceId":"osm"},{"id":"osm:node:10277991886","latitude":51.5692246,"longitude":-0.1301516,"name":"St John's Way by Caxton House","properties":{"access":"unknown","bicycle_pa":"stands","capacity":4,"covered":"no","fee":"","operator":"","nameSource":"landmark"},"sourceId":"osm"},{"id":"osm:node:10277991887","latitude":51.5718761,"longitude":-0.1315063,"name":"Dresden Road near Ashmount Road","properties":{"access":"private","bicycle_pa":"shed","capacity":6,"covered":"yes","fee":"","operator":"Cyclehoop Rentals","nameSource":"junction"},"sourceId":"osm"},{"id":"osm:node:10277991891","latitude":51.5878429,"longitude":-0.164264,"name":"High Road near Baronsmere Road","properties":{"access":"unknown","bicycle_pa":"stands","capacity":6,"covered":"no","fee":"","operator":"","nameSource":"junction"},"sourceId":"osm"},{"id":"osm:node:10277991892","latitude":51.5872709,"longitude":-0.1322823,"name":"Priory Road near Redston Road","properties":{"access":"yes","bicycle_pa":"stands","capacity":8,"covered":"no","fee":"no","operator":"","nameSource":"junction"},"sourceId":"osm"},{"id":"osm:node:10277991893","latitude":51.583455,"longitude":-0.1298502,"name":"Park Road near Harefield Road","properties":{"access":"unknown","bicycle_pa":"stands","capacity":8,"covered":"","fee":"","operator":"","nameSource":"junction"},"sourceId":"osm"},{"id":"osm:node:10277991923","latitude":51.5748227,"longitude":-0.1268338,"name":"Crouch End Hill near Crescent Road","properties":{"access":"unknown","bicycle_pa":"stands","capacity":2,"covered":"no","fee":"","operator":"","nameSource":"junction"},"sourceId":"osm"},{"id":"osm:node:10277991947","latitude":51.56804,"longitude":-0.1095685,"name":"Perth Road near Stroud Green Road","properties":{"access":"unknown","bicycle_pa":"stands","capacity":2,"covered":"","fee":"","operator":"","nameSource":"junction"},"sourceId":"osm"},{"id":"osm:node:10277991948","latitude":51.565072,"longitude":-0.1081244,"name":"Wells Terrace near City North Place","properties":{"access":"unknown","bicycle_pa":"stands","capacity":2,"covered":"","fee":"","operator":"","nameSource":"junction"},"sourceId":"osm"},{"id":"osm:node:10277991949","latitude":51.5650311,"longitude":-0.108199,"name":"Wells Terrace near City North Place","properties":{"access":"unknown","bicycle_pa":"stands","capacity":2,"covered":"","fee":"","operator":"","nameSource":"junction"},"sourceId":"osm"},{"id":"osm:node:10277991961","latitude":51.5872933,"longitude":-0.1324835,"name":"Priory Road near Redston Road","properties":{"access":"unknown","bicycle_pa":"stands","capacity":4,"covered":"no","fee":"","operator":"","nameSource":"junction"},"sourceId":"osm"},{"id":"osm:node:10277992226","latitude":51.5651041,"longitude":-0.1081739,"name":"Wells Terrace near City North Place","properties":{"access":"unknown","bicycle_pa":"stands","capacity":2,"covered":"","fee":"","operator":"","nameSource":"junction"},"sourceId":"osm"},{"id":"osm:node:10277993012","latitude":51.5873651,"longitude":-0.1328484,"name":"Priory Road near Muswell Hill","properties":{"access":"unknown","bicycle_pa":"stands","capacity":4,"covered":"no","fee":"","operator":"","nameSource":"junction"},"sourceId":"osm"},{"id":"osm:node:10277993409","latitude":51.5777195,"longitude":-0.1247314,"name":"Crouch End Hill near Edison Road","properties":{"access":"unknown","bicycle_pa":"stands","capacity":2,"covered":"no","fee":"","operator":"","nameSource":"junction"},"sourceId":"osm"},{"id":"osm:node:10277993410","latitude":51.5772963,"longitude":-0.1251677,"name":"Crouch End Hill near Edison Road","properties":{"access":"unknown","bicycle_pa":"stands","capacity":2,"covered":"no","fee":"no","operator":"","nameSource":"junction"},"sourceId":"osm"},{"id":"osm:node:10277993411","latitude":51.577463,"longitude":-0.1247584,"name":"Crouch End Hill near Edison Road","properties":{"access":"unknown","bicycle_pa":"stands","capacity":2,"covered":"no","fee":"","operator":"","nameSource":"junction"},"sourceId":"osm"},{"id":"osm:node:10277993412","latitude":51.5771933,"longitude":-0.1250284,"name":"Crouch End Hill near Edison Road","properties":{"access":"unknown","bicycle_pa":"stands","capacity":2,"covered":"no","fee":"","operator":"","nameSource":"junction"},"sourceId":"osm"},{"id":"osm:node:10277993413","latitude":51.5775876,"longitude":-0.1245819,"name":"Crouch End Hill near Edison Road","properties":{"access":"unknown","bicycle_pa":"stands","capacity":6,"covered":"no","fee":"","operator":"","nameSource":"junction"},"sourceId":"osm"},{"id":"osm:node:10277993414","latitude":51.5749456,"longitude":-0.1266621,"name":"Crouch End Hill near Crescent Road","properties":{"access":"private","bicycle_pa":"shed","capacity":6,"covered":"yes","fee":"yes","operator":"Cyclehoop Rentals","nameSource":"junction"},"sourceId":"osm"},{"id":"osm:node:10277993415","latitude":51.5749415,"longitude":-0.1266359,"name":"Crouch End Hill near Crescent Road","properties":{"access":"private","bicycle_pa":"shed","capacity":6,"covered":"yes","fee":"yes","operator":"Cyclehoop Rentals","nameSource":"junction"},"sourceId":"osm"},{"id":"osm:node:10277993457","latitude":51.5819478,"longitude":-0.1201577,"name":"Tottenham Lane near Elmfield Avenue","properties":{"access":"unknown","bicycle_pa":"stands","capacity":4,"covered":"no","fee":"","operator":"","nameSource":"junction"},"sourceId":"osm"},{"id":"osm:node:10277993458","latitude":51.5810169,"longitude":-0.1219699,"name":"Tottenham Lane near Elder Avenue","properties":{"access":"unknown","bicycle_pa":"stands","capacity":2,"covered":"","fee":"","operator":"","nameSource":"junction"},"sourceId":"osm"},{"id":"osm:node:10277993459","latitude":51.5809281,"longitude":-0.1220868,"name":"Tottenham Lane near Elder Avenue","properties":{"access":"unknown","bicycle_pa":"stands","capacity":2,"covered":"","fee":"","operator":"","nameSource":"junction"},"sourceId":"osm"},{"id":"osm:node:10277993460","latitude":51.5807794,"longitude":-0.1222704,"name":"Tottenham Lane near Elder Avenue","properties":{"access":"unknown","bicycle_pa":"stands","capacity":2,"covered":"","fee":"","operator":"","nameSource":"junction"},"sourceId":"osm"},{"id":"osm:node:10277993461","latitude":51.5809828,"longitude":-0.1221694,"name":"Tottenham Lane near Elder Avenue","properties":{"access":"unknown","bicycle_pa":"stands","capacity":2,"covered":"","fee":"","operator":"","nameSource":"junction"},"sourceId":"osm"},{"id":"osm:node:10277993500","latitude":51.5690123,"longitude":-0.1117655,"name":"Stroud Green Road near Osborne Road","properties":{"access":"unknown","bicycle_pa":"stands","capacity":10,"covered":"yes","fee":"","operator":"","nameSource":"junction"},"sourceId":"osm"},{"id":"osm:node:10277995426","latitude":51.566454,"longitude":-0.1114347,"name":"Moray Road near Fonthill Road","properties":{"access":"unknown","bicycle_pa":"stands","capacity":2,"covered":"","fee":"","operator":"","nameSource":"junction"},"sourceId":"osm"},{"id":"osm:node:10277995427","latitude":51.5666767,"longitude":-0.1113258,"name":"Moray Road near Fonthill Road","properties":{"access":"unknown","bicycle_pa":"stands","capacity":2,"covered":"","fee":"","operator":"","nameSource":"junction"},"sourceId":"osm"},{"id":"osm:node:10277995428","latitude":51.566763,"longitude":-0.10847,"name":"Lennox Road near Charteris Road","properties":{"access":"unknown","bicycle_pa":"stands","capacity":10,"covered":"","fee":"","operator":"","nameSource":"junction"},"sourceId":"osm"},{"id":"osm:node:10277995433","latitude":51.5709764,"longitude":-0.1247487,"name":"Beaumont Rise near Hornsey Rise","properties":{"access":"unknown","bicycle_pa":"post_hoop","capacity":2,"covered":"","fee":"","operator":"","nameSource":"junction"},"sourceId":"osm"},{"id":"osm:node:10277995494","latitude":51.5656228,"longitude":-0.1365348,"name":"Macdonald Road near Vorley Road","properties":{"access":"unknown","bicycle_pa":"stands","capacity":4,"covered":"no","fee":"","operator":"","nameSource":"junction"},"sourceId":"osm"},{"id":"osm:node:10277995495","latitude":51.570465,"longitude":-0.1302447,"name":"Pilgrims Way near Cardinals Way","properties":{"access":"unknown","bicycle_pa":"stands","capacity":10,"covered":"","fee":"","operator":"","nameSource":"junction"},"sourceId":"osm"},{"id":"osm:node:10277995496","latitude":51.5715479,"longitude":-0.1318955,"name":"Ashmount Road near Dresden Road","properties":{"access":"unknown","bicycle_pa":"post_hoop","capacity":2,"covered":"","fee":"","operator":"","nameSource":"junction"},"sourceId":"osm"},{"id":"osm:node:10277995497","latitude":51.5715602,"longitude":-0.1292986,"name":"Hazellville Road near Cheverton Road","properties":{"access":"unknown","bicycle_pa":"post_hoop","capacity":2,"covered":"","fee":"","operator":"","nameSource":"junction"},"sourceId":"osm"},{"id":"osm:node:10277995499","latitude":51.5656467,"longitude":-0.1349882,"name":"Navigator Square near Holloway Road","properties":{"access":"unknown","bicycle_pa":"stands","capacity":10,"covered":"","fee":"","operator":"","nameSource":"junction"},"sourceId":"osm"},{"id":"osm:node:10277995503","latitude":51.5826687,"longitude":-0.1343353,"name":"Cot Way cycle parking","properties":{"access":"unknown","bicycle_pa":"stands","capacity":8,"covered":"","fee":"","operator":"","nameSource":"street"},"sourceId":"osm"},{"id":"osm:node:10277995616","latitude":51.5706667,"longitude":-0.1263112,"name":"Sunnyside Road near Hazellville Road","properties":{"access":"unknown","bicycle_pa":"stands","capacity":3,"covered":"","fee":"","operator":"","nameSource":"junction"},"sourceId":"osm"},{"id":"osm:node:10277995617","latitude":51.571881,"longitude":-0.1179672,"name":"Holly Park near Crouch Hill","properties":{"access":"unknown","bicycle_pa":"upright_stands","capacity":16,"covered":"","fee":"","operator":"","nameSource":"junction"},"sourceId":"osm"},{"id":"osm:node:10277995664","latitude":51.5655757,"longitude":-0.1364007,"name":"Macdonald Road by Archway Leisure Centre","properties":{"access":"unknown","bicycle_pa":"stands","capacity":4,"covered":"no","fee":"","operator":"","nameSource":"landmark"},"sourceId":"osm"},{"id":"osm:node:10277995678","latitude":51.5870118,"longitude":-0.1337044,"name":"Park Road near Etheldene Avenue","properties":{"access":"unknown","bicycle_pa":"stands","capacity":4,"covered":"","fee":"","operator":"","nameSource":"junction"},"sourceId":"osm"},{"id":"osm:node:10277996511","latitude":51.5696523,"longitude":-0.1255616,"name":"Beachcroft Way near Hazellville Road","properties":{"access":"unknown","bicycle_pa":"post_hoop","capacity":2,"covered":"no","fee":"","operator":"","nameSource":"junction"},"sourceId":"osm"},{"id":"osm:node:10277996512","latitude":51.569144,"longitude":-0.1219582,"name":"Nugent Road near Spears Road","properties":{"access":"unknown","bicycle_pa":"post_hoop","capacity":1,"covered":"","fee":"","operator":"","nameSource":"junction"},"sourceId":"osm"},{"id":"osm:node:10277996513","latitude":51.5715142,"longitude":-0.118482,"name":"Trinder Road near Crouch Hill","properties":{"access":"unknown","bicycle_pa":"post_hoop","capacity":2,"covered":"","fee":"","operator":"","nameSource":"junction"},"sourceId":"osm"},{"id":"osm:node:10277996587","latitude":51.5638644,"longitude":-0.1355037,"name":"Junction Road near Bredgar Road","properties":{"access":"unknown","bicycle_pa":"stands","capacity":4,"covered":"no","fee":"","operator":"","nameSource":"junction"},"sourceId":"osm"},{"id":"osm:node:10277996597","latitude":51.5909584,"longitude":-0.1647233,"name":"High Road near Leicester Road","properties":{"access":"unknown","bicycle_pa":"stands","capacity":4,"covered":"no","fee":"","operator":"","nameSource":"junction"},"sourceId":"osm"},{"id":"osm:node:10277996598","latitude":51.5911377,"longitude":-0.1648195,"name":"High Road near Leicester Road","properties":{"access":"unknown","bicycle_pa":"stands","capacity":4,"covered":"","fee":"","operator":"","nameSource":"junction"},"sourceId":"osm"},{"id":"osm:node:10277996599","latitude":51.5918879,"longitude":-0.1656834,"name":"High Road near Kitchener Road","properties":{"access":"unknown","bicycle_pa":"stands","capacity":6,"covered":"no","fee":"","operator":"","nameSource":"junction"},"sourceId":"osm"},{"id":"osm:node:10277996600","latitude":51.590523,"longitude":-0.1644651,"name":"High Road near Beresford Road","properties":{"access":"unknown","bicycle_pa":"stands","capacity":4,"covered":"no","fee":"","operator":"","nameSource":"junction"},"sourceId":"osm"},{"id":"osm:node:10277996601","latitude":51.5906297,"longitude":-0.1645592,"name":"Beresford Road near High Road","properties":{"access":"unknown","bicycle_pa":"stands","capacity":4,"covered":"no","fee":"","operator":"","nameSource":"junction"},"sourceId":"osm"},{"id":"osm:node:10278000910","latitude":51.5873825,"longitude":-0.1329561,"name":"Muswell Hill near Priory Road","properties":{"access":"unknown","bicycle_pa":"stands","capacity":4,"covered":"no","fee":"","operator":"","nameSource":"junction"},"sourceId":"osm"},{"id":"osm:node:10278000911","latitude":51.5865911,"longitude":-0.1335509,"name":"Park Road near Cranley Gardens","properties":{"access":"unknown","bicycle_pa":"stands","capacity":2,"covered":"no","fee":"","operator":"","nameSource":"junction"},"sourceId":"osm"},{"id":"osm:node:10278000912","latitude":51.5834679,"longitude":-0.1298223,"name":"Park Road near Harefield Road","properties":{"access":"unknown","bicycle_pa":"stands","capacity":6,"covered":"","fee":"","operator":"","nameSource":"junction"},"sourceId":"osm"},{"id":"osm:node:10278000913","latitude":51.5834977,"longitude":-0.1297392,"name":"Park Road near Harefield Road","properties":{"access":"unknown","bicycle_pa":"stands","capacity":12,"covered":"","fee":"","operator":"","nameSource":"junction"},"sourceId":"osm"},{"id":"osm:node:10278000914","latitude":51.5827243,"longitude":-0.1276707,"name":"Park Road near Palace Road","properties":{"access":"yes","bicycle_pa":"stands","capacity":6,"covered":"no","fee":"","operator":"Haringey Council","nameSource":"junction"},"sourceId":"osm"},{"id":"osm:node:10280258502","latitude":51.5699456,"longitude":-0.1162263,"name":"Hanley Road near Regina Road","properties":{"access":"private","bicycle_pa":"shed","capacity":6,"covered":"yes","fee":"","operator":"Cyclehoop Rentals","nameSource":"junction"},"sourceId":"osm"},{"id":"osm:node:10280259156","latitude":51.5696495,"longitude":-0.1130415,"name":"Stroud Green Road near Lorne Road","properties":{"access":"unknown","bicycle_pa":"stands","capacity":2,"covered":"","fee":"","operator":"","nameSource":"junction"},"sourceId":"osm"},{"id":"osm:node:10280259157","latitude":51.5695781,"longitude":-0.1128694,"name":"Stroud Green Road near Lorne Road","properties":{"access":"unknown","bicycle_pa":"stands","capacity":2,"covered":"","fee":"","operator":"","nameSource":"junction"},"sourceId":"osm"},{"id":"osm:node:10280259371","latitude":51.5696943,"longitude":-0.1131442,"name":"Lorne Road near Stroud Green Road","properties":{"access":"unknown","bicycle_pa":"stands","capacity":4,"covered":"","fee":"","operator":"","nameSource":"junction"},"sourceId":"osm"},{"id":"osm:node:10280259372","latitude":51.569859,"longitude":-0.1163784,"name":"Evershot Road near Hanley Road","properties":{"access":"unknown","bicycle_pa":"post_hoop","capacity":2,"covered":"","fee":"","operator":"","nameSource":"junction"},"sourceId":"osm"},{"id":"osm:node:10280259373","latitude":51.5704667,"longitude":-0.1149037,"name":"Stroud Green Road near Crouch Hill","properties":{"access":"unknown","bicycle_pa":"stands","capacity":8,"covered":"no","fee":"","operator":"","nameSource":"junction"},"sourceId":"osm"},{"id":"osm:node:10280259374","latitude":51.5699123,"longitude":-0.1136531,"name":"Lorne Road near Stroud Green Road","properties":{"access":"unknown","bicycle_pa":"stands","capacity":2,"covered":"","fee":"","operator":"","nameSource":"junction"},"sourceId":"osm"},{"id":"osm:node:10280260140","latitude":51.5703748,"longitude":-0.1491838,"name":"South Grove near Swain's Lane","properties":{"access":"unknown","bicycle_pa":"post_hoop","capacity":2,"covered":"","fee":"","operator":"","nameSource":"junction"},"sourceId":"osm"},{"id":"osm:node:10280260141","latitude":51.5704425,"longitude":-0.1485233,"name":"South Grove near Swain's Lane","properties":{"access":"unknown","bicycle_pa":"stands","capacity":2,"covered":"","fee":"","operator":"","nameSource":"junction"},"sourceId":"osm"},{"id":"osm:node:10280260142","latitude":51.5807357,"longitude":-0.0995321,"name":"Green Lanes near Pemberton Road","properties":{"access":"unknown","bicycle_pa":"stands","capacity":4,"covered":"no","fee":"","operator":"","nameSource":"junction"},"sourceId":"osm"},{"id":"osm:node:10280260153","latitude":51.5895702,"longitude":-0.1446429,"name":"Muswell Hill Broadway near A504","properties":{"access":"unknown","bicycle_pa":"post_hoop","capacity":2,"covered":"","fee":"","operator":"","nameSource":"junction"},"sourceId":"osm"},{"id":"osm:node:10280260236","latitude":51.5817518,"longitude":-0.090334,"name":"St Ann's Road by Chestnut Cafe","properties":{"access":"unknown","bicycle_pa":"stands","capacity":12,"covered":"","fee":"","operator":"","nameSource":"landmark"},"sourceId":"osm"},{"id":"osm:node:10280261078","latitude":51.5976597,"longitude":-0.1751387,"name":"Fallows Close near Tarling Road","properties":{"access":"unknown","bicycle_pa":"stands","capacity":8,"covered":"","fee":"","operator":"","nameSource":"junction"},"sourceId":"osm"},{"id":"osm:node:10280261080","latitude":51.5938963,"longitude":-0.167838,"name":"High Road near Leslie Road","properties":{"access":"unknown","bicycle_pa":"stands","capacity":8,"covered":"no","fee":"","operator":"","nameSource":"junction"},"sourceId":"osm"},{"id":"osm:node:10280261081","latitude":51.5938218,"longitude":-0.1677555,"name":"High Road near Leslie Road","properties":{"access":"unknown","bicycle_pa":"stands","capacity":4,"covered":"no","fee":"","operator":"","nameSource":"junction"},"sourceId":"osm"},{"id":"osm:node:10280261082","latitude":51.5931663,"longitude":-0.1723775,"name":"Church Lane near Long Lane","properties":{"access":"unknown","bicycle_pa":"stands","capacity":4,"covered":"","fee":"","operator":"","nameSource":"junction"},"sourceId":"osm"},{"id":"osm:node:10280261083","latitude":51.5928687,"longitude":-0.166794,"name":"Hertford Road near High Road","properties":{"access":"unknown","bicycle_pa":"stands","capacity":4,"covered":"no","fee":"","operator":"","nameSource":"junction"},"sourceId":"osm"},{"id":"osm:node:10280261084","latitude":51.5931697,"longitude":-0.1671105,"name":"High Road near Creighton Avenue","properties":{"access":"yes","bicycle_pa":"stands","capacity":4,"covered":"no","fee":"no","operator":"","nameSource":"junction"},"sourceId":"osm"},{"id":"osm:node:10280261698","latitude":51.571201,"longitude":-0.0894882,"name":"Goodchild Road near Woodberry Grove","properties":{"access":"unknown","bicycle_pa":"post_hoop","capacity":2,"covered":"","fee":"","operator":"","nameSource":"junction"},"sourceId":"osm"},{"id":"osm:node:10280261699","latitude":51.5712671,"longitude":-0.0895455,"name":"Devan Grove near Woodberry Grove","properties":{"access":"unknown","bicycle_pa":"stands","capacity":6,"covered":"","fee":"","operator":"","nameSource":"junction"},"sourceId":"osm"},{"id":"osm:node:10280261700","latitude":51.5707054,"longitude":-0.0890014,"name":"Lordship Road near Woodberry Grove","properties":{"access":"unknown","bicycle_pa":"post_hoop","capacity":2,"covered":"no","fee":"","operator":"","nameSource":"junction"},"sourceId":"osm"},{"id":"osm:node:10280261701","latitude":51.5707594,"longitude":-0.0901818,"name":"Goodchild Road by Dry Centre","properties":{"access":"unknown","bicycle_pa":"post_hoop","capacity":2,"covered":"","fee":"","operator":"","nameSource":"landmark"},"sourceId":"osm"},{"id":"osm:node:10280261702","latitude":51.5707312,"longitude":-0.090474,"name":"Goodchild Road cycle parking","properties":{"access":"unknown","bicycle_pa":"post_hoop","capacity":2,"covered":"","fee":"","operator":"","nameSource":"street"},"sourceId":"osm"},{"id":"osm:node:10280261703","latitude":51.5698779,"longitude":-0.0914618,"name":"Kayani Avenue by The Redmond Community Centre","properties":{"access":"unknown","bicycle_pa":"stands","capacity":12,"covered":"","fee":"","operator":"","nameSource":"landmark"},"sourceId":"osm"},{"id":"osm:node:10280261731","latitude":51.571455,"longitude":-0.0895889,"name":"Devan Grove near Woodberry Grove","properties":{"access":"unknown","bicycle_pa":"post_hoop","capacity":2,"covered":"","fee":"","operator":"","nameSource":"junction"},"sourceId":"osm"},{"id":"osm:node:10280261732","latitude":51.5707425,"longitude":-0.0902519,"name":"Goodchild Road by Dry Centre","properties":{"access":"unknown","bicycle_pa":"post_hoop","capacity":2,"covered":"","fee":"","operator":"","nameSource":"landmark"},"sourceId":"osm"},{"id":"osm:node:10280261733","latitude":51.5707113,"longitude":-0.0913085,"name":"Goodchild Road near Kayani Avenue","properties":{"access":"unknown","bicycle_pa":"post_hoop","capacity":2,"covered":"no","fee":"","operator":"","nameSource":"junction"},"sourceId":"osm"},{"id":"osm:node:10280261761","latitude":51.597991,"longitude":-0.0930127,"name":"Westbury Avenue near Lordship Lane","properties":{"access":"unknown","bicycle_pa":"stands","capacity":2,"covered":"no","fee":"","operator":"","nameSource":"junction"},"sourceId":"osm"},{"id":"osm:node:10280261762","latitude":51.5981286,"longitude":-0.0935731,"name":"Lordship Lane near Westbury Avenue","properties":{"access":"unknown","bicycle_pa":"stands","capacity":2,"covered":"","fee":"","operator":"","nameSource":"junction"},"sourceId":"osm"},{"id":"osm:node:10280261942","latitude":51.598145,"longitude":-0.0956681,"name":"Lordship Lane near Gladstone Avenue","properties":{"access":"unknown","bicycle_pa":"stands","capacity":6,"covered":"","fee":"","operator":"","nameSource":"junction"},"sourceId":"osm"},{"id":"osm:node:10280261943","latitude":51.5982406,"longitude":-0.0940102,"name":"Tintern Road near Lordship Lane","properties":{"access":"unknown","bicycle_pa":"stands","capacity":2,"covered":"","fee":"","operator":"","nameSource":"junction"},"sourceId":"osm"},{"id":"osm:node:10280262720","latitude":51.5982406,"longitude":-0.0955301,"name":"Lordship Lane near Gladstone Avenue","properties":{"access":"unknown","bicycle_pa":"stands","capacity":8,"covered":"","fee":"","operator":"","nameSource":"junction"},"sourceId":"osm"},{"id":"osm:node:10280263017","latitude":51.5706657,"longitude":-0.0891563,"name":"Woodberry Grove near Lordship Road","properties":{"access":"unknown","bicycle_pa":"stands","capacity":6,"covered":"yes","fee":"","operator":"","nameSource":"junction"},"sourceId":"osm"},{"id":"osm:node:10280264512","latitude":51.598029,"longitude":-0.0931976,"name":"Westbury Avenue near Lordship Lane","properties":{"access":"unknown","bicycle_pa":"stands","capacity":2,"covered":"no","fee":"","operator":"","nameSource":"junction"},"sourceId":"osm"},{"id":"osm:node:10280269134","latitude":51.5981554,"longitude":-0.0929031,"name":"Lordship Lane near Westbury Avenue","properties":{"access":"unknown","bicycle_pa":"stands","capacity":4,"covered":"","fee":"","operator":"","nameSource":"junction"},"sourceId":"osm"},{"id":"osm:node:10280269135","latitude":51.5985891,"longitude":-0.0965747,"name":"Farrant Avenue near Lordship Lane","properties":{"access":"unknown","bicycle_pa":"stands","capacity":4,"covered":"","fee":"","operator":"","nameSource":"junction"},"sourceId":"osm"},{"id":"osm:node:10280269136","latitude":51.598739,"longitude":-0.0970502,"name":"Eldon Road near Lordship Lane","properties":{"access":"unknown","bicycle_pa":"stands","capacity":2,"covered":"","fee":"","operator":"","nameSource":"junction"},"sourceId":"osm"},{"id":"osm:node:10280269937","latitude":51.56607,"longitude":-0.0888051,"name":"Allerton Road near Queen Elizabeth's Walk","properties":{"access":"unknown","bicycle_pa":"stands","capacity":6,"covered":"yes","fee":"","operator":"","nameSource":"junction"},"sourceId":"osm"},{"id":"osm:node:10280269939","latitude":51.5649094,"longitude":-0.088212,"name":"Lordship Park near Queen Elizabeth's Walk","properties":{"access":"unknown","bicycle_pa":"post_hoop","capacity":2,"covered":"","fee":"","operator":"","nameSource":"junction"},"sourceId":"osm"},{"id":"osm:node:10280269967","latitude":51.5702569,"longitude":-0.1491134,"name":"Swain's Lane near South Grove","properties":{"access":"unknown","bicycle_pa":"post_hoop","capacity":2,"covered":"","fee":"","operator":"","nameSource":"junction"},"sourceId":"osm"},{"id":"osm:node:10280269968","latitude":51.5705956,"longitude":-0.1485356,"name":"Pond Square near South Grove","properties":{"access":"unknown","bicycle_pa":"stands","capacity":4,"covered":"","fee":"","operator":"","nameSource":"junction"},"sourceId":"osm"},{"id":"osm:node:10280269969","latitude":51.5704523,"longitude":-0.1484991,"name":"South Grove near Pond Square","properties":{"access":"unknown","bicycle_pa":"stands","capacity":2,"covered":"","fee":"","operator":"","nameSource":"junction"},"sourceId":"osm"},{"id":"osm:node:10280269971","latitude":51.5781012,"longitude":-0.099127,"name":"Burgoyne Road near Green Lanes","properties":{"access":"yes","bicycle_pa":"stands","capacity":4,"covered":"no","fee":"no","operator":"","nameSource":"junction"},"sourceId":"osm"},{"id":"osm:node:10280269972","latitude":51.5795063,"longitude":-0.0989951,"name":"Green Lanes near Roseberry Gardens","properties":{"access":"unknown","bicycle_pa":"stands","capacity":6,"covered":"no","fee":"","operator":"","nameSource":"junction"},"sourceId":"osm"},{"id":"osm:node:10280269973","latitude":51.5787678,"longitude":-0.0991864,"name":"Green Lanes near Cavendish Road","properties":{"access":"unknown","bicycle_pa":"stands","capacity":4,"covered":"no","fee":"","operator":"","nameSource":"junction"},"sourceId":"osm"},{"id":"osm:node:10280269979","latitude":51.592495,"longitude":-0.1431539,"name":"Muswell Hill Broadway near Woodberry Crescent","properties":{"access":"unknown","bicycle_pa":"stands","capacity":2,"covered":"no","fee":"","operator":"","nameSource":"junction"},"sourceId":"osm"},{"id":"osm:node:10280269980","latitude":51.5920379,"longitude":-0.142946,"name":"Muswell Hill Broadway near Woodberry Crescent","properties":{"access":"unknown","bicycle_pa":"stands","capacity":2,"covered":"no","fee":"","operator":"","nameSource":"junction"},"sourceId":"osm"},{"id":"osm:node:10280270519","latitude":51.5710206,"longitude":-0.1142667,"name":"Stapleton Hall Road cycle parking","properties":{"access":"private","bicycle_pa":"shed","capacity":6,"covered":"yes","fee":"","operator":"Cyclehoop Rentals","nameSource":"street"},"sourceId":"osm"},{"id":"osm:node:10280270546","latitude":51.5938306,"longitude":-0.1677685,"name":"High Road near Leslie Road","properties":{"access":"unknown","bicycle_pa":"stands","capacity":4,"covered":"","fee":"","operator":"","nameSource":"junction"},"sourceId":"osm"},{"id":"osm:node:10280270557","latitude":51.5647222,"longitude":-0.0915892,"name":"Allerton Road near Lordship Park Mews","properties":{"access":"unknown","bicycle_pa":"stands","capacity":2,"covered":"no","fee":"","operator":"","nameSource":"junction"},"sourceId":"osm"},{"id":"osm:node:10280270592","latitude":51.5639364,"longitude":-0.1033369,"name":"Blackstock Road near Rock Street","properties":{"access":"unknown","bicycle_pa":"stands","capacity":6,"covered":"","fee":"","operator":"","nameSource":"junction"},"sourceId":"osm"},{"id":"osm:node:10280270594","latitude":51.56426,"longitude":-0.1058219,"name":"Station Place near Seven Sisters Road","properties":{"access":"unknown","bicycle_pa":"stands","capacity":20,"covered":"","fee":"","operator":"","nameSource":"junction"},"sourceId":"osm"},{"id":"osm:node:10280270595","latitude":51.5642802,"longitude":-0.103591,"name":"Blackstock Road near Rock Street","properties":{"access":"unknown","bicycle_pa":"post_hoop","capacity":2,"covered":"","fee":"","operator":"","nameSource":"junction"},"sourceId":"osm"},{"id":"osm:node:10280270596","latitude":51.5674267,"longitude":-0.1045057,"name":"Finsbury Park cycle parking","properties":{"access":"unknown","bicycle_pa":"stands","capacity":6,"covered":"no","fee":"","operator":"","nameSource":"place"},"sourceId":"osm"},{"id":"osm:node:10280270605","latitude":51.5807841,"longitude":-0.0992062,"name":"Green Lanes near Kimberley Gardens","properties":{"access":"unknown","bicycle_pa":"stands","capacity":6,"covered":"no","fee":"no","operator":"","nameSource":"junction"},"sourceId":"osm"},{"id":"osm:node:10280270606","latitude":51.5780653,"longitude":-0.100716,"name":"Burgoyne Road near Harringay Passage","properties":{"access":"unknown","bicycle_pa":"stands","capacity":2,"covered":"","fee":"","operator":"","nameSource":"junction"},"sourceId":"osm"},{"id":"osm:node:10280272725","latitude":51.5636115,"longitude":-0.1428132,"name":"Chester Road near Bertram Street","properties":{"access":"unknown","bicycle_pa":"stands","capacity":4,"covered":"","fee":"","operator":"","nameSource":"junction"},"sourceId":"osm"},{"id":"osm:node:10280272726","latitude":51.5667796,"longitude":-0.1467428,"name":"Courtyard near Cuttings Path","properties":{"access":"unknown","bicycle_pa":"stands","capacity":8,"covered":"","fee":"","operator":"","nameSource":"junction"},"sourceId":"osm"},{"id":"osm:node:10280272727","latitude":51.5639679,"longitude":-0.1440858,"name":"Chester Road near Raydon Street","properties":{"access":"unknown","bicycle_pa":"stands","capacity":4,"covered":"","fee":"","operator":"","nameSource":"junction"},"sourceId":"osm"},{"id":"osm:node:10280272728","latitude":51.5637309,"longitude":-0.1450367,"name":"Chester Road near Stoneleigh Terrace","properties":{"access":"unknown","bicycle_pa":"stands","capacity":4,"covered":"","fee":"","operator":"","nameSource":"junction"},"sourceId":"osm"},{"id":"osm:node:10280272765","latitude":51.568741,"longitude":-0.0934128,"name":"Springpark Drive near Green Lanes","properties":{"access":"yes","bicycle_pa":"stands","capacity":2,"covered":"no","fee":"no","operator":"","nameSource":"junction"},"sourceId":"osm"},{"id":"osm:node:10280272766","latitude":51.5724437,"longitude":-0.0965173,"name":"Rowley Gardens cycle parking","properties":{"access":"unknown","bicycle_pa":"wall_loops","capacity":11,"covered":"","fee":"","operator":"","nameSource":"street"},"sourceId":"osm"},{"id":"osm:node:10280272767","latitude":51.5723413,"longitude":-0.0946128,"name":"Woodberry Grove near Rowley Gardens","properties":{"access":"unknown","bicycle_pa":"stands","capacity":10,"covered":"yes","fee":"","operator":"","nameSource":"junction"},"sourceId":"osm"},{"id":"osm:node:10280272919","latitude":51.56352,"longitude":-0.143921,"name":"Croftdown Road near Chester Road","properties":{"access":"unknown","bicycle_pa":"stands","capacity":6,"covered":"","fee":"","operator":"","nameSource":"junction"},"sourceId":"osm"},{"id":"osm:node:10280272930","latitude":51.5682293,"longitude":-0.096289,"name":"Portland Rise near Ursula Mews","properties":{"access":"private","bicycle_pa":"shed","capacity":6,"covered":"yes","fee":"","operator":"Cyclehoop Rentals","nameSource":"junction"},"sourceId":"osm"},{"id":"osm:node:10280275816","latitude":51.580713,"longitude":-0.0937071,"name":"Warwick Gardens near Chesterfield Gardens","properties":{"access":"private","bicycle_pa":"shed","capacity":6,"covered":"yes","fee":"","operator":"Cyclehoop Rentals","nameSource":"junction"},"sourceId":"osm"},{"id":"osm:node:10280275817","latitude":51.5813366,"longitude":-0.094481,"name":"St Ann's Road near Brampton Road","properties":{"access":"unknown","bicycle_pa":"stands","capacity":2,"covered":"no","fee":"","operator":"","nameSource":"junction"},"sourceId":"osm"},{"id":"osm:node:10280277676","latitude":51.566178,"longitude":-0.0888505,"name":"Allerton Road near Queen Elizabeth's Walk","properties":{"access":"private","bicycle_pa":"shed","capacity":6,"covered":"yes","fee":"","operator":"Cyclehoop Rentals","nameSource":"junction"},"sourceId":"osm"},{"id":"osm:node:10280277677","latitude":51.5646312,"longitude":-0.0915309,"name":"Allerton Road near Lordship Park Mews","properties":{"access":"unknown","bicycle_pa":"stands","capacity":6,"covered":"","fee":"","operator":"","nameSource":"junction"},"sourceId":"osm"},{"id":"osm:node:10280281209","latitude":51.5641399,"longitude":-0.0882665,"name":"Queen Elizabeth's Close cycle parking","properties":{"access":"unknown","bicycle_pa":"lockers","capacity":7,"covered":"","fee":"","operator":"","nameSource":"street"},"sourceId":"osm"},{"id":"osm:node:10280281211","latitude":51.5703166,"longitude":-0.1488869,"name":"Swain's Lane near South Grove","properties":{"access":"unknown","bicycle_pa":"post_hoop","capacity":2,"covered":"","fee":"","operator":"","nameSource":"junction"},"sourceId":"osm"},{"id":"osm:node:10280285411","latitude":51.5802152,"longitude":-0.1505277,"name":"Archway Road cycle parking","properties":{"access":"unknown","bicycle_pa":"wall_loops","capacity":9,"covered":"no","fee":"","operator":"","nameSource":"street"},"sourceId":"osm"},{"id":"osm:node:10280285412","latitude":51.5754209,"longitude":-0.1493697,"name":"Hillcrest cycle parking","properties":{"access":"unknown","bicycle_pa":"stands","capacity":6,"covered":"","fee":"","operator":"","nameSource":"street"},"sourceId":"osm"},{"id":"osm:node:10280285469","latitude":51.5774353,"longitude":-0.0989531,"name":"Green Lanes near Umfreville Road","properties":{"access":"unknown","bicycle_pa":"","capacity":4,"covered":"","fee":"","operator":"","nameSource":"junction"},"sourceId":"osm"},{"id":"osm:node:10280285556","latitude":51.567748,"longitude":-0.0953627,"name":"Portland Rise near Henry Road","properties":{"access":"private","bicycle_pa":"shed","capacity":6,"covered":"yes","fee":"","operator":"Cyclehoop Rentals","nameSource":"junction"},"sourceId":"osm"},{"id":"osm:node:10280285557","latitude":51.5678044,"longitude":-0.0957591,"name":"Henry Road near Portland Rise","properties":{"access":"private","bicycle_pa":"shed","capacity":6,"covered":"yes","fee":"","operator":"Cyclehoop Rentals","nameSource":"junction"},"sourceId":"osm"},{"id":"osm:node:10280285558","latitude":51.5678459,"longitude":-0.0958426,"name":"Henry Road near Portland Rise","properties":{"access":"unknown","bicycle_pa":"post_hoop","capacity":2,"covered":"no","fee":"","operator":"","nameSource":"junction"},"sourceId":"osm"},{"id":"osm:node:10280285632","latitude":51.5767055,"longitude":-0.1007896,"name":"Umfreville Road near Harringay Passage","properties":{"access":"unknown","bicycle_pa":"stands","capacity":4,"covered":"no","fee":"","operator":"TCV","nameSource":"junction"},"sourceId":"osm"},{"id":"osm:node:10280285834","latitude":51.5753273,"longitude":-0.0934455,"name":"Hermitage Road near Vale Grove","properties":{"access":"private","bicycle_pa":"shed","capacity":12,"covered":"yes","fee":"","operator":"Cyclehoop Rentals","nameSource":"junction"},"sourceId":"osm"},{"id":"osm:node:10280289955","latitude":51.5749112,"longitude":-0.0982227,"name":"Green Lanes near Hermitage Road","properties":{"access":"unknown","bicycle_pa":"stands","capacity":2,"covered":"no","fee":"","operator":"","nameSource":"junction"},"sourceId":"osm"},{"id":"osm:node:10280289956","latitude":51.5754978,"longitude":-0.1009621,"name":"Tancred Road near Endymion Road","properties":{"access":"private","bicycle_pa":"shed","capacity":6,"covered":"yes","fee":"","operator":"Cyclehoop Rentals","nameSource":"junction"},"sourceId":"osm"},{"id":"osm:node:10280294714","latitude":51.5911038,"longitude":-0.1526312,"name":"Fortis Green near Midhurst Avenue","properties":{"access":"unknown","bicycle_pa":"stands","capacity":12,"covered":"no","fee":"","operator":"","nameSource":"junction"},"sourceId":"osm"},{"id":"osm:node:10280294715","latitude":51.5915909,"longitude":-0.1428648,"name":"Muswell Hill Broadway near A504","properties":{"access":"unknown","bicycle_pa":"stands","capacity":2,"covered":"no","fee":"","operator":"","nameSource":"junction"},"sourceId":"osm"},{"id":"osm:node:10280294716","latitude":51.5917302,"longitude":-0.1429618,"name":"Muswell Hill Broadway near A504","properties":{"access":"unknown","bicycle_pa":"stands","capacity":2,"covered":"no","fee":"","operator":"","nameSource":"junction"},"sourceId":"osm"},{"id":"osm:node:10281997775","latitude":51.5857487,"longitude":-0.1048459,"name":"Falkland Road near Harringay Passage","properties":{"access":"private","bicycle_pa":"shed","capacity":6,"covered":"yes","fee":"","operator":"Cyclehoop Rentals","nameSource":"junction"},"sourceId":"osm"},{"id":"osm:node:10281997787","latitude":51.5679021,"longitude":-0.1390939,"name":"Waterlow Road near Highgate Hill","properties":{"access":"unknown","bicycle_pa":"stands","capacity":4,"covered":"","fee":"","operator":"","nameSource":"junction"},"sourceId":"osm"},{"id":"osm:node:10281997788","latitude":51.5680836,"longitude":-0.1390745,"name":"Waterlow Road near Highgate Hill","properties":{"access":"unknown","bicycle_pa":"post_hoop","capacity":2,"covered":"","fee":"","operator":"","nameSource":"junction"},"sourceId":"osm"},{"id":"osm:node:10281997789","latitude":51.5692534,"longitude":-0.1421162,"name":"Hornsey Lane near Highgate Hill","properties":{"access":"unknown","bicycle_pa":"stands","capacity":2,"covered":"no","fee":"","operator":"","nameSource":"junction"},"sourceId":"osm"},{"id":"osm:node:10281997803","latitude":51.5855044,"longitude":-0.100271,"name":"Green Lanes near Effingham Road","properties":{"access":"yes","bicycle_pa":"stands","capacity":4,"covered":"no","fee":"no","operator":"","nameSource":"junction"},"sourceId":"osm"},{"id":"osm:node:10281997804","latitude":51.5873567,"longitude":-0.1010417,"name":"Wordsworth Parade near Green Lanes","properties":{"access":"unknown","bicycle_pa":"stands","capacity":4,"covered":"","fee":"","operator":"","nameSource":"junction"},"sourceId":"osm"},{"id":"osm:node:10281997805","latitude":51.5841929,"longitude":-0.1001481,"name":"Green Lanes near Beresford Road","properties":{"access":"unknown","bicycle_pa":"stands","capacity":8,"covered":"no","fee":"","operator":"","nameSource":"junction"},"sourceId":"osm"},{"id":"osm:node:10281997838","latitude":51.5836384,"longitude":-0.1058867,"name":"Beresford Road near Wightman Road","properties":{"access":"private","bicycle_pa":"shed","capacity":6,"covered":"yes","fee":"","operator":"Cyclehoop Rentals","nameSource":"junction"},"sourceId":"osm"},{"id":"osm:node:10281998320","latitude":51.5717993,"longitude":-0.1399961,"name":"Winchester Road near Tile Kiln Lane","properties":{"access":"private","bicycle_pa":"shed","capacity":6,"covered":"yes","fee":"","operator":"Cyclehoop Rentals","nameSource":"junction"},"sourceId":"osm"},{"id":"osm:node:10281998342","latitude":51.5908235,"longitude":-0.141114,"name":"Muswell Hill near Dukes Mews","properties":{"access":"unknown","bicycle_pa":"post_hoop","capacity":2,"covered":"no","fee":"","operator":"","nameSource":"junction"},"sourceId":"osm"},{"id":"osm:node:10281998343","latitude":51.5917336,"longitude":-0.141498,"name":"Dukes Avenue near Dukes Mews","properties":{"access":"unknown","bicycle_pa":"post_hoop","capacity":2,"covered":"no","fee":"","operator":"","nameSource":"junction"},"sourceId":"osm"},{"id":"osm:node:10281998354","latitude":51.5988613,"longitude":-0.1228836,"name":"Palace Gates Road near Crescent Road","properties":{"access":"unknown","bicycle_pa":"stands","capacity":6,"covered":"yes","fee":"","operator":"","nameSource":"junction"},"sourceId":"osm"},{"id":"osm:node:10281998365","latitude":51.6064639,"longitude":-0.119589,"name":"Myddleton Road near Ireland Place","properties":{"access":"unknown","bicycle_pa":"stands","capacity":2,"covered":"","fee":"","operator":"","nameSource":"junction"},"sourceId":"osm"},{"id":"osm:node:10281998366","latitude":51.6039444,"longitude":-0.1166475,"name":"Clarence Road near Truro Road","properties":{"access":"unknown","bicycle_pa":"","capacity":2,"covered":"","fee":"","operator":"","nameSource":"junction"},"sourceId":"osm"},{"id":"osm:node:10281998381","latitude":51.6042133,"longitude":-0.1727175,"name":"Chaplin Square by ASK Italian","properties":{"access":"unknown","bicycle_pa":"stands","capacity":6,"covered":"no","fee":"","operator":"","nameSource":"landmark"},"sourceId":"osm"},{"id":"osm:node:10281998382","latitude":51.6040242,"longitude":-0.1736129,"name":"Chaplin Square by Wagamama","properties":{"access":"unknown","bicycle_pa":"stands","capacity":12,"covered":"no","fee":"","operator":"","nameSource":"landmark"},"sourceId":"osm"},{"id":"osm:node:10281998413","latitude":51.6074864,"longitude":-0.1238334,"name":"Brownlow Road near Maidstone Road","properties":{"access":"unknown","bicycle_pa":"stands","capacity":2,"covered":"no","fee":"","operator":"","nameSource":"junction"},"sourceId":"osm"},{"id":"osm:node:10281998532","latitude":51.5852301,"longitude":-0.1063789,"name":"Falkland Road by Fairland Park","properties":{"access":"unknown","bicycle_pa":"stands","capacity":4,"covered":"","fee":"","operator":"","nameSource":"landmark"},"sourceId":"osm"},