{"key":"12/2046/1366","points":[{"id":"osm:node:10207249358","latitude":51.2639438,"longitude":-0.1503002,"name":"Station Road South near Station Road North","properties":{"access":"unknown","bicycle_pa":"two-tier","capacity":0,"covered":"yes","fee":"","operator":"","nameSource":"junction"},"sourceId":"osm"},{"id":"osm:node:1123932341","latitude":51.2404255,"longitude":-0.1702157,"name":"Station Road near Queensway","properties":{"access":"unknown","bicycle_pa":"stands","capacity":6,"covered":"no","fee":"","operator":"","nameSource":"junction"},"sourceId":"osm"},{"id":"osm:node:1223430088","latitude":51.2391026,"longitude":-0.1687118,"name":"High Street near Marketfield Road","properties":{"access":"unknown","bicycle_pa":"stands","capacity":3,"covered":"no","fee":"","operator":"","nameSource":"junction"},"sourceId":"osm"},{"id":"osm:node:13104398491","latitude":51.2431481,"longitude":-0.1649236,"name":"Ladbroke Road near Ladbroke Grove","properties":{"access":"unknown","bicycle_pa":"stands","capacity":6,"covered":"no","fee":"","operator":"","nameSource":"junction"},"sourceId":"osm"},{"id":"osm:node:13662161740","latitude":51.2403567,"longitude":-0.1697238,"name":"Station Road near Queensway","properties":{"access":"unknown","bicycle_pa":"stands","capacity":6,"covered":"no","fee":"","operator":"","nameSource":"junction"},"sourceId":"osm"},{"id":"osm:node:13662179546","latitude":51.2405832,"longitude":-0.1665815,"name":"Princess Way near The Stations Roundabout","properties":{"access":"unknown","bicycle_pa":"stands","capacity":12,"covered":"no","fee":"","operator":"","nameSource":"junction"},"sourceId":"osm"},{"id":"osm:node:13767191866","latitude":51.2430464,"longitude":-0.1662028,"name":"Princess Way by Florrie's Park Cafe","properties":{"access":"unknown","bicycle_pa":"stands","capacity":10,"covered":"no","fee":"","operator":"","nameSource":"landmark"},"sourceId":"osm"},{"id":"osm:node:2320715113","latitude":51.2642859,"longitude":-0.1502241,"name":"Station Road North near Station Road South","properties":{"access":"unknown","bicycle_pa":"lockers","capacity":4,"covered":"","fee":"","operator":"","nameSource":"junction"},"sourceId":"osm"},{"id":"osm:node:5188027012","latitude":51.2411218,"longitude":-0.1680026,"name":"London Road near Queensway","properties":{"access":"unknown","bicycle_pa":"stands","capacity":14,"covered":"yes","fee":"no","operator":"","nameSource":"junction"},"sourceId":"osm"},{"id":"osm:node:5188027013","latitude":51.2404319,"longitude":-0.1677245,"name":"Station Road near High Street","properties":{"access":"yes","bicycle_pa":"stands","capacity":10,"covered":"no","fee":"no","operator":"","nameSource":"junction"},"sourceId":"osm"},{"id":"osm:node:5272800551","latitude":51.2408928,"longitude":-0.1749427,"name":"Oxford Road cycle parking","properties":{"access":"unknown","bicycle_pa":"stands","capacity":12,"covered":"no","fee":"","operator":"","nameSource":"street"},"sourceId":"osm"},{"id":"osm:node:5325709935","latitude":51.2402355,"longitude":-0.1662637,"name":"Brompton Dock","properties":{"access":"yes","bicycle_pa":"lockers","capacity":0,"covered":"","fee":"no","operator":"","nameSource":"source"},"sourceId":"osm"},{"id":"osm:node:5325709936","latitude":51.2403244,"longitude":-0.165917,"name":"Redstone Hill near The Stations Roundabout","properties":{"access":"unknown","bicycle_pa":"lockers","capacity":10,"covered":"yes","fee":"","operator":"","nameSource":"junction"},"sourceId":"osm"},{"id":"osm:node:5325712777","latitude":51.2406499,"longitude":-0.1664875,"name":"Princess Way near The Stations Roundabout","properties":{"access":"unknown","bicycle_pa":"stands","capacity":8,"covered":"no","fee":"","operator":"","nameSource":"junction"},"sourceId":"osm"},{"id":"osm:node:984105480","latitude":51.240142,"longitude":-0.1662655,"name":"Redstone Hill near The Stations Roundabout","properties":{"access":"yes","bicycle_pa":"stands","capacity":20,"covered":"no","fee":"","operator":"","nameSource":"junction"},"sourceId":"osm"},{"id":"osm:way:1069235348","latitude":51.25010861999999,"longitude":-0.15359872000000002,"name":"The Kilns by Acorn Court","properties":{"access":"private","bicycle_pa":"stands","capacity":4,"covered":"no","fee":"no","operator":"","nameSource":"landmark"},"sourceId":"osm"},{"id":"osm:way:313087680","latitude":51.24044620000001,"longitude":-0.16578258,"name":"Princess Way near The Stations Roundabout","properties":{"access":"unknown","bicycle_pa":"stands","capacity":30,"covered":"yes","fee":"","operator":"","nameSource":"junction"},"sourceId":"osm"},{"id":"osm:way:550123520","latitude":51.2403297,"longitude":-0.16628099999999998,"name":"The Stations Roundabout near Princess Way","properties":{"access":"unknown","bicycle_pa":"stands","capacity":40,"covered":"yes","fee":"","operator":"","nameSource":"junction"},"sourceId":"osm"}],"schemaVersion":2}
