{"key":"12/2046/1372","points":[{"id":"osm:node:10093383811","latitude":50.9224294,"longitude":-0.1321658,"name":"Keymer Road near Ockley Lane","properties":{"access":"unknown","bicycle_pa":"stands","capacity":6,"covered":"no","fee":"","operator":"","nameSource":"junction"},"sourceId":"osm"},{"id":"osm:node:1322180965","latitude":50.9568852,"longitude":-0.1329639,"name":"Church Walk near Crescent Road","properties":{"access":"unknown","bicycle_pa":"stands","capacity":12,"covered":"no","fee":"","operator":"","nameSource":"junction"},"sourceId":"osm"},{"id":"osm:node:2283636998","latitude":50.9247516,"longitude":-0.145483,"name":"Hassocks Station","properties":{"access":"unknown","bicycle_pa":"stands","capacity":0,"covered":"yes","fee":"","operator":"","nameSource":"source"},"sourceId":"osm"},{"id":"osm:node:4955058498","latitude":50.9502464,"longitude":-0.1491186,"name":"Charles Avenue by Tesco","properties":{"access":"unknown","bicycle_pa":"stands","capacity":10,"covered":"yes","fee":"","operator":"Tesco","nameSource":"landmark"},"sourceId":"osm"},{"id":"osm:node:5046028652","latitude":50.9538602,"longitude":-0.1275675,"name":"Keymer Road near Station Road","properties":{"access":"unknown","bicycle_pa":"rack","capacity":0,"covered":"yes","fee":"","operator":"","nameSource":"junction"},"sourceId":"osm"},{"id":"osm:way:765797903","latitude":50.9578291,"longitude":-0.1506950333333333,"name":"Southway near Poplars Close","properties":{"access":"private","bicycle_pa":"stands","capacity":20,"covered":"no","fee":"no","operator":"Southway Junior School","nameSource":"junction"},"sourceId":"osm"}],"schemaVersion":2}
