{"key":"12/2046/1374","points":[{"id":"osm:node:10019676046","latitude":50.8294609,"longitude":-0.1355197,"name":"York Place near Cheapside","properties":{"access":"unknown","bicycle_pa":"stands","capacity":6,"covered":"no","fee":"","operator":"","nameSource":"junction"},"sourceId":"osm"},{"id":"osm:node:10019702247","latitude":50.8281178,"longitude":-0.1367629,"name":"Pelham Street near Trafalgar Street","properties":{"access":"unknown","bicycle_pa":"stands","capacity":10,"covered":"no","fee":"","operator":"","nameSource":"junction"},"sourceId":"osm"},{"id":"osm:node:10019737386","latitude":50.827741,"longitude":-0.1491411,"name":"Powis Square near Powis Road","properties":{"access":"unknown","bicycle_pa":"stands","capacity":8,"covered":"no","fee":"","operator":"","nameSource":"junction"},"sourceId":"osm"},{"id":"osm:node:10032147605","latitude":50.8281562,"longitude":-0.1731355,"name":"Ventnor Villas near Church Road","properties":{"access":"unknown","bicycle_pa":"stands","capacity":10,"covered":"no","fee":"no","operator":"","nameSource":"junction"},"sourceId":"osm"},{"id":"osm:node:10032147606","latitude":50.8281647,"longitude":-0.1733394,"name":"Ventnor Villas near Church Road","properties":{"access":"unknown","bicycle_pa":"stands","capacity":10,"covered":"no","fee":"no","operator":"","nameSource":"junction"},"sourceId":"osm"},{"id":"osm:node:10032147607","latitude":50.8207648,"longitude":-0.1448965,"name":"King's Road by PRYZM","properties":{"access":"unknown","bicycle_pa":"stands","capacity":4,"covered":"no","fee":"no","operator":"","nameSource":"landmark"},"sourceId":"osm"},{"id":"osm:node:10032147608","latitude":50.8213388,"longitude":-0.1452119,"name":"Russell Road near Russell Place","properties":{"access":"unknown","bicycle_pa":"stands","capacity":12,"covered":"no","fee":"no","operator":"","nameSource":"junction"},"sourceId":"osm"},{"id":"osm:node:10032147609","latitude":50.8191129,"longitude":-0.1329921,"name":"Lower Esplanade near Madeira Drive","properties":{"access":"unknown","bicycle_pa":"stands","capacity":64,"covered":"no","fee":"no","operator":"","nameSource":"junction"},"sourceId":"osm"},{"id":"osm:node:10076478768","latitude":50.8353926,"longitude":-0.1354284,"name":"Clyde Road near Warleigh Road","properties":{"access":"permit","bicycle_pa":"shed","capacity":6,"covered":"yes","fee":"yes","operator":"Falco","nameSource":"junction"},"sourceId":"osm"},{"id":"osm:node:10076494285","latitude":50.8341806,"longitude":-0.1346915,"name":"Warleigh Road near Ditchling Road","properties":{"access":"permit","bicycle_pa":"shed","capacity":6,"covered":"yes","fee":"yes","operator":"Falco","nameSource":"junction"},"sourceId":"osm"},{"id":"osm:node:10079234109","latitude":50.8361133,"longitude":-0.1416093,"name":"Springfield Road near Preston Road","properties":{"access":"permit","bicycle_pa":"shed","capacity":6,"covered":"yes","fee":"yes","operator":"Falco","nameSource":"junction"},"sourceId":"osm"},{"id":"osm:node:10081727380","latitude":50.8437176,"longitude":-0.1374275,"name":"Preston Drove near Southdown Road","properties":{"access":"permit","bicycle_pa":"shed","capacity":6,"covered":"yes","fee":"yes","operator":"Falco","nameSource":"junction"},"sourceId":"osm"},{"id":"osm:node:10592859292","latitude":50.8276887,"longitude":-0.1684764,"name":"The Drive near Church Road","properties":{"access":"unknown","bicycle_pa":"stands","capacity":10,"covered":"no","fee":"no","operator":"","nameSource":"junction"},"sourceId":"osm"},{"id":"osm:node:10592859293","latitude":50.8277489,"longitude":-0.1684571,"name":"The Drive near Church Road","properties":{"access":"unknown","bicycle_pa":"stands","capacity":10,"covered":"no","fee":"no","operator":"","nameSource":"junction"},"sourceId":"osm"},{"id":"osm:node:10592859294","latitude":50.8276735,"longitude":-0.1686713,"name":"The Drive near Church Road","properties":{"access":"unknown","bicycle_pa":"stands","capacity":4,"covered":"no","fee":"no","operator":"","nameSource":"junction"},"sourceId":"osm"},{"id":"osm:node:10592859295","latitude":50.8274332,"longitude":-0.1681222,"name":"Church Road near Grand Avenue","properties":{"access":"unknown","bicycle_pa":"stands","capacity":6,"covered":"no","fee":"no","operator":"","nameSource":"junction"},"sourceId":"osm"},{"id":"osm:node:10592859299","latitude":50.8282577,"longitude":-0.1741959,"name":"George Street near Church Road","properties":{"access":"unknown","bicycle_pa":"stands","capacity":6,"covered":"no","fee":"no","operator":"","nameSource":"junction"},"sourceId":"osm"},{"id":"osm:node:10592859300","latitude":50.8282532,"longitude":-0.1741042,"name":"George Street near Church Road","properties":{"access":"unknown","bicycle_pa":"stands","capacity":6,"covered":"no","fee":"no","operator":"","nameSource":"junction"},"sourceId":"osm"},{"id":"osm:node:10592859301","latitude":50.8308639,"longitude":-0.1728751,"name":"George Street near Blatchington Road","properties":{"access":"unknown","bicycle_pa":"stands","capacity":8,"covered":"no","fee":"no","operator":"","nameSource":"junction"},"sourceId":"osm"},{"id":"osm:node:10592859302","latitude":50.830977,"longitude":-0.172755,"name":"Blatchington Road near George Street","properties":{"access":"unknown","bicycle_pa":"stands","capacity":4,"covered":"no","fee":"no","operator":"","nameSource":"junction"},"sourceId":"osm"},{"id":"osm:node:10592859303","latitude":50.8310913,"longitude":-0.17338,"name":"Blatchington Road near Haddington Street","properties":{"access":"unknown","bicycle_pa":"stands","capacity":2,"covered":"no","fee":"no","operator":"","nameSource":"junction"},"sourceId":"osm"},{"id":"osm:node:10592859304","latitude":50.8311539,"longitude":-0.1736687,"name":"Blatchington Road near Haddington Street","properties":{"access":"unknown","bicycle_pa":"stands","capacity":8,"covered":"no","fee":"no","operator":"","nameSource":"junction"},"sourceId":"osm"},{"id":"osm:node:10593004705","latitude":50.8311512,"longitude":-0.1733416,"name":"Blatchington Road near Haddington Street","properties":{"access":"unknown","bicycle_pa":"stands","capacity":2,"covered":"no","fee":"no","operator":"","nameSource":"junction"},"sourceId":"osm"},{"id":"osm:node:10593004706","latitude":50.8313324,"longitude":-0.1747409,"name":"Belfast Street near Blatchington Road","properties":{"access":"unknown","bicycle_pa":"stands","capacity":4,"covered":"no","fee":"no","operator":"","nameSource":"junction"},"sourceId":"osm"},{"id":"osm:node:10593004707","latitude":50.8314766,"longitude":-0.1755419,"name":"Blatchington Road near Connaught Terrace","properties":{"access":"unknown","bicycle_pa":"stands","capacity":2,"covered":"no","fee":"no","operator":"","nameSource":"junction"},"sourceId":"osm"},{"id":"osm:node:10593004708","latitude":50.8315786,"longitude":-0.175667,"name":"Blatchington Road near Connaught Terrace","properties":{"access":"unknown","bicycle_pa":"stands","capacity":2,"covered":"no","fee":"no","operator":"","nameSource":"junction"},"sourceId":"osm"},{"id":"osm:node:10593004709","latitude":50.8313965,"longitude":-0.1748077,"name":"Belfast Street near Blatchington Road","properties":{"access":"unknown","bicycle_pa":"stands","capacity":2,"covered":"no","fee":"no","operator":"","nameSource":"junction"},"sourceId":"osm"},{"id":"osm:node:10593004710","latitude":50.8312207,"longitude":-0.1737163,"name":"Blatchington Road near Haddington Street","properties":{"access":"unknown","bicycle_pa":"stands","capacity":2,"covered":"no","fee":"no","operator":"","nameSource":"junction"},"sourceId":"osm"},{"id":"osm:node:10593004711","latitude":50.8311182,"longitude":-0.1725583,"name":"Goldstone Villas near Blatchington Road","properties":{"access":"unknown","bicycle_pa":"stands","capacity":6,"covered":"no","fee":"no","operator":"","nameSource":"junction"},"sourceId":"osm"},{"id":"osm:node:10593004712","latitude":50.8315502,"longitude":-0.1723913,"name":"Clarendon Villas near Eaton Villas","properties":{"access":"unknown","bicycle_pa":"stands","capacity":2,"covered":"no","fee":"no","operator":"","nameSource":"junction"},"sourceId":"osm"},{"id":"osm:node:10593004713","latitude":50.8316621,"longitude":-0.172329,"name":"Clarendon Villas near Eaton Villas","properties":{"access":"unknown","bicycle_pa":"stands","capacity":4,"covered":"no","fee":"no","operator":"","nameSource":"junction"},"sourceId":"osm"},{"id":"osm:node:10593004714","latitude":50.833604,"longitude":-0.1715278,"name":"Clarendon Road near Goldstone Villas","properties":{"access":"unknown","bicycle_pa":"stands","capacity":4,"covered":"no","fee":"no","operator":"","nameSource":"junction"},"sourceId":"osm"},{"id":"osm:node:10593004715","latitude":50.8337942,"longitude":-0.1714516,"name":"Clarendon Road near Goldstone Villas","properties":{"access":"unknown","bicycle_pa":"stands","capacity":6,"covered":"no","fee":"no","operator":"","nameSource":"junction"},"sourceId":"osm"},{"id":"osm:node:10593004716","latitude":50.8339026,"longitude":-0.1713018,"name":"Goldstone Villas near Clarendon Road","properties":{"access":"unknown","bicycle_pa":"stands","capacity":8,"covered":"no","fee":"no","operator":"","nameSource":"junction"},"sourceId":"osm"},{"id":"osm:node:10593004717","latitude":50.8348201,"longitude":-0.170671,"name":"Station Approach near Goldstone Villas","properties":{"access":"unknown","bicycle_pa":"stands","capacity":6,"covered":"no","fee":"no","operator":"","nameSource":"junction"},"sourceId":"osm"},{"id":"osm:node:10593004718","latitude":50.8349167,"longitude":-0.1706643,"name":"Station Approach near Goldstone Villas","properties":{"access":"unknown","bicycle_pa":"stands","capacity":4,"covered":"no","fee":"no","operator":"","nameSource":"junction"},"sourceId":"osm"},{"id":"osm:node:10593004719","latitude":50.8349269,"longitude":-0.170724,"name":"Robbies Approach near Goldstone Villas","properties":{"access":"unknown","bicycle_pa":"stands","capacity":8,"covered":"no","fee":"no","operator":"","nameSource":"junction"},"sourceId":"osm"},{"id":"osm:node:10593004720","latitude":50.8348431,"longitude":-0.1710592,"name":"Goldstone Villas near Robbies Approach","properties":{"access":"unknown","bicycle_pa":"stands","capacity":4,"covered":"no","fee":"no","operator":"","nameSource":"junction"},"sourceId":"osm"},{"id":"osm:node:10593004721","latitude":50.8345233,"longitude":-0.1735608,"name":"Ellen Street near Goldstone Street","properties":{"access":"unknown","bicycle_pa":"stands","capacity":6,"covered":"no","fee":"no","operator":"","nameSource":"junction"},"sourceId":"osm"},{"id":"osm:node:10738127420","latitude":50.8423758,"longitude":-0.0965047,"name":"Taunton Road near Leybourne Parade","properties":{"access":"unknown","bicycle_pa":"stands","capacity":2,"covered":"no","fee":"","operator":"","nameSource":"junction"},"sourceId":"osm"},{"id":"osm:node:10755661594","latitude":50.821632,"longitude":-0.1514371,"name":"King's Road near Regency Square","properties":{"access":"unknown","bicycle_pa":"stands","capacity":0,"covered":"no","fee":"","operator":"","nameSource":"junction"},"sourceId":"osm"},{"id":"osm:node:10793452797","latitude":50.8471937,"longitude":-0.1148797,"name":"Lewes Road near The Highway","properties":{"access":"unknown","bicycle_pa":"stands","capacity":0,"covered":"","fee":"","operator":"","nameSource":"junction"},"sourceId":"osm"},{"id":"osm:node:10793452798","latitude":50.8471898,"longitude":-0.1148884,"name":"Lewes Road near The Highway","properties":{"access":"unknown","bicycle_pa":"stands","capacity":0,"covered":"","fee":"","operator":"","nameSource":"junction"},"sourceId":"osm"},{"id":"osm:node:10793452799","latitude":50.8471856,"longitude":-0.1148981,"name":"Lewes Road near The Highway","properties":{"access":"unknown","bicycle_pa":"stands","capacity":0,"covered":"","fee":"","operator":"","nameSource":"junction"},"sourceId":"osm"},{"id":"osm:node:11012964678","latitude":50.8331865,"longitude":-0.1309364,"name":"Park Crescent near Park Crescent Terrace","properties":{"access":"unknown","bicycle_pa":"shed","capacity":0,"covered":"","fee":"","operator":"Brighton & Hove City Council","nameSource":"junction"},"sourceId":"osm"},{"id":"osm:node:11111093195","latitude":50.8272674,"longitude":-0.1415891,"name":"Frederick Place near Gloucester Road","properties":{"access":"unknown","bicycle_pa":"stands","capacity":12,"covered":"no","fee":"","operator":"","nameSource":"junction"},"sourceId":"osm"},{"id":"osm:node:11226587461","latitude":50.8171739,"longitude":-0.1232511,"name":"Lower Esplanade by Sea Lanes","properties":{"access":"unknown","bicycle_pa":"","capacity":0,"covered":"","fee":"","operator":"","nameSource":"landmark"},"sourceId":"osm"},{"id":"osm:node:11239653066","latitude":50.8248277,"longitude":-0.1379258,"name":"North Place by PizzaExpress","properties":{"access":"unknown","bicycle_pa":"stands","capacity":14,"covered":"no","fee":"","operator":"","nameSource":"landmark"},"sourceId":"osm"},{"id":"osm:node:11239653080","latitude":50.8302994,"longitude":-0.1396936,"name":"Trafalgar Arches near Station Street","properties":{"access":"unknown","bicycle_pa":"stands","capacity":14,"covered":"no","fee":"","operator":"","nameSource":"junction"},"sourceId":"osm"},{"id":"osm:node:11239993763","latitude":50.8272304,"longitude":-0.1400602,"name":"Gloucester Road near Kemp Street","properties":{"access":"unknown","bicycle_pa":"stands","capacity":10,"covered":"no","fee":"","operator":"","nameSource":"junction"},"sourceId":"osm"},{"id":"osm:node:11240097309","latitude":50.8310145,"longitude":-0.1381473,"name":"New England Street near Sinclair Walk","properties":{"access":"destination","bicycle_pa":"stands","capacity":16,"covered":"yes","fee":"","operator":"","nameSource":"junction"},"sourceId":"osm"},{"id":"osm:node:11240109040","latitude":50.8218033,"longitude":-0.1459905,"name":"Russell Road near Russell Place","properties":{"access":"unknown","bicycle_pa":"stands","capacity":10,"covered":"yes","fee":"","operator":"","nameSource":"junction"},"sourceId":"osm"},{"id":"osm:node:11240109042","latitude":50.8235911,"longitude":-0.1465834,"name":"Churchill Square Piazza by Prince of Wales","properties":{"access":"unknown","bicycle_pa":"stands","capacity":10,"covered":"no","fee":"","operator":"","nameSource":"landmark"},"sourceId":"osm"},{"id":"osm:node:12055543100","latitude":50.8321824,"longitude":-0.1372989,"name":"London Road near York Hill","properties":{"access":"unknown","bicycle_pa":"stands","capacity":0,"covered":"no","fee":"","operator":"","nameSource":"junction"},"sourceId":"osm"},{"id":"osm:node:12055543101","latitude":50.8321701,"longitude":-0.1372848,"name":"London Road near York Hill","properties":{"access":"unknown","bicycle_pa":"stands","capacity":2,"covered":"no","fee":"","operator":"","nameSource":"junction"},"sourceId":"osm"},{"id":"osm:node:12055543102","latitude":50.8322648,"longitude":-0.1371993,"name":"London Road near York Hill","properties":{"access":"unknown","bicycle_pa":"","capacity":0,"covered":"","fee":"","operator":"","nameSource":"junction"},"sourceId":"osm"},{"id":"osm:node:12055543103","latitude":50.8322733,"longitude":-0.1372087,"name":"London Road near York Hill","properties":{"access":"unknown","bicycle_pa":"","capacity":0,"covered":"","fee":"","operator":"","nameSource":"junction"},"sourceId":"osm"},{"id":"osm:node:12055543104","latitude":50.8322818,"longitude":-0.1372182,"name":"London Road near York Hill","properties":{"access":"unknown","bicycle_pa":"","capacity":0,"covered":"","fee":"","operator":"","nameSource":"junction"},"sourceId":"osm"},{"id":"osm:node:12055543105","latitude":50.8322902,"longitude":-0.1372276,"name":"London Road near York Hill","properties":{"access":"unknown","bicycle_pa":"","capacity":0,"covered":"","fee":"","operator":"","nameSource":"junction"},"sourceId":"osm"},{"id":"osm:node:12055543106","latitude":50.8322987,"longitude":-0.137237,"name":"London Road near York Hill","properties":{"access":"unknown","bicycle_pa":"","capacity":0,"covered":"","fee":"","operator":"","nameSource":"junction"},"sourceId":"osm"},{"id":"osm:node:12055543107","latitude":50.8323072,"longitude":-0.1372465,"name":"London Road near York Hill","properties":{"access":"unknown","bicycle_pa":"","capacity":0,"covered":"","fee":"","operator":"","nameSource":"junction"},"sourceId":"osm"},{"id":"osm:node:12055543108","latitude":50.8323157,"longitude":-0.1372559,"name":"London Road near York Hill","properties":{"access":"unknown","bicycle_pa":"","capacity":0,"covered":"","fee":"","operator":"","nameSource":"junction"},"sourceId":"osm"},{"id":"osm:node:12055543109","latitude":50.8323241,"longitude":-0.1372654,"name":"London Road near York Hill","properties":{"access":"unknown","bicycle_pa":"","capacity":0,"covered":"","fee":"","operator":"","nameSource":"junction"},"sourceId":"osm"},{"id":"osm:node:12055543110","latitude":50.8323326,"longitude":-0.1372748,"name":"London Road near York Hill","properties":{"access":"unknown","bicycle_pa":"","capacity":0,"covered":"","fee":"","operator":"","nameSource":"junction"},"sourceId":"osm"},{"id":"osm:node:12055543111","latitude":50.8323411,"longitude":-0.1372843,"name":"London Road near York Hill","properties":{"access":"unknown","bicycle_pa":"","capacity":0,"covered":"","fee":"","operator":"","nameSource":"junction"},"sourceId":"osm"},{"id":"osm:node:12055543112","latitude":50.8326371,"longitude":-0.1376101,"name":"London Road near York Hill","properties":{"access":"unknown","bicycle_pa":"stands","capacity":0,"covered":"no","fee":"","operator":"","nameSource":"junction"},"sourceId":"osm"},{"id":"osm:node:12055543113","latitude":50.8326292,"longitude":-0.1376005,"name":"London Road near York Hill","properties":{"access":"unknown","bicycle_pa":"","capacity":0,"covered":"no","fee":"","operator":"","nameSource":"junction"},"sourceId":"osm"},{"id":"osm:node:12055543114","latitude":50.8326213,"longitude":-0.1375909,"name":"London Road near York Hill","properties":{"access":"unknown","bicycle_pa":"","capacity":0,"covered":"no","fee":"","operator":"","nameSource":"junction"},"sourceId":"osm"},{"id":"osm:node:12055543115","latitude":50.8326134,"longitude":-0.1375813,"name":"London Road near York Hill","properties":{"access":"unknown","bicycle_pa":"","capacity":0,"covered":"no","fee":"","operator":"","nameSource":"junction"},"sourceId":"osm"},{"id":"osm:node:12055543116","latitude":50.8326054,"longitude":-0.1375717,"name":"London Road near York Hill","properties":{"access":"unknown","bicycle_pa":"","capacity":0,"covered":"no","fee":"","operator":"","nameSource":"junction"},"sourceId":"osm"},{"id":"osm:node:12057371149","latitude":50.8366223,"longitude":-0.1366062,"name":"Shaftesbury Place near Ditchling Rise","properties":{"access":"unknown","bicycle_pa":"stands","capacity":4,"covered":"no","fee":"","operator":"","nameSource":"junction"},"sourceId":"osm"},{"id":"osm:node:12298128655","latitude":50.817471,"longitude":-0.1068398,"name":"Bristol Gardens near Arundel Road","properties":{"access":"unknown","bicycle_pa":"stands","capacity":8,"covered":"","fee":"","operator":"","nameSource":"junction"},"sourceId":"osm"},{"id":"osm:node:12544387162","latitude":50.8384909,"longitude":-0.1269925,"name":"Freehold Terrace by Build Brighton","properties":{"access":"unknown","bicycle_pa":"stands","capacity":2,"covered":"","fee":"","operator":"","nameSource":"landmark"},"sourceId":"osm"},{"id":"osm:node:12544387163","latitude":50.8385053,"longitude":-0.1269882,"name":"Freehold Terrace by Build Brighton","properties":{"access":"unknown","bicycle_pa":"stands","capacity":2,"covered":"","fee":"","operator":"","nameSource":"landmark"},"sourceId":"osm"},{"id":"osm:node:12570818089","latitude":50.8402533,"longitude":-0.1233229,"name":"Saunders Park Rise near Saunders Park Terrace","properties":{"access":"yes","bicycle_pa":"stands","capacity":2,"covered":"no","fee":"no","operator":"","nameSource":"junction"},"sourceId":"osm"},{"id":"osm:node:12570818090","latitude":50.8402597,"longitude":-0.123317,"name":"Saunders Park Rise near Saunders Park Terrace","properties":{"access":"yes","bicycle_pa":"stands","capacity":2,"covered":"no","fee":"no","operator":"","nameSource":"junction"},"sourceId":"osm"},{"id":"osm:node:12570818091","latitude":50.8402662,"longitude":-0.1233112,"name":"Saunders Park Rise near Saunders Park Terrace","properties":{"access":"yes","bicycle_pa":"stands","capacity":2,"covered":"","fee":"no","operator":"","nameSource":"junction"},"sourceId":"osm"},{"id":"osm:node:12570818092","latitude":50.8402727,"longitude":-0.1233054,"name":"Saunders Park Rise near Saunders Park Terrace","properties":{"access":"yes","bicycle_pa":"stands","capacity":2,"covered":"","fee":"no","operator":"","nameSource":"junction"},"sourceId":"osm"},{"id":"osm:node:12570818093","latitude":50.8402791,"longitude":-0.1232995,"name":"Saunders Park Rise near Saunders Park Terrace","properties":{"access":"yes","bicycle_pa":"stands","capacity":2,"covered":"","fee":"no","operator":"","nameSource":"junction"},"sourceId":"osm"},{"id":"osm:node:12570818094","latitude":50.8402856,"longitude":-0.1232937,"name":"Saunders Park Rise near Saunders Park Terrace","properties":{"access":"yes","bicycle_pa":"stands","capacity":2,"covered":"","fee":"no","operator":"","nameSource":"junction"},"sourceId":"osm"},{"id":"osm:node:12570818095","latitude":50.8402921,"longitude":-0.1232879,"name":"Saunders Park Rise near Saunders Park Terrace","properties":{"access":"yes","bicycle_pa":"stands","capacity":2,"covered":"","fee":"no","operator":"","nameSource":"junction"},"sourceId":"osm"},{"id":"osm:node:12570818096","latitude":50.8402985,"longitude":-0.123282,"name":"Saunders Park Rise near Saunders Park Terrace","properties":{"access":"yes","bicycle_pa":"stands","capacity":2,"covered":"","fee":"no","operator":"","nameSource":"junction"},"sourceId":"osm"},{"id":"osm:node:12570818097","latitude":50.840305,"longitude":-0.1232762,"name":"Saunders Park Rise near Saunders Park Terrace","properties":{"access":"yes","bicycle_pa":"stands","capacity":2,"covered":"","fee":"no","operator":"","nameSource":"junction"},"sourceId":"osm"},{"id":"osm:node:12570818098","latitude":50.8403114,"longitude":-0.1232704,"name":"Saunders Park Rise near Saunders Park Terrace","properties":{"access":"yes","bicycle_pa":"stands","capacity":2,"covered":"","fee":"no","operator":"","nameSource":"junction"},"sourceId":"osm"},{"id":"osm:node:12638948153","latitude":50.8241715,"longitude":-0.1356374,"name":"Grand Parade near Kingswood Street","properties":{"access":"yes","bicycle_pa":"stands","capacity":4,"covered":"no","fee":"no","operator":"","nameSource":"junction"},"sourceId":"osm"},{"id":"osm:node:12643069692","latitude":50.8271876,"longitude":-0.1684105,"name":"Grand Avenue near Church Road","properties":{"access":"unknown","bicycle_pa":"stands","capacity":2,"covered":"","fee":"","operator":"","nameSource":"junction"},"sourceId":"osm"},{"id":"osm:node:12643069693","latitude":50.8272264,"longitude":-0.1684003,"name":"Grand Avenue near Church Road","properties":{"access":"unknown","bicycle_pa":"stands","capacity":2,"covered":"","fee":"","operator":"","nameSource":"junction"},"sourceId":"osm"},{"id":"osm:node:12643069694","latitude":50.8272731,"longitude":-0.1683885,"name":"Grand Avenue near Church Road","properties":{"access":"unknown","bicycle_pa":"stands","capacity":2,"covered":"","fee":"","operator":"","nameSource":"junction"},"sourceId":"osm"},{"id":"osm:node:12643069695","latitude":50.8272972,"longitude":-0.1683828,"name":"Grand Avenue near Church Road","properties":{"access":"unknown","bicycle_pa":"stands","capacity":2,"covered":"","fee":"","operator":"","nameSource":"junction"},"sourceId":"osm"},{"id":"osm:node:12643069696","latitude":50.8272439,"longitude":-0.1685364,"name":"Grand Avenue near Church Road","properties":{"access":"unknown","bicycle_pa":"stands","capacity":6,"covered":"","fee":"","operator":"","nameSource":"junction"},"sourceId":"osm"},{"id":"osm:node:12815499685","latitude":50.8433586,"longitude":-0.1250573,"name":"Thompson Road near The Crestway","properties":{"access":"unknown","bicycle_pa":"stands","capacity":4,"covered":"","fee":"","operator":"","nameSource":"junction"},"sourceId":"osm"},{"id":"osm:node:12815516101","latitude":50.8432312,"longitude":-0.1251802,"name":"Liphook Close by CASE Central","properties":{"access":"unknown","bicycle_pa":"","capacity":0,"covered":"","fee":"","operator":"","nameSource":"landmark"},"sourceId":"osm"},{"id":"osm:node:12815516860","latitude":50.8439003,"longitude":-0.1311392,"name":"Hollingbury Crescent near Hollingbury Place","properties":{"access":"unknown","bicycle_pa":"stands","capacity":2,"covered":"","fee":"","operator":"","nameSource":"junction"},"sourceId":"osm"},{"id":"osm:node:12815516861","latitude":50.8438521,"longitude":-0.1306186,"name":"Hertford Road near Hollingbury Place","properties":{"access":"unknown","bicycle_pa":"stands","capacity":0,"covered":"","fee":"","operator":"","nameSource":"junction"},"sourceId":"osm"},{"id":"osm:node:12825290501","latitude":50.8223784,"longitude":-0.132371,"name":"Dorset Place near Edward Street","properties":{"access":"unknown","bicycle_pa":"stands","capacity":8,"covered":"no","fee":"","operator":"","nameSource":"junction"},"sourceId":"osm"},{"id":"osm:node:12865437183","latitude":50.8221481,"longitude":-0.1431345,"name":"Boyces Street near Middle Street","properties":{"access":"unknown","bicycle_pa":"stands","capacity":8,"covered":"no","fee":"","operator":"","nameSource":"junction"},"sourceId":"osm"},{"id":"osm:node:12881238563","latitude":50.8454243,"longitude":-0.1149159,"name":"Southall Avenue near The Avenue","properties":{"access":"yes","bicycle_pa":"stands","capacity":4,"covered":"","fee":"no","operator":"","nameSource":"junction"},"sourceId":"osm"},{"id":"osm:node:12915368126","latitude":50.8408689,"longitude":-0.1224992,"name":"Lewes Road near Coombe Road","properties":{"access":"yes","bicycle_pa":"stands","capacity":6,"covered":"yes","fee":"no","operator":"","nameSource":"junction"},"sourceId":"osm"},{"id":"osm:node:13173585446","latitude":50.812237,"longitude":-0.1047155,"name":"Marina Way by Brighton Marina","properties":{"access":"unknown","bicycle_pa":"anchors","capacity":20,"covered":"","fee":"","operator":"","nameSource":"landmark"},"sourceId":"osm"},{"id":"osm:node:13195421149","latitude":50.8378604,"longitude":-0.1160818,"name":"Kimberley Road near Ladysmith Road","properties":{"access":"permit","bicycle_pa":"shed","capacity":0,"covered":"yes","fee":"no","operator":"","nameSource":"junction"},"sourceId":"osm"},{"id":"osm:node:13318969887","latitude":50.8371918,"longitude":-0.1538288,"name":"Dyke Road cycle parking","properties":{"access":"yes","bicycle_pa":"stands","capacity":4,"covered":"no","fee":"no","operator":"","nameSource":"street"},"sourceId":"osm"},{"id":"osm:node:13329573821","latitude":50.8311184,"longitude":-0.1359551,"name":"London Road near Francis Street","properties":{"access":"yes","bicycle_pa":"stands","capacity":0,"covered":"","fee":"no","operator":"","nameSource":"junction"},"sourceId":"osm"},{"id":"osm:node:13329573822","latitude":50.8311234,"longitude":-0.1359221,"name":"London Road near Francis Street","properties":{"access":"yes","bicycle_pa":"stands","capacity":0,"covered":"","fee":"no","operator":"","nameSource":"junction"},"sourceId":"osm"},{"id":"osm:node:13329573823","latitude":50.8311285,"longitude":-0.135889,"name":"Francis Street near London Road","properties":{"access":"yes","bicycle_pa":"stands","capacity":0,"covered":"","fee":"no","operator":"","nameSource":"junction"},"sourceId":"osm"},{"id":"osm:node:13329573824","latitude":50.8311335,"longitude":-0.1358559,"name":"Francis Street near London Road","properties":{"access":"yes","bicycle_pa":"stands","capacity":0,"covered":"","fee":"no","operator":"","nameSource":"junction"},"sourceId":"osm"},{"id":"osm:node:13329684622","latitude":50.8294726,"longitude":-0.1354807,"name":"York Place near Cheapside","properties":{"access":"unknown","bicycle_pa":"stands","capacity":2,"covered":"","fee":"","operator":"","nameSource":"junction"},"sourceId":"osm"},{"id":"osm:node:13329684623","latitude":50.8294726,"longitude":-0.1355012,"name":"York Place near Cheapside","properties":{"access":"unknown","bicycle_pa":"stands","capacity":2,"covered":"","fee":"","operator":"","nameSource":"junction"},"sourceId":"osm"},{"id":"osm:node:13329684624","latitude":50.8294726,"longitude":-0.1355216,"name":"York Place near Cheapside","properties":{"access":"unknown","bicycle_pa":"stands","capacity":2,"covered":"","fee":"","operator":"","nameSource":"junction"},"sourceId":"osm"},{"id":"osm:node:13330933223","latitude":50.8308323,"longitude":-0.1344917,"name":"Ditchling Road near Oxford Street","properties":{"access":"unknown","bicycle_pa":"stands","capacity":0,"covered":"","fee":"","operator":"","nameSource":"junction"},"sourceId":"osm"},{"id":"osm:node:13330933224","latitude":50.8308334,"longitude":-0.1344895,"name":"Ditchling Road near Oxford Street","properties":{"access":"unknown","bicycle_pa":"stands","capacity":0,"covered":"","fee":"","operator":"","nameSource":"junction"},"sourceId":"osm"},{"id":"osm:node:13330933225","latitude":50.8308346,"longitude":-0.1344875,"name":"Ditchling Road near Oxford Street","properties":{"access":"unknown","bicycle_pa":"stands","capacity":0,"covered":"","fee":"","operator":"","nameSource":"junction"},"sourceId":"osm"},{"id":"osm:node:13330933226","latitude":50.8308359,"longitude":-0.1344851,"name":"Ditchling Road near Oxford Street","properties":{"access":"unknown","bicycle_pa":"stands","capacity":0,"covered":"","fee":"","operator":"","nameSource":"junction"},"sourceId":"osm"},{"id":"osm:node:13332482806","latitude":50.8279986,"longitude":-0.1354881,"name":"York Place near St. George's Place","properties":{"access":"unknown","bicycle_pa":"","capacity":2,"covered":"","fee":"","operator":"","nameSource":"junction"},"sourceId":"osm"},{"id":"osm:node:13332482807","latitude":50.8279904,"longitude":-0.1354869,"name":"York Place near St. George's Place","properties":{"access":"unknown","bicycle_pa":"","capacity":2,"covered":"","fee":"","operator":"","nameSource":"junction"},"sourceId":"osm"},{"id":"osm:node:13332482808","latitude":50.8279822,"longitude":-0.1354857,"name":"York Place near St. George's Place","properties":{"access":"unknown","bicycle_pa":"","capacity":2,"covered":"","fee":"","operator":"","nameSource":"junction"},"sourceId":"osm"},{"id":"osm:node:13332482809","latitude":50.8279741,"longitude":-0.1354845,"name":"York Place near St. George's Place","properties":{"access":"unknown","bicycle_pa":"","capacity":2,"covered":"","fee":"","operator":"","nameSource":"junction"},"sourceId":"osm"},{"id":"osm:node:13763748819","latitude":50.8222046,"longitude":-0.1502277,"name":"Queensbury Mews near Regency Square","properties":{"access":"unknown","bicycle_pa":"anchors","capacity":0,"covered":"","fee":"","operator":"","nameSource":"junction"},"sourceId":"osm"},{"id":"osm:node:13775124931","latitude":50.8182568,"longitude":-0.1059053,"name":"Henley Road near Whitehawk Road","properties":{"access":"unknown","bicycle_pa":"stands","capacity":6,"covered":"no","fee":"","operator":"","nameSource":"junction"},"sourceId":"osm"},{"id":"osm:node:13785936238","latitude":50.8139288,"longitude":-0.1094814,"name":"Madeira Drive by Pedal People","properties":{"access":"yes","bicycle_pa":"stands","capacity":6,"covered":"","fee":"no","operator":"","nameSource":"landmark"},"sourceId":"osm"},{"id":"osm:node:13922676278","latitude":50.8224732,"longitude":-0.1328812,"name":"Edward Street near Mighell Street","properties":{"access":"unknown","bicycle_pa":"stands","capacity":4,"covered":"no","fee":"","operator":"","nameSource":"junction"},"sourceId":"osm"},{"id":"osm:node:13953717920","latitude":50.8286572,"longitude":-0.1405698,"name":"Trafalgar Street near Frederick Place","properties":{"access":"unknown","bicycle_pa":"","capacity":0,"covered":"yes","fee":"","operator":"","nameSource":"junction"},"sourceId":"osm"},{"id":"osm:node:1508776616","latitude":50.8280503,"longitude":-0.1738578,"name":"Osborne Villas near Church Road","properties":{"access":"unknown","bicycle_pa":"stands","capacity":2,"covered":"no","fee":"","operator":"","nameSource":"junction"},"sourceId":"osm"},{"id":"osm:node:1508789471","latitude":50.8278943,"longitude":-0.1733394,"name":"Medina Villas near Church Road","properties":{"access":"unknown","bicycle_pa":"stands","capacity":2,"covered":"no","fee":"","operator":"","nameSource":"junction"},"sourceId":"osm"},{"id":"osm:node:1508789473","latitude":50.8278879,"longitude":-0.1731641,"name":"Medina Villas near Church Road","properties":{"access":"unknown","bicycle_pa":"stands","capacity":2,"covered":"no","fee":"","operator":"","nameSource":"junction"},"sourceId":"osm"},{"id":"osm:node:1508792817","latitude":50.8277758,"longitude":-0.1725319,"name":"Albany Villas near Church Road","properties":{"access":"unknown","bicycle_pa":"stands","capacity":2,"covered":"no","fee":"","operator":"","nameSource":"junction"},"sourceId":"osm"},{"id":"osm:node:1509960332","latitude":50.8205351,"longitude":-0.1322236,"name":"St. James's Street near Wentworth Street","properties":{"access":"unknown","bicycle_pa":"stands","capacity":2,"covered":"no","fee":"","operator":"","nameSource":"junction"},"sourceId":"osm"},{"id":"osm:node:1510003322","latitude":50.8245414,"longitude":-0.156803,"name":"Kerrison Mews Courtyard near Waterloo Street Arch","properties":{"access":"unknown","bicycle_pa":"","capacity":6,"covered":"","fee":"","operator":"","nameSource":"junction"},"sourceId":"osm"},{"id":"osm:node:1510003380","latitude":50.8246248,"longitude":-0.1551824,"name":"Norfolk Place near Norfolk Square","properties":{"access":"unknown","bicycle_pa":"stands","capacity":10,"covered":"no","fee":"","operator":"","nameSource":"junction"},"sourceId":"osm"},{"id":"osm:node:1510003395","latitude":50.8250593,"longitude":-0.1586449,"name":"Brunswick Place near Brunswick Square","properties":{"access":"unknown","bicycle_pa":"stands","capacity":10,"covered":"no","fee":"","operator":"","nameSource":"junction"},"sourceId":"osm"},{"id":"osm:node:1520398802","latitude":50.8257722,"longitude":-0.1393833,"name":"North Road near Orange Row","properties":{"access":"unknown","bicycle_pa":"stands","capacity":4,"covered":"no","fee":"","operator":"","nameSource":"junction"},"sourceId":"osm"},{"id":"osm:node:1528989436","latitude":50.8226874,"longitude":-0.143931,"name":"West Street near Regency Road","properties":{"access":"unknown","bicycle_pa":"stands","capacity":2,"covered":"no","fee":"","operator":"","nameSource":"junction"},"sourceId":"osm"},{"id":"osm:node:1554758989","latitude":50.8241522,"longitude":-0.1392997,"name":"Church Street near Regent Street","properties":{"access":"unknown","bicycle_pa":"stands","capacity":4,"covered":"no","fee":"","operator":"","nameSource":"junction"},"sourceId":"osm"},{"id":"osm:node:1554758990","latitude":50.8242176,"longitude":-0.1395173,"name":"Church Street near Regent Street","properties":{"access":"unknown","bicycle_pa":"stands","capacity":4,"covered":"no","fee":"","operator":"","nameSource":"junction"},"sourceId":"osm"},{"id":"osm:node:1554758993","latitude":50.8242597,"longitude":-0.1397033,"name":"Church Street near Bond Street","properties":{"access":"unknown","bicycle_pa":"stands","capacity":4,"covered":"no","fee":"","operator":"","nameSource":"junction"},"sourceId":"osm"},{"id":"osm:node:1554796463","latitude":50.8228123,"longitude":-0.1396753,"name":"New Road near North Street","properties":{"access":"unknown","bicycle_pa":"stands","capacity":8,"covered":"no","fee":"","operator":"","nameSource":"junction"},"sourceId":"osm"},{"id":"osm:node:1611830433","latitude":50.831939,"longitude":-0.1401934,"name":"Stroudley Road near Billinton Way","properties":{"access":"unknown","bicycle_pa":"stands","capacity":9,"covered":"yes","fee":"","operator":"","nameSource":"junction"},"sourceId":"osm"},{"id":"osm:node:1611832564","latitude":50.8312702,"longitude":-0.1391874,"name":"Stroudley Road near Fleet Street","properties":{"access":"unknown","bicycle_pa":"stands","capacity":22,"covered":"no","fee":"","operator":"","nameSource":"junction"},"sourceId":"osm"},{"id":"osm:node:1611833544","latitude":50.832433,"longitude":-0.1394019,"name":"New England Street near Cross Street","properties":{"access":"unknown","bicycle_pa":"stands","capacity":8,"covered":"no","fee":"","operator":"","nameSource":"junction"},"sourceId":"osm"},{"id":"osm:node:1611840625","latitude":50.8313328,"longitude":-0.1394337,"name":"Stroudley Road near Stroudley Passage","properties":{"access":"unknown","bicycle_pa":"stands","capacity":12,"covered":"no","fee":"","operator":"","nameSource":"junction"},"sourceId":"osm"},{"id":"osm:node:1672259026","latitude":50.8237582,"longitude":-0.1375342,"name":"Church Street near Marlborough Place","properties":{"access":"unknown","bicycle_pa":"stands","capacity":6,"covered":"no","fee":"","operator":"","nameSource":"junction"},"sourceId":"osm"},{"id":"osm:node:1672259038","latitude":50.8237644,"longitude":-0.1372941,"name":"Marlborough Place near Church Street","properties":{"access":"unknown","bicycle_pa":"stands","capacity":18,"covered":"no","fee":"","operator":"","nameSource":"junction"},"sourceId":"osm"},{"id":"osm:node:1747674066","latitude":50.8330232,"longitude":-0.1289255,"name":"Trinity Street near Gladstone Terrace","properties":{"access":"unknown","bicycle_pa":"stands","capacity":10,"covered":"no","fee":"","operator":"","nameSource":"junction"},"sourceId":"osm"},{"id":"osm:node:1747674067","latitude":50.8346724,"longitude":-0.1268536,"name":"Caledonian Road near Lewes Road","properties":{"access":"yes","bicycle_pa":"stands","capacity":10,"covered":"no","fee":"","operator":"","nameSource":"junction"},"sourceId":"osm"},{"id":"osm:node:1747674069","latitude":50.8338277,"longitude":-0.1279043,"name":"St Martin's Street near Lewes Road","properties":{"access":"unknown","bicycle_pa":"stands","capacity":10,"covered":"no","fee":"","operator":"","nameSource":"junction"},"sourceId":"osm"},{"id":"osm:node:1831963615","latitude":50.8271585,"longitude":-0.1351951,"name":"St. George's Place near Gloucester Place","properties":{"access":"unknown","bicycle_pa":"","capacity":8,"covered":"no","fee":"","operator":"","nameSource":"junction"},"sourceId":"osm"},{"id":"osm:node:2016230505","latitude":50.8250308,"longitude":-0.1427111,"name":"Church Street near Queen's Road","properties":{"access":"unknown","bicycle_pa":"stands","capacity":4,"covered":"no","fee":"","operator":"","nameSource":"junction"},"sourceId":"osm"},{"id":"osm:node:2285550521","latitude":50.8286018,"longitude":-0.1393033,"name":"Station Street near Trafalgar Street","properties":{"access":"unknown","bicycle_pa":"stands","capacity":4,"covered":"no","fee":"","operator":"","nameSource":"junction"},"sourceId":"osm"},{"id":"osm:node:2463634030","latitude":50.8123636,"longitude":-0.1040811,"name":"Marina Way by Kash's Kiosk","properties":{"access":"unknown","bicycle_pa":"stands","capacity":10,"covered":"no","fee":"","operator":"","nameSource":"landmark"},"sourceId":"osm"},{"id":"osm:node:2483367212","latitude":50.8270205,"longitude":-0.1645326,"name":"Church Road near Salisbury Road","properties":{"access":"unknown","bicycle_pa":"","capacity":10,"covered":"","fee":"","operator":"","nameSource":"junction"},"sourceId":"osm"},{"id":"osm:node:2483367214","latitude":50.8269668,"longitude":-0.1633704,"name":"Palmeira Avenue near Church Road","properties":{"access":"unknown","bicycle_pa":"","capacity":41,"covered":"no","fee":"","operator":"","nameSource":"junction"},"sourceId":"osm"},{"id":"osm:node:2678526454","latitude":50.8251188,"longitude":-0.1535484,"name":"Temple Street near Bedford Place","properties":{"access":"unknown","bicycle_pa":"stands","capacity":6,"covered":"no","fee":"","operator":"","nameSource":"junction"},"sourceId":"osm"},{"id":"osm:node:3606237392","latitude":50.8276451,"longitude":-0.1711969,"name":"Fourth Avenue near Church Road","properties":{"access":"unknown","bicycle_pa":"stands","capacity":4,"covered":"no","fee":"","operator":"","nameSource":"junction"},"sourceId":"osm"},{"id":"osm:node:3781344261","latitude":50.8372677,"longitude":-0.1253772,"name":"Lewes Road near Gladstone Place","properties":{"access":"unknown","bicycle_pa":"stands","capacity":12,"covered":"no","fee":"","operator":"","nameSource":"junction"},"sourceId":"osm"},{"id":"osm:node:4063605931","latitude":50.8425415,"longitude":-0.0986285,"name":"Heath Hill Avenue near Norwich Drive","properties":{"access":"private","bicycle_pa":"stands","capacity":0,"covered":"yes","fee":"","operator":"","nameSource":"junction"},"sourceId":"osm"},{"id":"osm:node:418956791","latitude":50.8406931,"longitude":-0.1217248,"name":"Lewes Road near Coombe Road","properties":{"access":"unknown","bicycle_pa":"","capacity":8,"covered":"","fee":"","operator":"","nameSource":"junction"},"sourceId":"osm"},{"id":"osm:node:4203581647","latitude":50.8440254,"longitude":-0.1435935,"name":"Beaconsfield Villas near Balfour Road","properties":{"access":"unknown","bicycle_pa":"stands","capacity":6,"covered":"no","fee":"","operator":"","nameSource":"junction"},"sourceId":"osm"},{"id":"osm:node:4203581648","latitude":50.845997,"longitude":-0.1550954,"name":"Clermont Road near Station Road","properties":{"access":"unknown","bicycle_pa":"stands","capacity":20,"covered":"yes","fee":"","operator":"","nameSource":"junction"},"sourceId":"osm"},{"id":"osm:node:4203581649","latitude":50.8458852,"longitude":-0.1546931,"name":"Clermont Road near Station Road","properties":{"access":"unknown","bicycle_pa":"stands","capacity":10,"covered":"no","fee":"","operator":"","nameSource":"junction"},"sourceId":"osm"},{"id":"osm:node:4203581650","latitude":50.8407941,"longitude":-0.1472151,"name":"Preston Park cycle parking","properties":{"access":"unknown","bicycle_pa":"stands","capacity":8,"covered":"no","fee":"","operator":"","nameSource":"landmark"},"sourceId":"osm"},{"id":"osm:node:4203581651","latitude":50.8305953,"longitude":-0.1362999,"name":"Ann Street near London Road","properties":{"access":"unknown","bicycle_pa":"stands","capacity":10,"covered":"no","fee":"","operator":"","nameSource":"junction"},"sourceId":"osm"},{"id":"osm:node:4203581652","latitude":50.841677,"longitude":-0.1413999,"name":"Havelock Road near Lucerne Road","properties":{"access":"unknown","bicycle_pa":"stands","capacity":10,"covered":"no","fee":"","operator":"","nameSource":"junction"},"sourceId":"osm"},{"id":"osm:node:4203581653","latitude":50.8388553,"longitude":-0.1397502,"name":"Rugby Road near Stanford Avenue","properties":{"access":"unknown","bicycle_pa":"stands","capacity":2,"covered":"no","fee":"","operator":"","nameSource":"junction"},"sourceId":"osm"},{"id":"osm:node:4203581654","latitude":50.8381126,"longitude":-0.1404959,"name":"Stanford Avenue near Beaconsfield Road","properties":{"access":"unknown","bicycle_pa":"stands","capacity":8,"covered":"no","fee":"","operator":"","nameSource":"junction"},"sourceId":"osm"},{"id":"osm:node:4203581655","latitude":50.8373943,"longitude":-0.1403947,"name":"Beaconsfield Road by Beaconsfield Road","properties":{"access":"unknown","bicycle_pa":"stands","capacity":2,"covered":"no","fee":"","operator":"","nameSource":"landmark"},"sourceId":"osm"},{"id":"osm:node:4203581656","latitude":50.8367862,"longitude":-0.1401158,"name":"Springfield Road near Beaconsfield Road","properties":{"access":"unknown","bicycle_pa":"stands","capacity":2,"covered":"no","fee":"","operator":"","nameSource":"junction"},"sourceId":"osm"},{"id":"osm:node:421972222","latitude":50.816892,"longitude":-0.1216607,"name":"Lower Esplanade by Madeira Drive","properties":{"access":"unknown","bicycle_pa":"stands","capacity":16,"covered":"no","fee":"","operator":"","nameSource":"landmark"},"sourceId":"osm"},{"id":"osm:node:421977940","latitude":50.8194158,"longitude":-0.1365425,"name":"Grand Junction Road near Madeira Drive","properties":{"access":"unknown","bicycle_pa":"stands","capacity":18,"covered":"no","fee":"","operator":"","nameSource":"junction"},"sourceId":"osm"},{"id":"osm:node:421984395","latitude":50.8243078,"longitude":-0.1748571,"name":"Medina Terrace near King's Esplanade","properties":{"access":"unknown","bicycle_pa":"stands","capacity":8,"covered":"no","fee":"no","operator":"","nameSource":"junction"},"sourceId":"osm"},{"id":"osm:node:4431814259","latitude":50.8192667,"longitude":-0.1349888,"name":"Madeira Drive by Brighton Palace Pier","properties":{"access":"unknown","bicycle_pa":"stands","capacity":20,"covered":"no","fee":"","operator":"","nameSource":"landmark"},"sourceId":"osm"},{"id":"osm:node:444032972","latitude":50.822605,"longitude":-0.1570521,"name":"Kingsway near King's Road","properties":{"access":"unknown","bicycle_pa":"stands","capacity":8,"covered":"no","fee":"","operator":"","nameSource":"junction"},"sourceId":"osm"},{"id":"osm:node:444032974","latitude":50.8225401,"longitude":-0.1564856,"name":"King's Road near Western Street","properties":{"access":"unknown","bicycle_pa":"stands","capacity":4,"covered":"no","fee":"","operator":"","nameSource":"junction"},"sourceId":"osm"},{"id":"osm:node:4563755412","latitude":50.8257124,"longitude":-0.1398019,"name":"North Road near Tichborne Street","properties":{"access":"permissive","bicycle_pa":"stands","capacity":16,"covered":"no","fee":"","operator":"","nameSource":"junction"},"sourceId":"osm"},{"id":"osm:node:485265849","latitude":50.8281802,"longitude":-0.1708814,"name":"Norton Road near Church Road","properties":{"access":"unknown","bicycle_pa":"","capacity":10,"covered":"","fee":"","operator":"","nameSource":"junction"},"sourceId":"osm"},{"id":"osm:node:5769180674","latitude":50.8447762,"longitude":-0.1107281,"name":"Widdicombe Way near Hillside","properties":{"access":"yes","bicycle_pa":"stands","capacity":6,"covered":"no","fee":"","operator":"","nameSource":"junction"},"sourceId":"osm"},{"id":"osm:node:5816274152","latitude":50.8306606,"longitude":-0.1473313,"name":"Dyke Road near Vernon Terrace","properties":{"access":"unknown","bicycle_pa":"stands","capacity":8,"covered":"no","fee":"","operator":"","nameSource":"junction"},"sourceId":"osm"},{"id":"osm:node:5967750276","latitude":50.8235571,"longitude":-0.12069,"name":"Canning Street near Sutherland Road","properties":{"access":"unknown","bicycle_pa":"stands","capacity":2,"covered":"no","fee":"","operator":"","nameSource":"junction"},"sourceId":"osm"},{"id":"osm:node:5967751362","latitude":50.82338,"longitude":-0.1284725,"name":"Egremont Place near Park Hill","properties":{"access":"unknown","bicycle_pa":"stands","capacity":10,"covered":"no","fee":"","operator":"","nameSource":"junction"},"sourceId":"osm"},{"id":"osm:node:5967751363","latitude":50.8218406,"longitude":-0.130055,"name":"St. James's Avenue near Edward Street","properties":{"access":"unknown","bicycle_pa":"stands","capacity":4,"covered":"no","fee":"","operator":"","nameSource":"junction"},"sourceId":"osm"},{"id":"osm:node:6039748070","latitude":50.8425155,"longitude":-0.1383608,"name":"Cleveland Road near Lucerne Road","properties":{"access":"unknown","bicycle_pa":"stands","capacity":10,"covered":"no","fee":"","operator":"","nameSource":"junction"},"sourceId":"osm"},{"id":"osm:node:6127092246","latitude":50.8303372,"longitude":-0.1472725,"name":"Dyke Road near Bath Street","properties":{"access":"unknown","bicycle_pa":"","capacity":10,"covered":"no","fee":"","operator":"","nameSource":"junction"},"sourceId":"osm"},{"id":"osm:node:615270127","latitude":50.843488,"longitude":-0.148731,"name":"Preston Drove near Bavant Road","properties":{"access":"unknown","bicycle_pa":"","capacity":0,"covered":"","fee":"","operator":"","nameSource":"junction"},"sourceId":"osm"},{"id":"osm:node:6281108572","latitude":50.8435854,"longitude":-0.1348282,"name":"Ditchling Road near Hollingbury Terrace","properties":{"access":"unknown","bicycle_pa":"stands","capacity":6,"covered":"no","fee":"","operator":"","nameSource":"junction"},"sourceId":"osm"},{"id":"osm:node:6400781182","latitude":50.8366572,"longitude":-0.136325,"name":"Shaftesbury Place near Ditchling Rise","properties":{"access":"unknown","bicycle_pa":"stands","capacity":4,"covered":"no","fee":"","operator":"","nameSource":"junction"},"sourceId":"osm"},{"id":"osm:node:6416582662","latitude":50.8448255,"longitude":-0.1551568,"name":"Woodside Avenue near Hampstead Road","properties":{"access":"unknown","bicycle_pa":"stands","capacity":0,"covered":"no","fee":"","operator":"","nameSource":"junction"},"sourceId":"osm"},{"id":"osm:node:7239707980","latitude":50.8207062,"longitude":-0.1368596,"name":"Old Steine near Steine Street","properties":{"access":"yes","bicycle_pa":"stands","capacity":8,"covered":"no","fee":"no","operator":"","nameSource":"junction"},"sourceId":"osm"},{"id":"osm:node:7404713948","latitude":50.8440958,"longitude":-0.1436366,"name":"Preston Drove near Balfour Road","properties":{"access":"unknown","bicycle_pa":"stands","capacity":2,"covered":"no","fee":"","operator":"","nameSource":"junction"},"sourceId":"osm"},{"id":"osm:node:7730346776","latitude":50.8368148,"longitude":-0.1580616,"name":"The Upper Drive by Cardinal Newman Catholic School","properties":{"access":"unknown","bicycle_pa":"shed","capacity":0,"covered":"","fee":"","operator":"","nameSource":"landmark"},"sourceId":"osm"},{"id":"osm:node:7922667356","latitude":50.8351089,"longitude":-0.1714127,"name":"Hove Station Cycle Hub","properties":{"access":"permit","bicycle_pa":"building","capacity":150,"covered":"yes","fee":"no","operator":"Govia Thameslink Railway (Southern)","nameSource":"source"},"sourceId":"osm"},{"id":"osm:node:8238751390","latitude":50.8248617,"longitude":-0.153657,"name":"Bedford Place near Temple Street","properties":{"access":"unknown","bicycle_pa":"stands","capacity":10,"covered":"no","fee":"no","operator":"","nameSource":"junction"},"sourceId":"osm"},{"id":"osm:node:8491617653","latitude":50.8174062,"longitude":-0.116367,"name":"Eaton Place near St Georges Road","properties":{"access":"unknown","bicycle_pa":"stands","capacity":10,"covered":"no","fee":"","operator":"","nameSource":"junction"},"sourceId":"osm"},{"id":"osm:node:8499491000","latitude":50.8396725,"longitude":-0.1387765,"name":"Grantham Road near Stanford Avenue","properties":{"access":"yes","bicycle_pa":"hoop","capacity":2,"covered":"no","fee":"no","operator":"","nameSource":"junction"},"sourceId":"osm"},{"id":"osm:node:8501422922","latitude":50.8165441,"longitude":-0.1077323,"name":"Eastern Road near Arundel Road","properties":{"access":"unknown","bicycle_pa":"stands","capacity":10,"covered":"no","fee":"","operator":"","nameSource":"junction"},"sourceId":"osm"},{"id":"osm:node:8668407580","latitude":50.8134635,"longitude":-0.104774,"name":"Marina Way cycle parking","properties":{"access":"unknown","bicycle_pa":"stands","capacity":12,"covered":"no","fee":"","operator":"","nameSource":"street"},"sourceId":"osm"},{"id":"osm:node:8671857841","latitude":50.8233317,"longitude":-0.1600488,"name":"Brunswick Square near Brunswick Terrace","properties":{"access":"unknown","bicycle_pa":"stands","capacity":0,"covered":"no","fee":"","operator":"","nameSource":"junction"},"sourceId":"osm"},{"id":"osm:node:8671857854","latitude":50.8219465,"longitude":-0.1517171,"name":"Preston Street near King's Road","properties":{"access":"unknown","bicycle_pa":"","capacity":0,"covered":"","fee":"","operator":"","nameSource":"junction"},"sourceId":"osm"},{"id":"osm:node:8681454901","latitude":50.825263,"longitude":-0.1756709,"name":"Kingsway near Victoria Cottages","properties":{"access":"unknown","bicycle_pa":"stands","capacity":0,"covered":"no","fee":"no","operator":"","nameSource":"junction"},"sourceId":"osm"},{"id":"osm:node:8687992081","latitude":50.818938,"longitude":-0.1224099,"name":"College Place near Bloomsbury Place","properties":{"access":"unknown","bicycle_pa":"stands","capacity":1,"covered":"no","fee":"","operator":"","nameSource":"junction"},"sourceId":"osm"},{"id":"osm:node:8687992101","latitude":50.8184959,"longitude":-0.1210821,"name":"Portland Mews near St Georges Road","properties":{"access":"unknown","bicycle_pa":"stands","capacity":10,"covered":"no","fee":"","operator":"","nameSource":"junction"},"sourceId":"osm"},{"id":"osm:node:8784986433","latitude":50.826861,"longitude":-0.1344806,"name":"Grand Parade near Richmond Parade","properties":{"access":"unknown","bicycle_pa":"stands","capacity":0,"covered":"no","fee":"","operator":"","nameSource":"junction"},"sourceId":"osm"},{"id":"osm:node:8784986483","latitude":50.8272773,"longitude":-0.1346,"name":"Richmond Place near Grand Parade","properties":{"access":"unknown","bicycle_pa":"stands","capacity":0,"covered":"no","fee":"","operator":"","nameSource":"junction"},"sourceId":"osm"},{"id":"osm:node:8985832191","latitude":50.819262,"longitude":-0.1232754,"name":"College Road near Crescent Place","properties":{"access":"unknown","bicycle_pa":"stands","capacity":10,"covered":"no","fee":"","operator":"","nameSource":"junction"},"sourceId":"osm"},{"id":"osm:node:9095289159","latitude":50.8300913,"longitude":-0.1264153,"name":"Ewart Street near Islingword Road","properties":{"access":"yes","bicycle_pa":"stands","capacity":10,"covered":"no","fee":"no","operator":"","nameSource":"junction"},"sourceId":"osm"},{"id":"osm:node:9095289160","latitude":50.830239,"longitude":-0.1264997,"name":"Islingword Road near Hampden Road","properties":{"access":"yes","bicycle_pa":"stands","capacity":8,"covered":"no","fee":"no","operator":"","nameSource":"junction"},"sourceId":"osm"},{"id":"osm:node:9095289161","latitude":50.8301912,"longitude":-0.1262917,"name":"Islingword Road near Ewart Street","properties":{"access":"yes","bicycle_pa":"stands","capacity":6,"covered":"no","fee":"no","operator":"","nameSource":"junction"},"sourceId":"osm"},{"id":"osm:node:9095391631","latitude":50.8299556,"longitude":-0.1283614,"name":"Jackson Street near Washington Street","properties":{"access":"yes","bicycle_pa":"stands","capacity":10,"covered":"no","fee":"no","operator":"","nameSource":"junction"},"sourceId":"osm"},{"id":"osm:node:9095393830","latitude":50.8293306,"longitude":-0.1275922,"name":"Jackson Street near Ewart Street","properties":{"access":"yes","bicycle_pa":"stands","capacity":10,"covered":"no","fee":"no","operator":"","nameSource":"junction"},"sourceId":"osm"},{"id":"osm:node:9097627608","latitude":50.8317083,"longitude":-0.129023,"name":"Islingword Road near Hanover Mews","properties":{"access":"yes","bicycle_pa":"stands","capacity":0,"covered":"no","fee":"no","operator":"","nameSource":"junction"},"sourceId":"osm"},{"id":"osm:node:9097688391","latitude":50.8311742,"longitude":-0.1278207,"name":"Milton Road near Islingword Road","properties":{"access":"yes","bicycle_pa":"stands","capacity":10,"covered":"no","fee":"no","operator":"","nameSource":"junction"},"sourceId":"osm"},{"id":"osm:node:9097753348","latitude":50.830796,"longitude":-0.1271474,"name":"Howard Road near Islingword Road","properties":{"access":"yes","bicycle_pa":"stands","capacity":10,"covered":"no","fee":"no","operator":"","nameSource":"junction"},"sourceId":"osm"},{"id":"osm:node:9097791335","latitude":50.8293525,"longitude":-0.1300913,"name":"Coleman Street near Lewes Street","properties":{"access":"yes","bicycle_pa":"stands","capacity":12,"covered":"no","fee":"no","operator":"","nameSource":"junction"},"sourceId":"osm"},{"id":"osm:node:9111417874","latitude":50.8277874,"longitude":-0.1283226,"name":"Scotland Street near Southover Street","properties":{"access":"yes","bicycle_pa":"stands","capacity":10,"covered":"no","fee":"no","operator":"","nameSource":"junction"},"sourceId":"osm"},{"id":"osm:node:9120890395","latitude":50.8280816,"longitude":-0.1251741,"name":"Islingword Place near Islingword Road","properties":{"access":"yes","bicycle_pa":"stands","capacity":10,"covered":"no","fee":"no","operator":"","nameSource":"junction"},"sourceId":"osm"},{"id":"osm:node:9120917292","latitude":50.8339162,"longitude":-0.1253626,"name":"Franklin Road near Franklin Street","properties":{"access":"yes","bicycle_pa":"stands","capacity":10,"covered":"no","fee":"no","operator":"","nameSource":"junction"},"sourceId":"osm"},{"id":"osm:node:9120917293","latitude":50.8350792,"longitude":-0.1250628,"name":"Fairlight Place near Pevensey Road","properties":{"access":"yes","bicycle_pa":"stands","capacity":10,"covered":"no","fee":"no","operator":"","nameSource":"junction"},"sourceId":"osm"},{"id":"osm:node:9120935421","latitude":50.8306029,"longitude":-0.121466,"name":"Lynton Street cycle parking","properties":{"access":"yes","bicycle_pa":"stands","capacity":4,"covered":"no","fee":"no","operator":"","nameSource":"street"},"sourceId":"osm"},{"id":"osm:node:9120945797","latitude":50.8348892,"longitude":-0.1262927,"name":"St Leonard's Road near Lewes Road","properties":{"access":"yes","bicycle_pa":"stands","capacity":4,"covered":"no","fee":"no","operator":"","nameSource":"junction"},"sourceId":"osm"},{"id":"osm:node:9120949055","latitude":50.8352863,"longitude":-0.1248509,"name":"Hartington Road by Hartington Road","properties":{"access":"yes","bicycle_pa":"stands","capacity":10,"covered":"no","fee":"no","operator":"","nameSource":"landmark"},"sourceId":"osm"},{"id":"osm:node:9120949293","latitude":50.8364797,"longitude":-0.126022,"name":"Upper Lewes Road near Round Hill Crescent","properties":{"access":"yes","bicycle_pa":"stands","capacity":3,"covered":"no","fee":"no","operator":"","nameSource":"junction"},"sourceId":"osm"},{"id":"osm:node:9120950023","latitude":50.8316404,"longitude":-0.1256836,"name":"De Montfort Road near Elm Grove","properties":{"access":"yes","bicycle_pa":"stands","capacity":10,"covered":"no","fee":"no","operator":"","nameSource":"junction"},"sourceId":"osm"},{"id":"osm:node:9120950024","latitude":50.8316026,"longitude":-0.1252937,"name":"Elm Grove near Hampden Road","properties":{"access":"yes","bicycle_pa":"stands","capacity":12,"covered":"no","fee":"no","operator":"","nameSource":"junction"},"sourceId":"osm"},{"id":"osm:node:9120950440","latitude":50.8319842,"longitude":-0.1282888,"name":"Elm Grove near Wellington Road","properties":{"access":"yes","bicycle_pa":"stands","capacity":16,"covered":"no","fee":"no","operator":"","nameSource":"junction"},"sourceId":"osm"},{"id":"osm:node:9120950441","latitude":50.8319677,"longitude":-0.1281056,"name":"Elm Grove near Wellington Road","properties":{"access":"yes","bicycle_pa":"stands","capacity":16,"covered":"no","fee":"no","operator":"","nameSource":"junction"},"sourceId":"osm"},{"id":"osm:node:9120950442","latitude":50.831888,"longitude":-0.1284334,"name":"Elm Grove near Wellington Road","properties":{"access":"yes","bicycle_pa":"stands","capacity":10,"covered":"no","fee":"no","operator":"","nameSource":"junction"},"sourceId":"osm"},{"id":"osm:node:9120950888","latitude":50.8324927,"longitude":-0.1223102,"name":"Bernard Place near Bonchurch Road","properties":{"access":"yes","bicycle_pa":"stands","capacity":10,"covered":"no","fee":"no","operator":"","nameSource":"junction"},"sourceId":"osm"},{"id":"osm:node:9120978128","latitude":50.8349464,"longitude":-0.126446,"name":"Lewes Road near St Leonard's Road","properties":{"access":"yes","bicycle_pa":"stands","capacity":4,"covered":"no","fee":"no","operator":"","nameSource":"junction"},"sourceId":"osm"},{"id":"osm:node:9120981630","latitude":50.8360313,"longitude":-0.1268695,"name":"Inverness Road near Upper Lewes Road","properties":{"access":"yes","bicycle_pa":"stands","capacity":10,"covered":"no","fee":"no","operator":"","nameSource":"junction"},"sourceId":"osm"},{"id":"osm:node:9120991974","latitude":50.8333591,"longitude":-0.1291771,"name":"Newport Street near Park Crescent Place","properties":{"access":"yes","bicycle_pa":"stands","capacity":10,"covered":"no","fee":"no","operator":"","nameSource":"junction"},"sourceId":"osm"},{"id":"osm:node:9120992583","latitude":50.8347514,"longitude":-0.1264145,"name":"Franklin Road near Lewes Road","properties":{"access":"yes","bicycle_pa":"stands","capacity":14,"covered":"no","fee":"no","operator":"","nameSource":"junction"},"sourceId":"osm"},{"id":"osm:node:9120994860","latitude":50.8345154,"longitude":-0.128925,"name":"Park Crescent Road near St Paul's Street","properties":{"access":"yes","bicycle_pa":"stands","capacity":10,"covered":"no","fee":"no","operator":"","nameSource":"junction"},"sourceId":"osm"},{"id":"osm:node:9120996792","latitude":50.833344,"longitude":-0.1291964,"name":"Newport Street near Park Crescent Place","properties":{"access":"yes","bicycle_pa":"stands","capacity":10,"covered":"no","fee":"no","operator":"","nameSource":"junction"},"sourceId":"osm"},{"id":"osm:node:9121001703","latitude":50.834791,"longitude":-0.129543,"name":"Round Hill Crescent near Upper Lewes Road","properties":{"access":"yes","bicycle_pa":"stands","capacity":6,"covered":"no","fee":"no","operator":"","nameSource":"junction"},"sourceId":"osm"},{"id":"osm:node:9121006697","latitude":50.8339887,"longitude":-0.129183,"name":"Brewer Street near St Martin's Street","properties":{"access":"yes","bicycle_pa":"stands","capacity":10,"covered":"no","fee":"no","operator":"","nameSource":"junction"},"sourceId":"osm"},{"id":"osm:node:9121008721","latitude":50.8366737,"longitude":-0.1269815,"name":"D'Aubigny Road near Round Hill Crescent","properties":{"access":"yes","bicycle_pa":"stands","capacity":10,"covered":"no","fee":"no","operator":"","nameSource":"junction"},"sourceId":"osm"},{"id":"osm:node:9121016454","latitude":50.8369211,"longitude":-0.1287807,"name":"Richmond Road near Mayo Road","properties":{"access":"yes","bicycle_pa":"stands","capacity":10,"covered":"no","fee":"no","operator":"","nameSource":"junction"},"sourceId":"osm"},{"id":"osm:node:9121030071","latitude":50.8365354,"longitude":-0.1279038,"name":"Ashdown Road near Round Hill Crescent","properties":{"access":"yes","bicycle_pa":"stands","capacity":10,"covered":"no","fee":"no","operator":"","nameSource":"junction"},"sourceId":"osm"},{"id":"osm:node:9121037245","latitude":50.835472,"longitude":-0.131379,"name":"Princes Crescent near Crescent Road","properties":{"access":"yes","bicycle_pa":"stands","capacity":10,"covered":"no","fee":"no","operator":"Brighton and Hove City Council","nameSource":"junction"},"sourceId":"osm"},{"id":"osm:node:9121123895","latitude":50.8274008,"longitude":-0.1305331,"name":"Albion Hill near Chate's Farm Court","properties":{"access":"yes","bicycle_pa":"stands","capacity":10,"covered":"no","fee":"no","operator":"","nameSource":"junction"},"sourceId":"osm"},{"id":"osm:node:9121143240","latitude":50.8264226,"longitude":-0.1284398,"name":"Montreal Road near Albion Hill","properties":{"access":"yes","bicycle_pa":"stands","capacity":10,"covered":"no","fee":"no","operator":"","nameSource":"junction"},"sourceId":"osm"},{"id":"osm:node:9121143241","latitude":50.8250824,"longitude":-0.1311304,"name":"Elmore Road near Sussex Street","properties":{"access":"yes","bicycle_pa":"stands","capacity":10,"covered":"no","fee":"no","operator":"","nameSource":"junction"},"sourceId":"osm"},{"id":"osm:node:9121148858","latitude":50.8247031,"longitude":-0.1297028,"name":"Windmill Street near Sussex Street","properties":{"access":"yes","bicycle_pa":"stands","capacity":10,"covered":"no","fee":"no","operator":"","nameSource":"junction"},"sourceId":"osm"},{"id":"osm:node:9121158464","latitude":50.8153467,"longitude":-0.1090732,"name":"Arundel Place near Lewes Mews","properties":{"access":"yes","bicycle_pa":"stands","capacity":10,"covered":"no","fee":"no","operator":"","nameSource":"junction"},"sourceId":"osm"},{"id":"osm:node:9121161740","latitude":50.8226887,"longitude":-0.1190277,"name":"College Terrace near Walpole Terrace","properties":{"access":"yes","bicycle_pa":"stands","capacity":10,"covered":"no","fee":"no","operator":"","nameSource":"junction"},"sourceId":"osm"},{"id":"osm:node:9121162662","latitude":50.8238013,"longitude":-0.1192238,"name":"Bute Street near Livingstone Street","properties":{"access":"yes","bicycle_pa":"stands","capacity":10,"covered":"no","fee":"no","operator":"","nameSource":"junction"},"sourceId":"osm"},{"id":"osm:node:9121167218","latitude":50.8235345,"longitude":-0.1194598,"name":"Hendon Street near Livingstone Street","properties":{"access":"yes","bicycle_pa":"stands","capacity":10,"covered":"no","fee":"no","operator":"","nameSource":"junction"},"sourceId":"osm"},{"id":"osm:node:9121178592","latitude":50.818217,"longitude":-0.1204137,"name":"Portland Place near St Georges Road","properties":{"access":"yes","bicycle_pa":"stands","capacity":4,"covered":"no","fee":"no","operator":"","nameSource":"junction"},"sourceId":"osm"},{"id":"osm:node:9129535223","latitude":50.8315255,"longitude":-0.1243463,"name":"Cobden Road near Elm Grove","properties":{"access":"yes","bicycle_pa":"stands","capacity":4,"covered":"no","fee":"no","operator":"","nameSource":"junction"},"sourceId":"osm"},{"id":"osm:node:9129535225","latitude":50.8315495,"longitude":-0.1246151,"name":"Cobden Road near Elm Grove","properties":{"access":"yes","bicycle_pa":"","capacity":4,"covered":"no","fee":"no","operator":"","nameSource":"junction"},"sourceId":"osm"},{"id":"osm:node:9162816615","latitude":50.8311347,"longitude":-0.1362068,"name":"London Road near Francis Street","properties":{"access":"yes","bicycle_pa":"stands","capacity":8,"covered":"no","fee":"no","operator":"","nameSource":"junction"},"sourceId":"osm"},{"id":"osm:node:9181346137","latitude":50.828346,"longitude":-0.1287972,"name":"Ewart Street near Southover Street","properties":{"access":"yes","bicycle_pa":"stands","capacity":2,"covered":"no","fee":"no","operator":"","nameSource":"junction"},"sourceId":"osm"},{"id":"osm:node:9181346138","latitude":50.8283991,"longitude":-0.1288813,"name":"Ewart Street near Southover Street","properties":{"access":"yes","bicycle_pa":"stands","capacity":2,"covered":"no","fee":"no","operator":"","nameSource":"junction"},"sourceId":"osm"},{"id":"osm:node:9191978875","latitude":50.8208932,"longitude":-0.1447567,"name":"West Street near South Street","properties":{"access":"unknown","bicycle_pa":"stands","capacity":10,"covered":"no","fee":"","operator":"","nameSource":"junction"},"sourceId":"osm"},{"id":"osm:node:9199359819","latitude":50.8448078,"longitude":-0.1183873,"name":"Huxley Lane near Lewes Road","properties":{"access":"unknown","bicycle_pa":"stands","capacity":0,"covered":"","fee":"","operator":"","nameSource":"junction"},"sourceId":"osm"},{"id":"osm:node:9388441090","latitude":50.8226981,"longitude":-0.1397324,"name":"New Road near North Street","properties":{"access":"unknown","bicycle_pa":"stands","capacity":4,"covered":"no","fee":"","operator":"","nameSource":"junction"},"sourceId":"osm"},{"id":"osm:node:9656589178","latitude":50.8423821,"longitude":-0.0965526,"name":"Taunton Road near Leybourne Parade","properties":{"access":"unknown","bicycle_pa":"stands","capacity":2,"covered":"no","fee":"","operator":"","nameSource":"junction"},"sourceId":"osm"},{"id":"osm:node:9656589179","latitude":50.8423789,"longitude":-0.0965287,"name":"Taunton Road near Leybourne Parade","properties":{"access":"unknown","bicycle_pa":"stands","capacity":2,"covered":"no","fee":"","operator":"","nameSource":"junction"},"sourceId":"osm"},{"id":"osm:node:9668907908","latitude":50.8403714,"longitude":-0.1229022,"name":"Lewes Road near Saunders Park Terrace","properties":{"access":"unknown","bicycle_pa":"stands","capacity":7,"covered":"no","fee":"no","operator":"Pavillion RP","nameSource":"junction"},"sourceId":"osm"},{"id":"osm:node:9689734082","latitude":50.8194208,"longitude":-0.1246791,"name":"St George's Terrace near Montague Place","properties":{"access":"unknown","bicycle_pa":"stands","capacity":8,"covered":"no","fee":"","operator":"","nameSource":"junction"},"sourceId":"osm"},{"id":"osm:node:9697359045","latitude":50.8275985,"longitude":-0.1577554,"name":"Brunswick Place near Furze Hill","properties":{"access":"yes","bicycle_pa":"stands","capacity":10,"covered":"no","fee":"no","operator":"Brighton and Hove City Council","nameSource":"junction"},"sourceId":"osm"},{"id":"osm:node:9719212601","latitude":50.8427498,"longitude":-0.1198081,"name":"Lewes Road near Natal Road","properties":{"access":"yes","bicycle_pa":"stands","capacity":6,"covered":"","fee":"no","operator":"","nameSource":"junction"},"sourceId":"osm"},{"id":"osm:node:9719212602","latitude":50.8427139,"longitude":-0.1198364,"name":"Lewes Road near Natal Road","properties":{"access":"yes","bicycle_pa":"stands","capacity":6,"covered":"","fee":"no","operator":"","nameSource":"junction"},"sourceId":"osm"},{"id":"osm:node:9719212603","latitude":50.8426842,"longitude":-0.1198684,"name":"Lewes Road near Natal Road","properties":{"access":"yes","bicycle_pa":"stands","capacity":6,"covered":"","fee":"no","operator":"","nameSource":"junction"},"sourceId":"osm"},{"id":"osm:node:9719413956","latitude":50.8418134,"longitude":-0.1206706,"name":"Lewes Road near The Furlong","properties":{"access":"yes","bicycle_pa":"stands","capacity":2,"covered":"","fee":"no","operator":"","nameSource":"junction"},"sourceId":"osm"},{"id":"osm:node:9733582764","latitude":50.825767,"longitude":-0.1586383,"name":"Brunswick Place near Western Road","properties":{"access":"yes","bicycle_pa":"stands","capacity":10,"covered":"no","fee":"no","operator":"","nameSource":"junction"},"sourceId":"osm"},{"id":"osm:node:9733582765","latitude":50.8252768,"longitude":-0.1547581,"name":"Norfolk Road near Norfolk Square","properties":{"access":"yes","bicycle_pa":"stands","capacity":10,"covered":"no","fee":"no","operator":"","nameSource":"junction"},"sourceId":"osm"},{"id":"osm:node:9733582766","latitude":50.825523,"longitude":-0.1564194,"name":"Brunswick Road near Waterloo Street","properties":{"access":"unknown","bicycle_pa":"","capacity":1,"covered":"no","fee":"","operator":"","nameSource":"junction"},"sourceId":"osm"},{"id":"osm:node:9733582767","latitude":50.8254496,"longitude":-0.1567155,"name":"Western Road near Brunswick Road","properties":{"access":"yes","bicycle_pa":"stands","capacity":4,"covered":"no","fee":"no","operator":"","nameSource":"junction"},"sourceId":"osm"},{"id":"osm:node:9733666293","latitude":50.8263639,"longitude":-0.162155,"name":"Western Road near Church Road","properties":{"access":"yes","bicycle_pa":"stands","capacity":4,"covered":"no","fee":"no","operator":"","nameSource":"junction"},"sourceId":"osm"},{"id":"osm:node:9733666296","latitude":50.826498,"longitude":-0.1637834,"name":"Palmeira Square near Western Road","properties":{"access":"yes","bicycle_pa":"stands","capacity":2,"covered":"no","fee":"no","operator":"","nameSource":"junction"},"sourceId":"osm"},{"id":"osm:node:9733666297","latitude":50.8263858,"longitude":-0.1630767,"name":"Palmeira Square near Western Road","properties":{"access":"yes","bicycle_pa":"stands","capacity":2,"covered":"no","fee":"no","operator":"","nameSource":"junction"},"sourceId":"osm"},{"id":"osm:node:9733666298","latitude":50.8251212,"longitude":-0.163808,"name":"Adelaide Crescent near Palmeira Square","properties":{"access":"yes","bicycle_pa":"stands","capacity":6,"covered":"no","fee":"no","operator":"","nameSource":"junction"},"sourceId":"osm"},{"id":"osm:node:9747446497","latitude":50.8252917,"longitude":-0.1349604,"name":"Circus Street near Morley Street","properties":{"access":"unknown","bicycle_pa":"","capacity":0,"covered":"","fee":"","operator":"","nameSource":"junction"},"sourceId":"osm"},{"id":"osm:node:9747475321","latitude":50.8246304,"longitude":-0.1347079,"name":"Market Square by Kernel Canteen","properties":{"access":"unknown","bicycle_pa":"","capacity":9,"covered":"","fee":"","operator":"","nameSource":"landmark"},"sourceId":"osm"},{"id":"osm:node:9750175230","latitude":50.8320816,"longitude":-0.1301059,"name":"Richmond Terrace near Elm Grove","properties":{"access":"yes","bicycle_pa":"staple","capacity":6,"covered":"no","fee":"no","operator":"","nameSource":"junction"},"sourceId":"osm"},{"id":"osm:node:9790273856","latitude":50.8200568,"longitude":-0.1257783,"name":"Montague Street near Upper Bedford Street","properties":{"access":"unknown","bicycle_pa":"stands","capacity":6,"covered":"no","fee":"no","operator":"","nameSource":"junction"},"sourceId":"osm"},{"id":"osm:node:9790273863","latitude":50.8202301,"longitude":-0.1240075,"name":"College Street near Montague Place","properties":{"access":"unknown","bicycle_pa":"shed","capacity":8,"covered":"yes","fee":"","operator":"","nameSource":"junction"},"sourceId":"osm"},{"id":"osm:node:9790385073","latitude":50.8210075,"longitude":-0.1281701,"name":"Lavender Street near St. Mary's Place","properties":{"access":"unknown","bicycle_pa":"stands","capacity":8,"covered":"no","fee":"","operator":"","nameSource":"junction"},"sourceId":"osm"},{"id":"osm:node:9808328230","latitude":50.8251373,"longitude":-0.1394094,"name":"Regent Street by Bird & Blend Tea Co.","properties":{"access":"unknown","bicycle_pa":"stands","capacity":8,"covered":"no","fee":"","operator":"","nameSource":"landmark"},"sourceId":"osm"},{"id":"osm:node:9830791213","latitude":50.8239007,"longitude":-0.1434674,"name":"Queen's Road near North Street","properties":{"access":"yes","bicycle_pa":"stands","capacity":4,"covered":"no","fee":"no","operator":"","nameSource":"junction"},"sourceId":"osm"},{"id":"osm:node:9856531630","latitude":50.8117511,"longitude":-0.1037705,"name":"Disabled access by Kash's Kiosk","properties":{"access":"yes","bicycle_pa":"stands","capacity":22,"covered":"no","fee":"no","operator":"","nameSource":"landmark"},"sourceId":"osm"},{"id":"osm:node:9856531631","latitude":50.8117221,"longitude":-0.1039129,"name":"The Boardwalk cycle parking","properties":{"access":"yes","bicycle_pa":"stands","capacity":24,"covered":"no","fee":"no","operator":"","nameSource":"street"},"sourceId":"osm"},{"id":"osm:node:9863266715","latitude":50.8199803,"longitude":-0.1378111,"name":"Pool Valley near Pool Passage","properties":{"access":"unknown","bicycle_pa":"stands","capacity":8,"covered":"","fee":"","operator":"","nameSource":"junction"},"sourceId":"osm"},{"id":"osm:node:9897095816","latitude":50.841221,"longitude":-0.1367908,"name":"Southdown Avenue near Stanford Avenue","properties":{"access":"permit","bicycle_pa":"shed","capacity":6,"covered":"yes","fee":"yes","operator":"Falco","nameSource":"junction"},"sourceId":"osm"},{"id":"osm:node:9897105705","latitude":50.8423453,"longitude":-0.1383799,"name":"Cleveland Road near Lucerne Road","properties":{"access":"permit","bicycle_pa":"shed","capacity":6,"covered":"yes","fee":"yes","operator":"Falco","nameSource":"junction"},"sourceId":"osm"},{"id":"osm:node:9897608820","latitude":50.8268989,"longitude":-0.1261393,"name":"Southover Street near Queen's Park Road","properties":{"access":"permit","bicycle_pa":"shed","capacity":6,"covered":"yes","fee":"yes","operator":"Falco","nameSource":"junction"},"sourceId":"osm"},{"id":"osm:node:9899050755","latitude":50.8359482,"longitude":-0.1364656,"name":"Ditchling Rise near Shaftesbury Road","properties":{"access":"private","bicycle_pa":"shed","capacity":0,"covered":"yes","fee":"","operator":"Brighton & Hove City Council","nameSource":"junction"},"sourceId":"osm"},{"id":"osm:node:9899050756","latitude":50.8359833,"longitude":-0.1364753,"name":"Ditchling Rise near Shaftesbury Road","properties":{"access":"unknown","bicycle_pa":"stands","capacity":12,"covered":"no","fee":"","operator":"","nameSource":"junction"},"sourceId":"osm"},{"id":"osm:node:9909483079","latitude":50.8441534,"longitude":-0.1350214,"name":"Hythe Road near Ditchling Road","properties":{"access":"permit","bicycle_pa":"shed","capacity":6,"covered":"yes","fee":"yes","operator":"Falco","nameSource":"junction"},"sourceId":"osm"},{"id":"osm:node:9909521821","latitude":50.8410153,"longitude":-0.1376955,"name":"Cleveland Road near Stanford Avenue","properties":{"access":"permit","bicycle_pa":"shed","capacity":6,"covered":"yes","fee":"yes","operator":"Falco","nameSource":"junction"},"sourceId":"osm"},{"id":"osm:node:9912935562","latitude":50.8445428,"longitude":-0.1380572,"name":"Preston Drove cycle parking","properties":{"access":"permit","bicycle_pa":"shed","capacity":6,"covered":"yes","fee":"yes","operator":"Falco","nameSource":"street"},"sourceId":"osm"},{"id":"osm:node:9912935563","latitude":50.8445382,"longitude":-0.1380171,"name":"Preston Drove cycle parking","properties":{"access":"permit","bicycle_pa":"shed","capacity":6,"covered":"yes","fee":"yes","operator":"Falco","nameSource":"street"},"sourceId":"osm"},{"id":"osm:node:9923112644","latitude":50.8236857,"longitude":-0.1459664,"name":"Churchill Square Piazza by iSmash","properties":{"access":"unknown","bicycle_pa":"wide_stands","capacity":12,"covered":"no","fee":"no","operator":"","nameSource":"landmark"},"sourceId":"osm"},{"id":"osm:node:9923112645","latitude":50.8256988,"longitude":-0.1410936,"name":"North Road near Spring Gardens","properties":{"access":"unknown","bicycle_pa":"stands","capacity":20,"covered":"no","fee":"no","operator":"","nameSource":"junction"},"sourceId":"osm"},{"id":"osm:node:9923112646","latitude":50.8220153,"longitude":-0.1389909,"name":"North Street near Pavilion Buildings","properties":{"access":"unknown","bicycle_pa":"stands","capacity":6,"covered":"no","fee":"no","operator":"","nameSource":"junction"},"sourceId":"osm"},{"id":"osm:node:9923112647","latitude":50.8222178,"longitude":-0.1393156,"name":"North Street near Prince's Place","properties":{"access":"unknown","bicycle_pa":"stands","capacity":6,"covered":"no","fee":"no","operator":"","nameSource":"junction"},"sourceId":"osm"},{"id":"osm:node:9923112648","latitude":50.8223112,"longitude":-0.1394635,"name":"North Street near Prince's Place","properties":{"access":"unknown","bicycle_pa":"stands","capacity":6,"covered":"no","fee":"no","operator":"","nameSource":"junction"},"sourceId":"osm"},{"id":"osm:node:9923112649","latitude":50.8206682,"longitude":-0.145652,"name":"King's Road by Kings Road Odeon","properties":{"access":"unknown","bicycle_pa":"stands","capacity":10,"covered":"no","fee":"no","operator":"","nameSource":"landmark"},"sourceId":"osm"},{"id":"osm:node:9982293987","latitude":50.8249941,"longitude":-0.14273,"name":"Church Street near Queen's Road","properties":{"access":"unknown","bicycle_pa":"stands","capacity":10,"covered":"no","fee":"no","operator":"","nameSource":"junction"},"sourceId":"osm"},{"id":"osm:node:9982293988","latitude":50.823281,"longitude":-0.14378,"name":"Cranbourne Street near West Street","properties":{"access":"unknown","bicycle_pa":"stands","capacity":6,"covered":"no","fee":"no","operator":"","nameSource":"junction"},"sourceId":"osm"},{"id":"osm:node:9982293989","latitude":50.8238809,"longitude":-0.1445122,"name":"Dyke Road near Imperial Arcade","properties":{"access":"unknown","bicycle_pa":"stands","capacity":2,"covered":"no","fee":"no","operator":"","nameSource":"junction"},"sourceId":"osm"},{"id":"osm:node:9982293990","latitude":50.8240503,"longitude":-0.1471588,"name":"Western Road near Regent Hill","properties":{"access":"unknown","bicycle_pa":"stands","capacity":4,"covered":"no","fee":"no","operator":"","nameSource":"junction"},"sourceId":"osm"},{"id":"osm:node:9982293991","latitude":50.8239556,"longitude":-0.1465309,"name":"Regent Hill near Western Road","properties":{"access":"unknown","bicycle_pa":"stands","capacity":8,"covered":"no","fee":"no","operator":"","nameSource":"junction"},"sourceId":"osm"},{"id":"osm:node:9982293992","latitude":50.8240857,"longitude":-0.147331,"name":"Western Road near Marlborough Street","properties":{"access":"unknown","bicycle_pa":"stands","capacity":4,"covered":"no","fee":"no","operator":"","nameSource":"junction"},"sourceId":"osm"},{"id":"osm:node:9982293993","latitude":50.8239654,"longitude":-0.1472767,"name":"Western Road near Regent Hill","properties":{"access":"unknown","bicycle_pa":"stands","capacity":4,"covered":"no","fee":"no","operator":"","nameSource":"junction"},"sourceId":"osm"},{"id":"osm:node:9982293994","latitude":50.8241881,"longitude":-0.148881,"name":"Castle Street near Western Road","properties":{"access":"unknown","bicycle_pa":"stands","capacity":4,"covered":"no","fee":"no","operator":"","nameSource":"junction"},"sourceId":"osm"},{"id":"osm:node:9982293995","latitude":50.8243101,"longitude":-0.1490205,"name":"Western Road near Dean Street","properties":{"access":"unknown","bicycle_pa":"stands","capacity":10,"covered":"no","fee":"no","operator":"","nameSource":"junction"},"sourceId":"osm"},{"id":"osm:node:9982293996","latitude":50.8243643,"longitude":-0.1492914,"name":"Dean Street near Western Road","properties":{"access":"unknown","bicycle_pa":"stands","capacity":6,"covered":"no","fee":"no","operator":"","nameSource":"junction"},"sourceId":"osm"},{"id":"osm:node:9982293997","latitude":50.8244346,"longitude":-0.1496709,"name":"Spring Street near Western Road","properties":{"access":"unknown","bicycle_pa":"stands","capacity":2,"covered":"no","fee":"no","operator":"","nameSource":"junction"},"sourceId":"osm"},{"id":"osm:node:9982293998","latitude":50.8244728,"longitude":-0.1498359,"name":"Western Road near Spring Street","properties":{"access":"unknown","bicycle_pa":"stands","capacity":8,"covered":"no","fee":"no","operator":"","nameSource":"junction"},"sourceId":"osm"},{"id":"osm:node:9982294000","latitude":50.8246041,"longitude":-0.1504045,"name":"Preston Street near Western Road","properties":{"access":"unknown","bicycle_pa":"stands","capacity":2,"covered":"no","fee":"no","operator":"","nameSource":"junction"},"sourceId":"osm"},{"id":"osm:node:9982294001","latitude":50.8244711,"longitude":-0.1504857,"name":"Preston Street near Western Road","properties":{"access":"unknown","bicycle_pa":"stands","capacity":10,"covered":"no","fee":"no","operator":"","nameSource":"junction"},"sourceId":"osm"},{"id":"osm:node:9982294002","latitude":50.8247189,"longitude":-0.1510979,"name":"Sillwood Road near Western Road","properties":{"access":"unknown","bicycle_pa":"stands","capacity":6,"covered":"no","fee":"no","operator":"","nameSource":"junction"},"sourceId":"osm"},{"id":"osm:node:9982294003","latitude":50.8247372,"longitude":-0.1511916,"name":"Sillwood Road near Western Road","properties":{"access":"unknown","bicycle_pa":"stands","capacity":6,"covered":"no","fee":"no","operator":"","nameSource":"junction"},"sourceId":"osm"},{"id":"osm:node:9982294004","latitude":50.8249123,"longitude":-0.1524861,"name":"Western Road near Montpelier Road","properties":{"access":"unknown","bicycle_pa":"stands","capacity":6,"covered":"no","fee":"no","operator":"","nameSource":"junction"},"sourceId":"osm"},{"id":"osm:node:9982294005","latitude":50.825111,"longitude":-0.1540365,"name":"Western Road near Borough Street","properties":{"access":"unknown","bicycle_pa":"stands","capacity":2,"covered":"no","fee":"no","operator":"","nameSource":"junction"},"sourceId":"osm"},{"id":"osm:node:9982294006","latitude":50.8252254,"longitude":-0.1549954,"name":"Western Road near Norfolk Road","properties":{"access":"unknown","bicycle_pa":"stands","capacity":2,"covered":"no","fee":"no","operator":"","nameSource":"junction"},"sourceId":"osm"},{"id":"osm:node:9982294007","latitude":50.8252796,"longitude":-0.1571667,"name":"Upper Market Street near Western Road","properties":{"access":"unknown","bicycle_pa":"stands","capacity":10,"covered":"no","fee":"no","operator":"","nameSource":"junction"},"sourceId":"osm"},{"id":"osm:node:9982294008","latitude":50.8255211,"longitude":-0.1572686,"name":"Brunswick Street East near Cambridge Road","properties":{"access":"unknown","bicycle_pa":"stands","capacity":2,"covered":"no","fee":"no","operator":"","nameSource":"junction"},"sourceId":"osm"},{"id":"osm:node:9982294009","latitude":50.8256278,"longitude":-0.1580572,"name":"Western Road near Brunswick Place","properties":{"access":"unknown","bicycle_pa":"stands","capacity":2,"covered":"no","fee":"no","operator":"","nameSource":"junction"},"sourceId":"osm"},{"id":"osm:node:9982294010","latitude":50.8255778,"longitude":-0.1582865,"name":"Western Road near Brunswick Place","properties":{"access":"unknown","bicycle_pa":"stands","capacity":2,"covered":"no","fee":"no","operator":"","nameSource":"junction"},"sourceId":"osm"},{"id":"osm:node:9982294011","latitude":50.8257354,"longitude":-0.1589195,"name":"Brunswick Place near Western Road","properties":{"access":"unknown","bicycle_pa":"stands","capacity":2,"covered":"no","fee":"no","operator":"","nameSource":"junction"},"sourceId":"osm"},{"id":"osm:node:9982294012","latitude":50.8258568,"longitude":-0.1593358,"name":"Farm Road near Western Road","properties":{"access":"unknown","bicycle_pa":"stands","capacity":10,"covered":"no","fee":"no","operator":"","nameSource":"junction"},"sourceId":"osm"},{"id":"osm:node:9982294013","latitude":50.8258964,"longitude":-0.1602552,"name":"Lansdowne Place near Western Road","properties":{"access":"unknown","bicycle_pa":"stands","capacity":2,"covered":"no","fee":"no","operator":"","nameSource":"junction"},"sourceId":"osm"},{"id":"osm:node:9982294014","latitude":50.8259692,"longitude":-0.1603652,"name":"Lansdowne Place near Western Road","properties":{"access":"unknown","bicycle_pa":"stands","capacity":10,"covered":"no","fee":"no","operator":"","nameSource":"junction"},"sourceId":"osm"},{"id":"osm:node:9982294015","latitude":50.8257794,"longitude":-0.1605865,"name":"Lansdowne Place near Western Road","properties":{"access":"unknown","bicycle_pa":"stands","capacity":12,"covered":"no","fee":"no","operator":"","nameSource":"junction"},"sourceId":"osm"},{"id":"osm:node:9988612172","latitude":50.8259793,"longitude":-0.141571,"name":"Frederick Street near North Road","properties":{"access":"unknown","bicycle_pa":"stands","capacity":2,"covered":"no","fee":"no","operator":"","nameSource":"junction"},"sourceId":"osm"},{"id":"osm:node:9988612173","latitude":50.8257692,"longitude":-0.1412008,"name":"Frederick Gardens near North Road","properties":{"access":"unknown","bicycle_pa":"stands","capacity":14,"covered":"no","fee":"no","operator":"","nameSource":"junction"},"sourceId":"osm"},{"id":"osm:way:1049190862","latitude":50.84477276,"longitude":-0.11802488,"name":"Lewes Road near Huxley Lane","properties":{"access":"customers","bicycle_pa":"stands","capacity":16,"covered":"yes","fee":"no","operator":"University of Brighton","nameSource":"junction"},"sourceId":"osm"},{"id":"osm:way:1057759643","latitude":50.841867216666664,"longitude":-0.12061185000000002,"name":"Lewes Road near The Furlong","properties":{"access":"unknown","bicycle_pa":"stands","capacity":0,"covered":"","fee":"no","operator":"","nameSource":"junction"},"sourceId":"osm"},{"id":"osm:way:1059922234","latitude":50.8402679,"longitude":-0.12341401999999999,"name":"Saunders Park Terrace near Saunders Park Rise","properties":{"access":"private","bicycle_pa":"shed","capacity":0,"covered":"yes","fee":"no","operator":"","nameSource":"junction"},"sourceId":"osm"},{"id":"osm:way:1155907574","latitude":50.8371921625,"longitude":-0.157333075,"name":"The Upper Drive cycle parking","properties":{"access":"unknown","bicycle_pa":"","capacity":0,"covered":"","fee":"","operator":"","nameSource":"street"},"sourceId":"osm"},{"id":"osm:way:1158488653","latitude":50.84289866,"longitude":-0.09581976,"name":"Leybourne Road near Leybourne Parade","properties":{"access":"no","bicycle_pa":"lockers","capacity":2,"covered":"yes","fee":"","operator":"","nameSource":"junction"},"sourceId":"osm"},{"id":"osm:way:1158488654","latitude":50.842909660000004,"longitude":-0.09581956,"name":"Leybourne Road near Leybourne Parade","properties":{"access":"no","bicycle_pa":"lockers","capacity":2,"covered":"yes","fee":"","operator":"","nameSource":"junction"},"sourceId":"osm"},{"id":"osm:way:1158488655","latitude":50.84291992,"longitude":-0.09581946,"name":"Leybourne Road near Leybourne Parade","properties":{"access":"no","bicycle_pa":"lockers","capacity":2,"covered":"yes","fee":"","operator":"","nameSource":"junction"},"sourceId":"osm"},{"id":"osm:way:1158488656","latitude":50.84293032,"longitude":-0.0958193,"name":"Leybourne Road near Leybourne Parade","properties":{"access":"no","bicycle_pa":"lockers","capacity":2,"covered":"yes","fee":"","operator":"","nameSource":"junction"},"sourceId":"osm"},{"id":"osm:way:1158488657","latitude":50.84294082,"longitude":-0.09581915999999999,"name":"Leybourne Road near Leybourne Parade","properties":{"access":"no","bicycle_pa":"lockers","capacity":2,"covered":"yes","fee":"","operator":"","nameSource":"junction"},"sourceId":"osm"},{"id":"osm:way:1177661217","latitude":50.831787500000004,"longitude":-0.12373174,"name":"Wellington Street near Agnes Street","properties":{"access":"unknown","bicycle_pa":"","capacity":0,"covered":"yes","fee":"","operator":"","nameSource":"junction"},"sourceId":"osm"},{"id":"osm:way:1192656952","latitude":50.82807622,"longitude":-0.13159428,"name":"Belgrave Street near Albion Hill","properties":{"access":"unknown","bicycle_pa":"","capacity":0,"covered":"yes","fee":"","operator":"Brighton & Hove City Council","nameSource":"junction"},"sourceId":"osm"},{"id":"osm:way:1250408285","latitude":50.84496844,"longitude":-0.11779876,"name":"Lewes Road near Huxley Lane","properties":{"access":"unknown","bicycle_pa":"","capacity":0,"covered":"","fee":"","operator":"","nameSource":"junction"},"sourceId":"osm"},{"id":"osm:way:1250409456","latitude":50.8447174,"longitude":-0.11805296000000001,"name":"Huxley Lane near Lewes Road","properties":{"access":"unknown","bicycle_pa":"","capacity":0,"covered":"","fee":"","operator":"","nameSource":"junction"},"sourceId":"osm"},{"id":"osm:way:1250412330","latitude":50.844812739999995,"longitude":-0.11840971999999998,"name":"Huxley Lane near Lewes Road","properties":{"access":"unknown","bicycle_pa":"","capacity":0,"covered":"","fee":"","operator":"","nameSource":"junction"},"sourceId":"osm"},{"id":"osm:way:1302405856","latitude":50.83510428,"longitude":-0.12647521999999997,"name":"Edinburgh Road near Lewes Road","properties":{"access":"yes","bicycle_pa":"stands","capacity":14,"covered":"no","fee":"no","operator":"","nameSource":"junction"},"sourceId":"osm"},{"id":"osm:way:1303549386","latitude":50.81728128,"longitude":-0.110975,"name":"Sussex Square near Eastern Road","properties":{"access":"unknown","bicycle_pa":"stands","capacity":10,"covered":"no","fee":"","operator":"","nameSource":"junction"},"sourceId":"osm"},{"id":"osm:way:1354004538","latitude":50.846796499999996,"longitude":-0.11893302000000001,"name":"Crespin Way by Moulsecoomb","properties":{"access":"unknown","bicycle_pa":"shed","capacity":8,"covered":"","fee":"","operator":"","nameSource":"landmark"},"sourceId":"osm"},{"id":"osm:way:1376993693","latitude":50.84040736000001,"longitude":-0.11866544000000001,"name":"Buller Road","properties":{"access":"no","bicycle_pa":"lockers","capacity":6,"covered":"yes","fee":"yes","operator":"BHCC","nameSource":"source"},"sourceId":"osm"},{"id":"osm:way:1388810882","latitude":50.83505459999999,"longitude":-0.12501962,"name":"Fairlight Place near Pevensey Road","properties":{"access":"yes","bicycle_pa":"stands","capacity":10,"covered":"no","fee":"no","operator":"","nameSource":"junction"},"sourceId":"osm"},{"id":"osm:way:1472037555","latitude":50.83483776,"longitude":-0.15215472000000002,"name":"Crocodile Walk 2000 by BHASVIC Sports Centre","properties":{"access":"private","bicycle_pa":"shed","capacity":0,"covered":"yes","fee":"no","operator":"","nameSource":"landmark"},"sourceId":"osm"},{"id":"osm:way:1472037556","latitude":50.83481302,"longitude":-0.15212586,"name":"Crocodile Walk 2000 by BHASVIC Sports Centre","properties":{"access":"private","bicycle_pa":"shed","capacity":0,"covered":"yes","fee":"no","operator":"","nameSource":"landmark"},"sourceId":"osm"},{"id":"osm:way:1472037557","latitude":50.83481438,"longitude":-0.15198886,"name":"Crocodile Walk 2000 by Brighton, Hove and Sussex Sixth Form College","properties":{"access":"private","bicycle_pa":"shed","capacity":0,"covered":"yes","fee":"no","operator":"","nameSource":"landmark"},"sourceId":"osm"},{"id":"osm:way:177843287","latitude":50.82993220000001,"longitude":-0.1404801,"name":"Trafalgar Arches by Brighton Station North","properties":{"access":"unknown","bicycle_pa":"two-tier","capacity":20,"covered":"yes","fee":"","operator":"","nameSource":"landmark"},"sourceId":"osm"},{"id":"osm:way:219392533","latitude":50.827141160000004,"longitude":-0.13917876,"name":"Gloucester Road near Kensington Place","properties":{"access":"unknown","bicycle_pa":"stands","capacity":10,"covered":"no","fee":"","operator":"","nameSource":"junction"},"sourceId":"osm"},{"id":"osm:way:219392698","latitude":50.82703524,"longitude":-0.13865266,"name":"Gloucester Road near Tidy Street","properties":{"access":"unknown","bicycle_pa":"stands","capacity":10,"covered":"no","fee":"","operator":"","nameSource":"junction"},"sourceId":"osm"},{"id":"osm:way:935808356","latitude":50.82482996666666,"longitude":-0.17232816666666664,"name":"Kingsway near Fourth Avenue","properties":{"access":"unknown","bicycle_pa":"","capacity":0,"covered":"","fee":"","operator":"","nameSource":"junction"},"sourceId":"osm"},{"id":"osm:way:935808383","latitude":50.824554649999996,"longitude":-0.16969935,"name":"Kingsway near King's Gardens","properties":{"access":"unknown","bicycle_pa":"","capacity":0,"covered":"","fee":"","operator":"","nameSource":"junction"},"sourceId":"osm"},{"id":"osm:way:935808384","latitude":50.824463550000004,"longitude":-0.16891679999999998,"name":"Grand Avenue near Kingsway","properties":{"access":"unknown","bicycle_pa":"stands","capacity":12,"covered":"no","fee":"","operator":"","nameSource":"junction"},"sourceId":"osm"},{"id":"osm:way:935808385","latitude":50.82364815,"longitude":-0.16226425,"name":"Kingsway near Holland Road","properties":{"access":"unknown","bicycle_pa":"","capacity":0,"covered":"","fee":"","operator":"","nameSource":"junction"},"sourceId":"osm"},{"id":"osm:way:935808386","latitude":50.823696850000005,"longitude":-0.1625808,"name":"Brunswick Terrace near Holland Road","properties":{"access":"unknown","bicycle_pa":"","capacity":0,"covered":"","fee":"","operator":"","nameSource":"junction"},"sourceId":"osm"},{"id":"osm:way:935808387","latitude":50.82320125,"longitude":-0.1591214,"name":"Brunswick Square near Brunswick Terrace","properties":{"access":"unknown","bicycle_pa":"stands","capacity":0,"covered":"no","fee":"","operator":"","nameSource":"junction"},"sourceId":"osm"},{"id":"osm:way:935808388","latitude":50.8232843,"longitude":-0.15969935,"name":"Brunswick Terrace near Brunswick Square","properties":{"access":"unknown","bicycle_pa":"stands","capacity":0,"covered":"no","fee":"","operator":"","nameSource":"junction"},"sourceId":"osm"},{"id":"osm:way:935808390","latitude":50.8229111,"longitude":-0.15710570000000001,"name":"Brunswick Terrace near Waterloo Street","properties":{"access":"unknown","bicycle_pa":"","capacity":0,"covered":"","fee":"","operator":"","nameSource":"junction"},"sourceId":"osm"},{"id":"osm:way:935833145","latitude":50.82647284,"longitude":-0.16203331999999998,"name":"Church Road near Western Road","properties":{"access":"yes","bicycle_pa":"stands","capacity":10,"covered":"no","fee":"no","operator":"","nameSource":"junction"},"sourceId":"osm"},{"id":"osm:way:935833150","latitude":50.825599620000006,"longitude":-0.15730228,"name":"Brunswick Street East near Cambridge Road","properties":{"access":"unknown","bicycle_pa":"stands","capacity":10,"covered":"no","fee":"no","operator":"","nameSource":"junction"},"sourceId":"osm"},{"id":"osm:way:935833152","latitude":50.82501335,"longitude":-0.15323494999999998,"name":"Western Road near Bedford Place","properties":{"access":"unknown","bicycle_pa":"stands","capacity":6,"covered":"no","fee":"","operator":"","nameSource":"junction"},"sourceId":"osm"},{"id":"osm:way:972218088","latitude":50.82990224,"longitude":-0.12579558,"name":"Cobden Road near Islingword Road","properties":{"access":"unknown","bicycle_pa":"shed","capacity":0,"covered":"yes","fee":"","operator":"","nameSource":"junction"},"sourceId":"osm"},{"id":"osm:way:977660987","latitude":50.83484246,"longitude":-0.15198293999999998,"name":"Crocodile Walk 2000 by Brighton, Hove and Sussex Sixth Form College","properties":{"access":"private","bicycle_pa":"shed","capacity":0,"covered":"yes","fee":"no","operator":"","nameSource":"landmark"},"sourceId":"osm"},{"id":"osm:way:983902223","latitude":50.82881402,"longitude":-0.12943972,"name":"Lincoln Street near Southover Street","properties":{"access":"yes","bicycle_pa":"stands","capacity":10,"covered":"no","fee":"no","operator":"","nameSource":"junction"},"sourceId":"osm"}],"schemaVersion":2}
