{"key":"12/2046/1572","points":[{"id":"osm:node:10580427784","latitude":38.5297618,"longitude":-0.1608821,"name":"Avinguda de Vicent Llorca Alós cycle parking","properties":{"access":"yes","bicycle_pa":"stands","capacity":16,"covered":"no","fee":"","operator":"","nameSource":"street"},"sourceId":"osm"},{"id":"osm:node:10901470281","latitude":38.546891,"longitude":-0.1335841,"name":"Calle del Capitán Cortés near Avinguda de Beniardà","properties":{"access":"unknown","bicycle_pa":"","capacity":0,"covered":"","fee":"","operator":"","nameSource":"junction"},"sourceId":"osm"},{"id":"osm:node:13155340084","latitude":38.5332735,"longitude":-0.1076845,"name":"Avenida L'Ametlla de Mar near CV-7660","properties":{"access":"unknown","bicycle_pa":"stands","capacity":4,"covered":"no","fee":"","operator":"","nameSource":"junction"},"sourceId":"osm"},{"id":"osm:node:13538459497","latitude":38.5359893,"longitude":-0.1515436,"name":"Avinguda de Vicent Llorca Alós near Paseo Marítimo de Poniente","properties":{"access":"unknown","bicycle_pa":"wall_loops","capacity":0,"covered":"","fee":"","operator":"","nameSource":"junction"},"sourceId":"osm"},{"id":"osm:node:13538459498","latitude":38.5359871,"longitude":-0.151552,"name":"Avinguda de Vicent Llorca Alós near Paseo Marítimo de Poniente","properties":{"access":"unknown","bicycle_pa":"wall_loops","capacity":0,"covered":"","fee":"","operator":"","nameSource":"junction"},"sourceId":"osm"},{"id":"osm:node:13538459499","latitude":38.5359847,"longitude":-0.1515609,"name":"Avinguda de Vicent Llorca Alós near Paseo Marítimo de Poniente","properties":{"access":"unknown","bicycle_pa":"wall_loops","capacity":0,"covered":"","fee":"","operator":"","nameSource":"junction"},"sourceId":"osm"},{"id":"osm:node:5874127919","latitude":38.5344851,"longitude":-0.1074064,"name":"Avinguda de l'Ametlla de Mar near avenida del Mediterráneo - Avinguda del Mediterrani","properties":{"access":"unknown","bicycle_pa":"stands","capacity":4,"covered":"no","fee":"","operator":"","nameSource":"junction"},"sourceId":"osm"},{"id":"osm:node:9883689276","latitude":38.5373384,"longitude":-0.1438335,"name":"Avenida Xixo near Avinguda de l'Armada Espanyola","properties":{"access":"unknown","bicycle_pa":"","capacity":6,"covered":"","fee":"","operator":"","nameSource":"junction"},"sourceId":"osm"},{"id":"osm:way:1484654186","latitude":38.536529939999994,"longitude":-0.13296444,"name":"Passeig de l'Alcalde Don José Such Ortega near Avenida de los Almendros","properties":{"access":"yes","bicycle_pa":"stands","capacity":0,"covered":"yes","fee":"no","operator":"","nameSource":"junction"},"sourceId":"osm"},{"id":"osm:way:1493482109","latitude":38.53944746,"longitude":-0.13332845999999998,"name":"Carrer Apolo XI near Calle Apolo XI","properties":{"access":"permissive","bicycle_pa":"","capacity":0,"covered":"","fee":"","operator":"","nameSource":"junction"},"sourceId":"osm"},{"id":"osm:way:1494340853","latitude":38.53664804,"longitude":-0.13294674,"name":"Passeig de l'Alcalde Don José Such Ortega near Avenida de los Almendros","properties":{"access":"permissive","bicycle_pa":"","capacity":0,"covered":"","fee":"","operator":"","nameSource":"junction"},"sourceId":"osm"}],"schemaVersion":2}
