{"key":"12/2043/1359","points":[{"categories":["hire"],"id":"osm:node:10220707772","latitude":51.664497,"longitude":-0.392249,"name":"Hilton Reeds Crescent","properties":{"brand":"Beryl","fee":"yes","network":"Beryl","operator":"Beryl"},"sourceId":"osm"},{"categories":["hire"],"id":"osm:node:10220707773","latitude":51.662466,"longitude":-0.422735,"name":"Cassiobury Park Temp","properties":{"fee":"yes","network":"Beryl - Watford","operator":"Beryl"},"sourceId":"osm"},{"categories":["shop"],"id":"osm:node:1271588141","latitude":51.657308,"longitude":-0.3929281,"name":"The Bike Shop","properties":{},"sourceId":"osm"},{"categories":["repair"],"id":"osm:node:2802994130","latitude":51.6495482,"longitude":-0.4038144,"name":"Cycle tools and pump","properties":{},"sourceId":"osm"},{"categories":["repair"],"id":"osm:node:3529029774","latitude":51.6492745,"longitude":-0.4039026,"name":"Dero","properties":{"brand":"Dero","openingHours":"24/7"},"sourceId":"osm"},{"categories":["repair"],"id":"osm:node:762629867","latitude":51.6493078,"longitude":-0.3897991,"name":"Halfords","properties":{"brand":"Halfords","openingHours":"Mo-Fr 08:00-20:00; Sa 08:00-18:00; Su 10:00-17:00","operator":"Halfords","serviceRepair":"yes"},"sourceId":"osm"},{"categories":["hire"],"id":"osm:node:8567489102","latitude":51.6454086,"longitude":-0.417749,"name":"Tolpits Lane","properties":{"brand":"Beryl","fee":"yes","network":"Beryl","operator":"Beryl"},"sourceId":"osm"},{"categories":["hire"],"id":"osm:node:8693693630","latitude":51.6578789,"longitude":-0.399559,"name":"High Street North","properties":{"fee":"yes","network":"Beryl - Watford","operator":"Beryl"},"sourceId":"osm"},{"categories":["hire"],"id":"osm:node:8693693631","latitude":51.6537285,"longitude":-0.39174,"name":"INTU South","properties":{"fee":"yes","network":"Beryl - Watford","operator":"Beryl"},"sourceId":"osm"},{"categories":["hire"],"id":"osm:node:8693693632","latitude":51.6576576,"longitude":-0.397272,"name":"Beechen Grove","properties":{"fee":"yes","network":"Beryl - Watford","operator":"Beryl"},"sourceId":"osm"},{"categories":["hire"],"id":"osm:node:8693693633","latitude":51.6496658,"longitude":-0.404238,"name":"Watford General Hospital","properties":{"fee":"yes","network":"Beryl - Watford","operator":"Beryl"},"sourceId":"osm"},{"categories":["hire"],"id":"osm:node:8693693637","latitude":51.6466064,"longitude":-0.381911,"name":"Aldenham Road","properties":{"fee":"yes","network":"Beryl - Watford","operator":"Beryl"},"sourceId":"osm"},{"categories":["hire"],"id":"osm:node:8693693639","latitude":51.6528206,"longitude":-0.391604,"name":"High Street Station","properties":{"fee":"yes","network":"Beryl - Watford","operator":"Beryl"},"sourceId":"osm"},{"categories":["hire"],"id":"osm:node:8693693640","latitude":51.6625023,"longitude":-0.410117,"name":"Woodland Drive","properties":{"fee":"yes","network":"Beryl - Watford","operator":"Beryl"},"sourceId":"osm"},{"categories":["hire"],"id":"osm:node:8693693641","latitude":51.6464119,"longitude":-0.428743,"name":"Croxley Park","properties":{"fee":"yes","network":"Beryl - Watford","operator":"Beryl"},"sourceId":"osm"},{"categories":["hire"],"id":"osm:node:8693707307","latitude":51.6548119,"longitude":-0.398021,"name":"Market Street","properties":{"fee":"yes","network":"Beryl - Watford","operator":"Beryl"},"sourceId":"osm"},{"categories":["hire"],"id":"osm:node:8693707308","latitude":51.6605415,"longitude":-0.404653,"name":"Central Leisure Centre","properties":{"fee":"yes","network":"Beryl - Watford","operator":"Beryl"},"sourceId":"osm"},{"categories":["hire"],"id":"osm:node:8693707309","latitude":51.6722031,"longitude":-0.412251,"name":"Hawthorn Close","properties":{"fee":"yes","network":"Beryl - Watford","operator":"Beryl"},"sourceId":"osm"},{"categories":["hire"],"id":"osm:node:8693707311","latitude":51.6648865,"longitude":-0.405097,"name":"Langley Road","properties":{"fee":"yes","network":"Beryl - Watford","operator":"Beryl"},"sourceId":"osm"},{"categories":["hire"],"id":"osm:node:8693707312","latitude":51.6539536,"longitude":-0.394227,"name":"King Street","properties":{"fee":"yes","network":"Beryl - Watford","operator":"Beryl"},"sourceId":"osm"},{"categories":["hire"],"id":"osm:node:8693707313","latitude":51.6522331,"longitude":-0.399796,"name":"Vicarage Road Shops","properties":{"fee":"yes","network":"Beryl - Watford","operator":"Beryl"},"sourceId":"osm"},{"categories":["hire"],"id":"osm:node:8693707314","latitude":51.6694679,"longitude":-0.39751,"name":"Hatfield Road","properties":{"fee":"yes","network":"Beryl - Watford","operator":"Beryl"},"sourceId":"osm"},{"categories":["hire"],"id":"osm:node:8693707317","latitude":51.6719093,"longitude":-0.416296,"name":"Wentworth Close","properties":{"fee":"yes","network":"Beryl - Watford","operator":"Beryl"},"sourceId":"osm"},{"categories":["hire"],"id":"osm:node:8693707318","latitude":51.6714897,"longitude":-0.392635,"name":"The Gym","properties":{"brand":"Beryl","fee":"yes","network":"Beryl","operator":"Beryl"},"sourceId":"osm"},{"categories":["hire"],"id":"osm:node:8693707320","latitude":51.6666527,"longitude":-0.385542,"name":"Watford Rugby Club","properties":{"brand":"Beryl","fee":"yes","network":"Beryl","operator":"Beryl"},"sourceId":"osm"},{"categories":["hire"],"id":"osm:node:8693707321","latitude":51.6465721,"longitude":-0.391179,"name":"Oxhey Activity Park","properties":{"fee":"yes","network":"Beryl - Watford","operator":"Beryl"},"sourceId":"osm"},{"categories":["hire"],"id":"osm:node:8693707322","latitude":51.6567535,"longitude":-0.407639,"name":"Park Avenue","properties":{"fee":"yes","network":"Beryl - Watford","operator":"Beryl"},"sourceId":"osm"},{"categories":["hire"],"id":"osm:node:8693707323","latitude":51.6564102,"longitude":-0.393175,"name":"Queen's Road","properties":{"fee":"yes","network":"Beryl - Watford","operator":"Beryl"},"sourceId":"osm"},{"categories":["hire"],"id":"osm:node:8693707324","latitude":51.6672401,"longitude":-0.417658,"name":"Cassiobury Drive","properties":{"fee":"yes","network":"Beryl - Watford","operator":"Beryl"},"sourceId":"osm"},{"categories":["hire"],"id":"osm:node:8693707325","latitude":51.6601522,"longitude":-0.4219836,"name":"Cassiobury Park Car Park","properties":{"fee":"yes","network":"Beryl - Watford","operator":"Beryl"},"sourceId":"osm"},{"categories":["hire"],"id":"osm:node:8693707327","latitude":51.6548767,"longitude":-0.395533,"name":"St. Mary's Church","properties":{"fee":"yes","network":"Beryl - Watford","operator":"Beryl"},"sourceId":"osm"},{"categories":["hire"],"id":"osm:node:8693707329","latitude":51.6422691,"longitude":-0.416542,"name":"Watford Cycle Hub","properties":{"fee":"yes","network":"Beryl - Watford","operator":"Beryl"},"sourceId":"osm"},{"categories":["hire"],"id":"osm:node:8693707331","latitude":51.6557426,"longitude":-0.417421,"name":"Station Approach","properties":{"fee":"yes","network":"Beryl - Watford","operator":"Beryl"},"sourceId":"osm"},{"categories":["hire"],"id":"osm:node:8693707332","latitude":51.6455116,"longitude":-0.395554,"name":"Riverside Recreation Ground","properties":{"fee":"yes","network":"Beryl - Watford","operator":"Beryl"},"sourceId":"osm"},{"categories":["hire"],"id":"osm:node:8693707333","latitude":51.6569061,"longitude":-0.39831,"name":"High Street Central","properties":{"fee":"yes","network":"Beryl - Watford","operator":"Beryl"},"sourceId":"osm"},{"categories":["hire"],"id":"osm:node:8693707338","latitude":51.6427193,"longitude":-0.394013,"name":"Eastbury Road","properties":{"fee":"yes","network":"Beryl - Watford","operator":"Beryl"},"sourceId":"osm"},{"categories":["hire"],"id":"osm:node:8693707340","latitude":51.6532288,"longitude":-0.391921,"name":"The Pyramid","properties":{"fee":"yes","network":"Beryl - Watford","operator":"Beryl"},"sourceId":"osm"},{"categories":["hire"],"id":"osm:node:8693707345","latitude":51.6695213,"longitude":-0.399639,"name":"Lowestoft Road","properties":{"fee":"yes","network":"Beryl - Watford","operator":"Beryl"},"sourceId":"osm"},{"categories":["hire"],"id":"osm:node:8693707346","latitude":51.6410141,"longitude":-0.427559,"name":"Camelot","properties":{"fee":"yes","network":"Beryl - Watford","operator":"Beryl"},"sourceId":"osm"},{"categories":["hire"],"id":"osm:node:8693707347","latitude":51.6638489,"longitude":-0.398771,"name":"Station Road","properties":{"fee":"yes","network":"Beryl - Watford","operator":"Beryl"},"sourceId":"osm"},{"categories":["hire"],"id":"osm:node:8693707348","latitude":51.6656532,"longitude":-0.387776,"name":"Rhodes Way","properties":{"brand":"Beryl","fee":"yes","network":"Beryl","operator":"Beryl"},"sourceId":"osm"},{"categories":["hire"],"id":"osm:node:8693707350","latitude":51.663172,"longitude":-0.408194,"name":"Stratford Road","properties":{"fee":"yes","network":"Beryl - Watford","operator":"Beryl"},"sourceId":"osm"},{"categories":["hire"],"id":"osm:node:8693707351","latitude":51.6636314,"longitude":-0.397037,"name":"Watford Junction","properties":{"fee":"yes","network":"Beryl - Watford","operator":"Beryl"},"sourceId":"osm"},{"categories":["hire"],"id":"osm:node:9613107534","latitude":51.6718674,"longitude":-0.396387,"name":"St Albans Road/Ridge Street","properties":{"fee":"yes","network":"Beryl - Watford","operator":"Beryl"},"sourceId":"osm"},{"categories":["hire"],"id":"osm:node:9613107535","latitude":51.6609192,"longitude":-0.397121,"name":"Clarendon Road","properties":{"fee":"yes","network":"Beryl - Watford","operator":"Beryl"},"sourceId":"osm"},{"categories":["hire"],"id":"osm:node:9613107537","latitude":51.6707191,"longitude":-0.388674,"name":"Balmoral Road","properties":{"brand":"Beryl","fee":"yes","network":"Beryl","operator":"Beryl"},"sourceId":"osm"},{"categories":["hire"],"id":"osm:node:9613107539","latitude":51.651722,"longitude":-0.39035,"name":"Lower High Street","properties":{"fee":"yes","network":"Beryl - Watford","operator":"Beryl"},"sourceId":"osm"},{"categories":["hire"],"id":"osm:node:9613107540","latitude":51.6603012,"longitude":-0.40001,"name":"Beechen Grove North","properties":{"fee":"yes","network":"Beryl - Watford","operator":"Beryl"},"sourceId":"osm"},{"categories":["hire"],"id":"osm:node:9613107543","latitude":51.6424789,"longitude":-0.376962,"name":"Oxhey Green","properties":{"fee":"yes","network":"Beryl - Watford","operator":"Beryl"},"sourceId":"osm"},{"categories":["shop"],"id":"osm:node:963701073","latitude":51.6522978,"longitude":-0.3998449,"name":"Neale & Sons Cycle Centre","properties":{},"sourceId":"osm"},{"categories":["hire"],"id":"osm:way:921774074","latitude":51.65802664,"longitude":-0.41456606,"name":"Cha Café","properties":{"fee":"yes","network":"Beryl - Watford","operator":"Beryl"},"sourceId":"osm"},{"categories":["hire"],"id":"osm:way:921774075","latitude":51.65873352,"longitude":-0.41515710000000006,"name":"Cassiobury Park Central","properties":{"fee":"yes","network":"Beryl - Watford","operator":"Beryl"},"sourceId":"osm"},{"categories":["hire"],"id":"osm:way:921776775","latitude":51.6578111,"longitude":-0.40600726,"name":"Cassiobury Park East","properties":{"fee":"yes","network":"Beryl - Watford","operator":"Beryl"},"sourceId":"osm"},{"categories":["hire"],"id":"osm:way:921776776","latitude":51.65972882000001,"longitude":-0.4031687,"name":"Town Hall","properties":{"fee":"yes","network":"Beryl - Watford","operator":"Beryl"},"sourceId":"osm"},{"categories":["hire"],"id":"osm:way:921776777","latitude":51.65352667999999,"longitude":-0.42467059999999995,"name":"Cassio Common","properties":{"fee":"yes","network":"Beryl - Watford","operator":"Beryl"},"sourceId":"osm"},{"categories":["hire"],"id":"osm:way:930336198","latitude":51.650764,"longitude":-0.411546725,"name":"Whippendell Road","properties":{"fee":"yes","network":"Beryl - Watford","operator":"Beryl"},"sourceId":"osm"},{"categories":["shop","repair","hire"],"id":"osm:way:96597060","latitude":51.64226215000001,"longitude":-0.416462175,"name":"Watford Cycle Hub & Cafe","properties":{"openingHours":"Tu-Sa 09:00-17:00","serviceRental":"yes","serviceRepair":"yes"},"sourceId":"osm"}],"schemaVersion":2}
