{"key":"12/2043/1374","points":[{"categories":["hire"],"id":"osm:node:11038067527","latitude":50.8053125,"longitude":-0.4223629,"name":"Sea Lane Cafe","properties":{"fee":"yes","network":"Adur&Worthing","operator":"Donkey Republic"},"sourceId":"osm"},{"categories":["hire"],"id":"osm:node:11038067528","latitude":50.8122533,"longitude":-0.4217754,"name":"Goring Road (Mulberry Lane)","properties":{"fee":"yes","network":"Adur&Worthing","operator":"Donkey Republic"},"sourceId":"osm"},{"categories":["hire"],"id":"osm:node:11038067531","latitude":50.8137223,"longitude":-0.4012424,"name":"Goring Road (Elm Grove)","properties":{"fee":"yes","network":"Adur&Worthing","operator":"Donkey Republic"},"sourceId":"osm"},{"categories":["hire"],"id":"osm:node:11038067532","latitude":50.8182561,"longitude":-0.3935035,"name":"West Worthing Station","properties":{"fee":"yes","network":"Adur&Worthing","operator":"Donkey Republic"},"sourceId":"osm"},{"categories":["hire"],"id":"osm:node:11038067535","latitude":50.8117765,"longitude":-0.3673916,"name":"Steyne Gardens","properties":{"fee":"yes","network":"Adur&Worthing","operator":"Donkey Republic"},"sourceId":"osm"},{"categories":["hire"],"id":"osm:node:11038067536","latitude":50.8097071,"longitude":-0.3694206,"name":"Pavilion Theatre","properties":{"fee":"yes","network":"Adur&Worthing","operator":"Donkey Republic"},"sourceId":"osm"},{"categories":["hire"],"id":"osm:node:11038067537","latitude":50.8205638,"longitude":-0.3543037,"name":"East Worthing Station","properties":{"brand":"Donkey Republic","fee":"yes","network":"Adur&Worthing","operator":"Donkey Republic"},"sourceId":"osm"},{"categories":["hire"],"id":"osm:node:11329614834","latitude":50.8184294,"longitude":-0.3758032,"name":"Worthing Station","properties":{"brand":"Donkey Republic","fee":"yes","network":"Adur&Worthing","operator":"Donkey Republic"},"sourceId":"osm"},{"categories":["hire"],"id":"osm:node:7707833143","latitude":50.8077632,"longitude":-0.3820097,"name":"Promenade (The Burlington Hotel)","properties":{"fee":"yes","network":"Adur&Worthing","operator":"Donkey Republic"},"sourceId":"osm"},{"categories":["hire"],"id":"osm:node:7707833146","latitude":50.81056,"longitude":-0.3640658,"name":"Donkey Republic","properties":{"network":"Donkey Republic","operator":"Donkey Republic"},"sourceId":"osm"},{"categories":["hire"],"id":"osm:node:7707833148","latitude":50.8127218,"longitude":-0.3548699,"name":"Windsor Lawns","properties":{"fee":"yes","network":"Adur&Worthing","operator":"Donkey Republic"},"sourceId":"osm"},{"categories":["hire"],"id":"osm:node:7707833155","latitude":50.8091742,"longitude":-0.3720072,"name":"Promenade (Worthing Lido)","properties":{"fee":"yes","network":"Adur&Worthing","operator":"Donkey Republic"},"sourceId":"osm"},{"categories":["shop"],"id":"osm:way:1002686107","latitude":50.83468051999999,"longitude":-0.41446284,"name":"Durrington Community Cycle Project","properties":{},"sourceId":"osm"},{"categories":["shop"],"id":"osm:way:991978627","latitude":50.81820527142857,"longitude":-0.38740104285714283,"name":"TMS Bikes","properties":{"openingHours":"Mo,Tu,Th,Fr,Sa 09:00-16:30; Su,We off"},"sourceId":"osm"},{"categories":["shop"],"id":"osm:way:996016092","latitude":50.812001716666664,"longitude":-0.42174601666666667,"name":"South Downs Bikes","properties":{"openingHours":"Mo-Fr 09:00-18:00; Sa 09:00-17:00; Su off"},"sourceId":"osm"}],"schemaVersion":2}
