{"key":"12/2043/1518","points":[{"categories":["shop"],"id":"osm:node:3391478597","latitude":42.1312138,"longitude":-0.4048438,"name":"Bici Factor","properties":{},"sourceId":"osm"},{"categories":["shop"],"id":"osm:node:3397891978","latitude":42.1337918,"longitude":-0.4090135,"name":"Ciclos Nueno","properties":{},"sourceId":"osm"},{"categories":["shop"],"id":"osm:node:4682091705","latitude":42.1367326,"longitude":-0.4033465,"name":"Cored","properties":{},"sourceId":"osm"},{"categories":["shop"],"id":"osm:node:8324355996","latitude":42.1356742,"longitude":-0.4156413,"name":"Ciclos Alonso","properties":{},"sourceId":"osm"},{"categories":["shop"],"id":"osm:node:8527722568","latitude":42.1354748,"longitude":-0.4118131,"name":"Osca Bike","properties":{},"sourceId":"osm"}],"schemaVersion":2}
