{"key":"12/2022/1325","points":[{"categories":["hire"],"id":"osm:node:10012048420","latitude":53.4849683,"longitude":-2.2453665,"name":"Manchester Cathedral","properties":{"brand":"Beryl","fee":"yes","network":"Beryl","operator":"Beryl"},"sourceId":"osm"},{"categories":["hire"],"id":"osm:node:10019089295","latitude":53.4856096,"longitude":-2.230769,"name":"Oldham Road/Cornell Street","properties":{"fee":"yes","network":"tfgm_cycle_hire","operator":"Beryl"},"sourceId":"osm"},{"categories":["hire"],"id":"osm:node:10019089304","latitude":53.4833386,"longitude":-2.2298713,"name":"Great Ancoats Street","properties":{"fee":"yes","network":"tfgm_cycle_hire","operator":"Beryl"},"sourceId":"osm"},{"categories":["hire"],"id":"osm:node:10141407433","latitude":53.4738486,"longitude":-2.2795073,"name":"Phoebe Street","properties":{"brand":"Beryl","fee":"yes","network":"Beryl","operator":"Beryl"},"sourceId":"osm"},{"categories":["hire"],"id":"osm:node:10141407437","latitude":53.4746483,"longitude":-2.2670544,"name":"South Hall Street","properties":{"fee":"yes","network":"tfgm_cycle_hire","operator":"Beryl"},"sourceId":"osm"},{"categories":["hire"],"id":"osm:node:10205051615","latitude":53.4787775,"longitude":-2.2528022,"name":"ABC Buildings","properties":{"fee":"yes","network":"tfgm_cycle_hire","operator":"Beryl"},"sourceId":"osm"},{"categories":["hire"],"id":"osm:node:10205084024","latitude":53.479567,"longitude":-2.249802,"name":"Hardman Street","properties":{"brand":"Beryl","fee":"yes","network":"Beryl","operator":"Beryl"},"sourceId":"osm"},{"categories":["hire"],"id":"osm:node:10205084025","latitude":53.484803,"longitude":-2.256625,"name":"Frederick Street","properties":{"fee":"yes","network":"tfgm_cycle_hire","operator":"Beryl"},"sourceId":"osm"},{"categories":["hire"],"id":"osm:node:10205084026","latitude":53.467239,"longitude":-2.235462,"name":"University Shopping Centre","properties":{"fee":"yes","network":"tfgm_cycle_hire","operator":"Beryl"},"sourceId":"osm"},{"categories":["hire"],"id":"osm:node:10205095962","latitude":53.475543,"longitude":-2.242257,"name":"Bridgewater House","properties":{"brand":"Beryl","fee":"yes","network":"Beryl","operator":"Beryl"},"sourceId":"osm"},{"categories":["hire"],"id":"osm:node:10205095963","latitude":53.453261,"longitude":-2.273494,"name":"Brook’s Road","properties":{"fee":"yes","network":"tfgm_cycle_hire","operator":"Beryl"},"sourceId":"osm"},{"categories":["hire"],"id":"osm:node:10205095964","latitude":53.486892,"longitude":-2.264463,"name":"Silk Street/Cannon Street","properties":{"fee":"yes","network":"tfgm_cycle_hire","operator":"Beryl"},"sourceId":"osm"},{"categories":["hire"],"id":"osm:node:10205095965","latitude":53.449285,"longitude":-2.257737,"name":"Burford Road","properties":{"fee":"yes","network":"tfgm_cycle_hire","operator":"Beryl"},"sourceId":"osm"},{"categories":["hire"],"id":"osm:node:10205096017","latitude":53.457802,"longitude":-2.240999,"name":"Moss Lane E/Raby Street","properties":{"fee":"yes","network":"tfgm_cycle_hire","operator":"Beryl"},"sourceId":"osm"},{"categories":["hire"],"id":"osm:node:10205096018","latitude":53.451531,"longitude":-2.280255,"name":"Warwick Road South/Rye Bank Road","properties":{"fee":"yes","network":"tfgm_cycle_hire","operator":"Beryl"},"sourceId":"osm"},{"categories":["hire"],"id":"osm:node:10205096021","latitude":53.482743,"longitude":-2.258155,"name":"The Ainscow","properties":{"fee":"yes","network":"tfgm_cycle_hire","operator":"Beryl"},"sourceId":"osm"},{"categories":["hire"],"id":"osm:node:10205151638","latitude":53.476073,"longitude":-2.23566,"name":"Sackville Street","properties":{"brand":"Beryl","fee":"yes","network":"Beryl","operator":"Beryl"},"sourceId":"osm"},{"categories":["hire"],"id":"osm:node:10205151639","latitude":53.475792,"longitude":-2.231197,"name":"Altrincham Street","properties":{"brand":"Beryl","fee":"yes","network":"Beryl","operator":"Beryl"},"sourceId":"osm"},{"categories":["hire"],"id":"osm:node:10205151640","latitude":53.479168,"longitude":-2.232,"name":"Ducie Street","properties":{"brand":"Beryl","fee":"yes","network":"Beryl","operator":"Beryl"},"sourceId":"osm"},{"categories":["hire"],"id":"osm:node:10205151642","latitude":53.474106,"longitude":-2.237044,"name":"Princess Street/Charles Street","properties":{"fee":"yes","network":"tfgm_cycle_hire","operator":"Beryl"},"sourceId":"osm"},{"categories":["hire"],"id":"osm:node:10205151644","latitude":53.469023,"longitude":-2.236341,"name":"Rosamond Street West","properties":{"fee":"yes","network":"tfgm_cycle_hire","operator":"Beryl"},"sourceId":"osm"},{"categories":["hire"],"id":"osm:node:10205151645","latitude":53.46274,"longitude":-2.230018,"name":"Oxford Road/Dilworth Street","properties":{"fee":"yes","network":"tfgm_cycle_hire","operator":"Beryl"},"sourceId":"osm"},{"categories":["hire"],"id":"osm:node:10205151646","latitude":53.465522,"longitude":-2.257952,"name":"Chorlton Road/Stretford Road","properties":{"fee":"yes","network":"tfgm_cycle_hire","operator":"Beryl"},"sourceId":"osm"},{"categories":["hire"],"id":"osm:node:10205151647","latitude":53.47136,"longitude":-2.238042,"name":"HATCH","properties":{"fee":"yes","network":"tfgm_cycle_hire","operator":"Beryl"},"sourceId":"osm"},{"categories":["hire"],"id":"osm:node:10205151648","latitude":53.456814,"longitude":-2.258649,"name":"Whalley Road/Withington Road","properties":{"fee":"yes","network":"tfgm_cycle_hire","operator":"Beryl"},"sourceId":"osm"},{"categories":["hire"],"id":"osm:node:10205151649","latitude":53.476951,"longitude":-2.233809,"name":"Aytoun Street","properties":{"brand":"Beryl","fee":"yes","network":"Beryl","operator":"Beryl"},"sourceId":"osm"},{"categories":["hire"],"id":"osm:node:10205151650","latitude":53.460218,"longitude":-2.227839,"name":"The Whitworth Museum","properties":{"fee":"yes","network":"tfgm_cycle_hire","operator":"Beryl"},"sourceId":"osm"},{"categories":["hire"],"id":"osm:node:10205151652","latitude":53.487739,"longitude":-2.263104,"name":"Silk Street","properties":{"fee":"yes","network":"tfgm_cycle_hire","operator":"Beryl"},"sourceId":"osm"},{"categories":["hire"],"id":"osm:node:10205151653","latitude":53.467099,"longitude":-2.25018,"name":"Ascension Church Hulme","properties":{"fee":"yes","network":"tfgm_cycle_hire","operator":"Beryl"},"sourceId":"osm"},{"categories":["hire"],"id":"osm:node:10205151654","latitude":53.47257,"longitude":-2.239108,"name":"Circle Square/Oxford Road","properties":{"fee":"yes","network":"tfgm_cycle_hire","operator":"Beryl"},"sourceId":"osm"},{"categories":["hire"],"id":"osm:node:10205151655","latitude":53.470612,"longitude":-2.237661,"name":"All Saints Park I","properties":{"fee":"yes","network":"tfgm_cycle_hire","operator":"Beryl"},"sourceId":"osm"},{"categories":["hire"],"id":"osm:node:10205151656","latitude":53.48582,"longitude":-2.276189,"name":"Salford Crescent Station Main Entrance","properties":{"fee":"yes","network":"tfgm_cycle_hire","operator":"Beryl"},"sourceId":"osm"},{"categories":["hire"],"id":"osm:node:10205151657","latitude":53.487961,"longitude":-2.273358,"name":"University of Salford - Library Café","properties":{"fee":"yes","network":"tfgm_cycle_hire","operator":"Beryl"},"sourceId":"osm"},{"categories":["hire"],"id":"osm:node:10205201408","latitude":53.460463,"longitude":-2.235286,"name":"Denmark Road Sport Centre","properties":{"fee":"yes","network":"tfgm_cycle_hire","operator":"Beryl"},"sourceId":"osm"},{"categories":["hire"],"id":"osm:node:10205201410","latitude":53.446282,"longitude":-2.23365,"name":"Whitmore Road/Hart Road","properties":{"fee":"yes","network":"tfgm_cycle_hire","operator":"Beryl"},"sourceId":"osm"},{"categories":["hire"],"id":"osm:node:10205201411","latitude":53.442895,"longitude":-2.222745,"name":"Wilbraham Road/Wellington Road","properties":{"fee":"yes","network":"tfgm_cycle_hire","operator":"Beryl"},"sourceId":"osm"},{"categories":["hire"],"id":"osm:node:10205201412","latitude":53.467813,"longitude":-2.258054,"name":"Royce Road/Chorlton Road","properties":{"fee":"yes","network":"tfgm_cycle_hire","operator":"Beryl"},"sourceId":"osm"},{"categories":["hire"],"id":"osm:node:10205201413","latitude":53.4827655,"longitude":-2.2621105,"name":"Islington Way","properties":{"fee":"yes","network":"tfgm_cycle_hire","operator":"Beryl"},"sourceId":"osm"},{"categories":["hire"],"id":"osm:node:10205201414","latitude":53.462933,"longitude":-2.268418,"name":"Stanley Road/Northumberland Road","properties":{"fee":"yes","network":"tfgm_cycle_hire","operator":"Beryl"},"sourceId":"osm"},{"categories":["hire"],"id":"osm:node:10205201415","latitude":53.4717039,"longitude":-2.2821177,"name":"Ordsall Park South","properties":{"brand":"Beryl","fee":"yes","network":"Beryl","operator":"Beryl"},"sourceId":"osm"},{"categories":["hire"],"id":"osm:node:10205201416","latitude":53.461496,"longitude":-2.265129,"name":"Stamford Street/Blackburn Street","properties":{"fee":"yes","network":"tfgm_cycle_hire","operator":"Beryl"},"sourceId":"osm"},{"categories":["hire"],"id":"osm:node:10205202412","latitude":53.484746,"longitude":-2.272844,"name":"Salford Museum and Art Gallery","properties":{"fee":"yes","network":"tfgm_cycle_hire","operator":"Beryl"},"sourceId":"osm"},{"categories":["hire"],"id":"osm:node:10205202414","latitude":53.469117,"longitude":-2.240329,"name":"MMU - Cambridge Hall","properties":{"fee":"yes","network":"tfgm_cycle_hire","operator":"Beryl"},"sourceId":"osm"},{"categories":["hire"],"id":"osm:node:10205202415","latitude":53.484521,"longitude":-2.2711998,"name":"University of Salford - Maxwell Hall Building","properties":{"fee":"yes","network":"tfgm_cycle_hire","operator":"Beryl"},"sourceId":"osm"},{"categories":["hire"],"id":"osm:node:10205202416","latitude":53.483117,"longitude":-2.268917,"name":"The Crescent/Humphrey Booth House","properties":{"fee":"yes","network":"tfgm_cycle_hire","operator":"Beryl"},"sourceId":"osm"},{"categories":["hire"],"id":"osm:node:10205274219","latitude":53.45773,"longitude":-2.231539,"name":"Whitworth Park Southwest","properties":{"fee":"yes","network":"tfgm_cycle_hire","operator":"Beryl"},"sourceId":"osm"},{"categories":["hire"],"id":"osm:node:10205274220","latitude":53.444686,"longitude":-2.218283,"name":"Fallowfield Campus","properties":{"fee":"yes","network":"tfgm_cycle_hire","operator":"Beryl"},"sourceId":"osm"},{"categories":["hire"],"id":"osm:node:10205274221","latitude":53.46157,"longitude":-2.276602,"name":"Trafford Bar Metrolink","properties":{"fee":"yes","network":"tfgm_cycle_hire","operator":"Beryl"},"sourceId":"osm"},{"categories":["hire"],"id":"osm:node:10205274223","latitude":53.4629,"longitude":-2.272811,"name":"Stretford Road","properties":{"fee":"yes","network":"tfgm_cycle_hire","operator":"Beryl"},"sourceId":"osm"},{"categories":["hire"],"id":"osm:node:10205274224","latitude":53.478737,"longitude":-2.238676,"name":"Charlotte St/Portland St","properties":{"fee":"yes","network":"tfgm_cycle_hire","operator":"Beryl"},"sourceId":"osm"},{"categories":["hire"],"id":"osm:node:10205274225","latitude":53.485324,"longitude":-2.2289583,"name":"Sherratt Street","properties":{"brand":"Beryl","fee":"yes","network":"Beryl","operator":"Beryl"},"sourceId":"osm"},{"categories":["hire"],"id":"osm:node:10205274226","latitude":53.48161,"longitude":-2.24203,"name":"Marriotts Court","properties":{"brand":"Beryl","fee":"yes","network":"Beryl","operator":"Beryl"},"sourceId":"osm"},{"categories":["hire"],"id":"osm:node:10205274227","latitude":53.440315,"longitude":-2.219095,"name":"Egerton Road","properties":{"fee":"yes","network":"tfgm_cycle_hire","operator":"Beryl"},"sourceId":"osm"},{"categories":["hire"],"id":"osm:node:10205274228","latitude":53.473717,"longitude":-2.233665,"name":"The Masdar Building","properties":{"fee":"yes","network":"tfgm_cycle_hire","operator":"Beryl"},"sourceId":"osm"},{"categories":["hire"],"id":"osm:node:10205294217","latitude":53.478764,"longitude":-2.229614,"name":"Store Street","properties":{"fee":"yes","network":"tfgm_cycle_hire","operator":"Beryl"},"sourceId":"osm"},{"categories":["hire"],"id":"osm:node:10205294219","latitude":53.47866,"longitude":-2.262468,"name":"Middlewood Street","properties":{"fee":"yes","network":"tfgm_cycle_hire","operator":"Beryl"},"sourceId":"osm"},{"categories":["hire"],"id":"osm:node:10205294221","latitude":53.481068,"longitude":-2.235467,"name":"Piccadilly Gardens I","properties":{"fee":"yes","network":"tfgm_cycle_hire","operator":"Beryl"},"sourceId":"osm"},{"categories":["hire"],"id":"osm:node:10205294222","latitude":53.464289,"longitude":-2.265552,"name":"East Union Street","properties":{"fee":"yes","network":"tfgm_cycle_hire","operator":"Beryl"},"sourceId":"osm"},{"categories":["hire"],"id":"osm:node:10205294223","latitude":53.444278,"longitude":-2.211219,"name":"Armitage Centre","properties":{"fee":"yes","network":"tfgm_cycle_hire","operator":"Beryl"},"sourceId":"osm"},{"categories":["hire"],"id":"osm:node:10205294224","latitude":53.481004,"longitude":-2.22422,"name":"Old Mill Street","properties":{"brand":"Beryl","fee":"yes","network":"Beryl","operator":"Beryl"},"sourceId":"osm"},{"categories":["hire"],"id":"osm:node:10205294228","latitude":53.458974,"longitude":-2.227392,"name":"Wilmslow Park","properties":{"fee":"yes","network":"tfgm_cycle_hire","operator":"Beryl"},"sourceId":"osm"},{"categories":["hire"],"id":"osm:node:10205294229","latitude":53.480668,"longitude":-2.240777,"name":"Fountain Street","properties":{"brand":"Bee Network","fee":"yes","network":"tfgm_cycle_hire","operator":"Beryl"},"sourceId":"osm"},{"categories":["hire"],"id":"osm:node:10205294231","latitude":53.467378,"longitude":-2.245159,"name":"Bonsall Street Bridge","properties":{"fee":"yes","network":"tfgm_cycle_hire","operator":"Beryl"},"sourceId":"osm"},{"categories":["hire"],"id":"osm:node:10205294232","latitude":53.478764,"longitude":-2.23292,"name":"London Road/Auburn Street","properties":{"brand":"Beryl","fee":"yes","network":"Beryl","operator":"Beryl"},"sourceId":"osm"},{"categories":["hire"],"id":"osm:node:10205294233","latitude":53.4759232,"longitude":-2.2380667,"name":"Princess Street/Rochdale Canal","properties":{"brand":"Beryl","fee":"yes","network":"Beryl","operator":"Beryl"},"sourceId":"osm"},{"categories":["hire"],"id":"osm:node:10205294234","latitude":53.446843,"longitude":-2.218067,"name":"Old Hall Lane","properties":{"fee":"yes","network":"tfgm_cycle_hire","operator":"Beryl"},"sourceId":"osm"},{"categories":["hire"],"id":"osm:node:10205294235","latitude":53.476011,"longitude":-2.2368124,"name":"Manchester New Square","properties":{"brand":"Beryl","fee":"yes","network":"Beryl","operator":"Beryl"},"sourceId":"osm"},{"categories":["hire"],"id":"osm:node:10205294236","latitude":53.457687,"longitude":-2.222267,"name":"Oxford Place","properties":{"brand":"Beryl","fee":"yes","network":"Beryl","operator":"Beryl"},"sourceId":"osm"},{"categories":["hire"],"id":"osm:node:10207623344","latitude":53.447214,"longitude":-2.236043,"name":"Hart Road/Platt Lane","properties":{"fee":"yes","network":"tfgm_cycle_hire","operator":"Beryl"},"sourceId":"osm"},{"categories":["hire"],"id":"osm:node:10207623345","latitude":53.475697,"longitude":-2.282625,"name":"Trafford Road/Jennings Avenue","properties":{"fee":"yes","network":"tfgm_cycle_hire","operator":"Beryl"},"sourceId":"osm"},{"categories":["hire"],"id":"osm:node:10207623346","latitude":53.48581,"longitude":-2.246643,"name":"Greengate Embankment","properties":{"fee":"yes","network":"tfgm_cycle_hire","operator":"Beryl"},"sourceId":"osm"},{"categories":["hire"],"id":"osm:node:10207623347","latitude":53.483392,"longitude":-2.265379,"name":"The Old Pint Pot","properties":{"fee":"yes","network":"tfgm_cycle_hire","operator":"Beryl"},"sourceId":"osm"},{"categories":["hire"],"id":"osm:node:10207623348","latitude":53.483357,"longitude":-2.245202,"name":"St Mary’s Gate/New Cathedral Street","properties":{"brand":"Beryl","fee":"yes","network":"Beryl","operator":"Beryl"},"sourceId":"osm"},{"categories":["hire"],"id":"osm:node:10207623349","latitude":53.443651,"longitude":-2.230244,"name":"Yew Tree Crescent","properties":{"fee":"yes","network":"tfgm_cycle_hire","operator":"Beryl"},"sourceId":"osm"},{"categories":["hire"],"id":"osm:node:10207623350","latitude":53.446427,"longitude":-2.238963,"name":"Fallowfield Library","properties":{"fee":"yes","network":"tfgm_cycle_hire","operator":"Beryl"},"sourceId":"osm"},{"categories":["hire"],"id":"osm:node:10207623351","latitude":53.485024,"longitude":-2.232242,"name":"Oldham Road/Great Ancoats Street","properties":{"fee":"yes","network":"tfgm_cycle_hire","operator":"Beryl"},"sourceId":"osm"},{"categories":["hire"],"id":"osm:node:10207623352","latitude":53.47355,"longitude":-2.251766,"name":"Deansgate/Commercial Street","properties":{"fee":"yes","network":"tfgm_cycle_hire","operator":"Beryl"},"sourceId":"osm"},{"categories":["hire"],"id":"osm:node:10207623353","latitude":53.465319,"longitude":-2.260495,"name":"Lucy Street","properties":{"fee":"yes","network":"tfgm_cycle_hire","operator":"Beryl"},"sourceId":"osm"},{"categories":["hire"],"id":"osm:node:10207623355","latitude":53.481653,"longitude":-2.24755,"name":"House of Fraser","properties":{"brand":"Beryl","fee":"yes","network":"Beryl","operator":"Beryl"},"sourceId":"osm"},{"categories":["hire"],"id":"osm:node:10207623356","latitude":53.457346,"longitude":-2.274508,"name":"Ayres Road","properties":{"fee":"yes","network":"tfgm_cycle_hire","operator":"Beryl"},"sourceId":"osm"},{"categories":["hire"],"id":"osm:node:10207623357","latitude":53.450528,"longitude":-2.238729,"name":"The Parkside","properties":{"fee":"yes","network":"tfgm_cycle_hire","operator":"Beryl"},"sourceId":"osm"},{"categories":["hire"],"id":"osm:node:10207623358","latitude":53.451169,"longitude":-2.236843,"name":"Maine Road","properties":{"fee":"yes","network":"tfgm_cycle_hire","operator":"Beryl"},"sourceId":"osm"},{"categories":["hire"],"id":"osm:node:10207623359","latitude":53.453418,"longitude":-2.282631,"name":"Kings Road/Warwick Road South","properties":{"fee":"yes","network":"tfgm_cycle_hire","operator":"Beryl"},"sourceId":"osm"},{"categories":["hire"],"id":"osm:node:10207623360","latitude":53.4666,"longitude":-2.283363,"name":"Exchange Quay/Colgate Lane","properties":{"brand":"Beryl","fee":"yes","network":"Beryl","operator":"Beryl"},"sourceId":"osm"},{"categories":["hire"],"id":"osm:node:10207623361","latitude":53.460644,"longitude":-2.263375,"name":"Stamford Street","properties":{"fee":"yes","network":"tfgm_cycle_hire","operator":"Beryl"},"sourceId":"osm"},{"categories":["hire"],"id":"osm:node:10207623362","latitude":53.458883,"longitude":-2.258545,"name":"Shrewsbury Street East","properties":{"brand":"Beryl","fee":"yes","network":"Beryl","operator":"Beryl"},"sourceId":"osm"},{"categories":["hire"],"id":"osm:node:10207623363","latitude":53.471487,"longitude":-2.249945,"name":"Garwood Street","properties":{"fee":"yes","network":"tfgm_cycle_hire","operator":"Beryl"},"sourceId":"osm"},{"categories":["hire"],"id":"osm:node:10207623486","latitude":53.482948,"longitude":-2.236628,"name":"Tib Street Car Park","properties":{"fee":"yes","network":"tfgm_cycle_hire","operator":"Beryl"},"sourceId":"osm"},{"categories":["hire"],"id":"osm:node:10207623487","latitude":53.478829,"longitude":-2.237905,"name":"Portland Street","properties":{"fee":"yes","network":"tfgm_cycle_hire","operator":"Beryl"},"sourceId":"osm"},{"categories":["hire"],"id":"osm:node:10207623488","latitude":53.475572,"longitude":-2.251275,"name":"Beetham Tower","properties":{"fee":"yes","network":"tfgm_cycle_hire","operator":"Beryl"},"sourceId":"osm"},{"categories":["hire"],"id":"osm:node:10207623489","latitude":53.48287,"longitude":-2.264279,"name":"Oldfield Road/Chapel Street","properties":{"fee":"yes","network":"tfgm_cycle_hire","operator":"Beryl"},"sourceId":"osm"},{"categories":["hire"],"id":"osm:node:10207623490","latitude":53.484465,"longitude":-2.273317,"name":"Working Class Movement Library","properties":{"fee":"yes","network":"tfgm_cycle_hire","operator":"Beryl"},"sourceId":"osm"},{"categories":["hire"],"id":"osm:node:10207623492","latitude":53.468393,"longitude":-2.251143,"name":"Royce Road","properties":{"fee":"yes","network":"tfgm_cycle_hire","operator":"Beryl"},"sourceId":"osm"},{"categories":["hire"],"id":"osm:node:10207623493","latitude":53.486009,"longitude":-2.241911,"name":"National Football Museum","properties":{"fee":"yes","network":"tfgm_cycle_hire","operator":"Beryl"},"sourceId":"osm"},{"categories":["hire"],"id":"osm:node:10207623494","latitude":53.445025,"longitude":-2.230505,"name":"Platt Fields Park South","properties":{"fee":"yes","network":"tfgm_cycle_hire","operator":"Beryl"},"sourceId":"osm"},{"categories":["hire"],"id":"osm:node:10207623495","latitude":53.471862,"longitude":-2.263913,"name":"Hulme Hall Road","properties":{"fee":"yes","network":"tfgm_cycle_hire","operator":"Beryl"},"sourceId":"osm"},{"categories":["hire"],"id":"osm:node:10207623496","latitude":53.467891,"longitude":-2.278626,"name":"Soapworks","properties":{"brand":"Beryl","fee":"yes","network":"Beryl","operator":"Beryl"},"sourceId":"osm"},{"categories":["hire"],"id":"osm:node:10207623497","latitude":53.480103,"longitude":-2.239262,"name":"New York Street","properties":{"fee":"yes","network":"tfgm_cycle_hire","operator":"Beryl"},"sourceId":"osm"},{"categories":["hire"],"id":"osm:node:10207623498","latitude":53.484874,"longitude":-2.258995,"name":"Rosamund Drive","properties":{"fee":"yes","network":"tfgm_cycle_hire","operator":"Beryl"},"sourceId":"osm"},{"categories":["hire"],"id":"osm:node:10207623501","latitude":53.48373,"longitude":-2.245889,"name":"Deansgate/St Mary's Gate","properties":{"fee":"yes","network":"tfgm_cycle_hire","operator":"Beryl"},"sourceId":"osm"},{"categories":["hire"],"id":"osm:node:10207623502","latitude":53.48476,"longitude":-2.228411,"name":"Blossom Street","properties":{"fee":"yes","network":"tfgm_cycle_hire","operator":"Beryl"},"sourceId":"osm"},{"categories":["hire"],"id":"osm:node:10207623503","latitude":53.464,"longitude":-2.23757,"name":"Pencroft Way","properties":{"brand":"Beryl","fee":"yes","network":"Beryl","operator":"Beryl"},"sourceId":"osm"},{"categories":["hire"],"id":"osm:node:10207623504","latitude":53.479787,"longitude":-2.232037,"name":"Dale Street","properties":{"brand":"Beryl","fee":"yes","network":"Beryl","operator":"Beryl"},"sourceId":"osm"},{"categories":["hire"],"id":"osm:node:10207623505","latitude":53.463155,"longitude":-2.279695,"name":"Chester Road/Boyer Street","properties":{"fee":"yes","network":"tfgm_cycle_hire","operator":"Beryl"},"sourceId":"osm"},{"categories":["hire"],"id":"osm:node:10207623506","latitude":53.463306,"longitude":-2.266374,"name":"Stanley Road/Henrietta Street","properties":{"fee":"yes","network":"tfgm_cycle_hire","operator":"Beryl"},"sourceId":"osm"},{"categories":["hire"],"id":"osm:node:10207623507","latitude":53.4658422,"longitude":-2.2657423,"name":"City Road / Chester Road","properties":{"fee":"yes","network":"tfgm_cycle_hire","operator":"Beryl"},"sourceId":"osm"},{"categories":["hire"],"id":"osm:node:10207623508","latitude":53.457879,"longitude":-2.272039,"name":"Northumberland Road","properties":{"fee":"yes","network":"tfgm_cycle_hire","operator":"Beryl"},"sourceId":"osm"},{"categories":["hire"],"id":"osm:node:10207623509","latitude":53.46151,"longitude":-2.25816,"name":"Sharon Gospel Church","properties":{"fee":"yes","network":"tfgm_cycle_hire","operator":"Beryl"},"sourceId":"osm"},{"categories":["hire"],"id":"osm:node:10207623510","latitude":53.481674,"longitude":-2.280488,"name":"Cross Lane","properties":{"brand":"Beryl","fee":"yes","network":"Beryl","operator":"Beryl"},"sourceId":"osm"},{"categories":["hire"],"id":"osm:node:10207623511","latitude":53.454845,"longitude":-2.275867,"name":"Addison Crescent/Skerton Road","properties":{"fee":"yes","network":"tfgm_cycle_hire","operator":"Beryl"},"sourceId":"osm"},{"categories":["hire"],"id":"osm:node:10207626906","latitude":53.459569,"longitude":-2.217979,"name":"Hathersage Road","properties":{"fee":"yes","network":"tfgm_cycle_hire","operator":"Beryl"},"sourceId":"osm"},{"categories":["hire"],"id":"osm:node:10207626907","latitude":53.482233,"longitude":-2.221606,"name":"New Islington Marina Promenade","properties":{"fee":"yes","network":"tfgm_cycle_hire","operator":"Beryl"},"sourceId":"osm"},{"categories":["hire"],"id":"osm:node:10207626908","latitude":53.482122,"longitude":-2.203542,"name":"Etihad Stadium/Rowsley Street","properties":{"fee":"yes","network":"tfgm_cycle_hire","operator":"Beryl"},"sourceId":"osm"},{"categories":["hire"],"id":"osm:node:10207626909","latitude":53.483393,"longitude":-2.211968,"name":"Holt Town Metrolink","properties":{"fee":"yes","network":"tfgm_cycle_hire","operator":"Beryl"},"sourceId":"osm"},{"categories":["hire"],"id":"osm:node:10207626910","latitude":53.442462,"longitude":-2.270956,"name":"Egerton Road South","properties":{"fee":"yes","network":"tfgm_cycle_hire","operator":"Beryl"},"sourceId":"osm"},{"categories":["hire"],"id":"osm:node:10207626911","latitude":53.445744,"longitude":-2.270833,"name":"Brantingham Road/Egerton Road N","properties":{"fee":"yes","network":"tfgm_cycle_hire","operator":"Beryl"},"sourceId":"osm"},{"categories":["hire"],"id":"osm:node:10207626912","latitude":53.443321,"longitude":-2.218573,"name":"Wilmslow Road/Landcross Road","properties":{"fee":"yes","network":"tfgm_cycle_hire","operator":"Beryl"},"sourceId":"osm"},{"categories":["hire"],"id":"osm:node:10207626913","latitude":53.470822,"longitude":-2.235363,"name":"Grosvenor Street","properties":{"fee":"yes","network":"tfgm_cycle_hire","operator":"Beryl"},"sourceId":"osm"},{"categories":["hire"],"id":"osm:node:10207626914","latitude":53.445101,"longitude":-2.278652,"name":"Chorlton Library","properties":{"fee":"yes","network":"tfgm_cycle_hire","operator":"Beryl"},"sourceId":"osm"},{"categories":["hire"],"id":"osm:node:10207626915","latitude":53.481139,"longitude":-2.236058,"name":"Piccadilly Gardens II","properties":{"fee":"yes","network":"tfgm_cycle_hire","operator":"Beryl"},"sourceId":"osm"},{"categories":["hire"],"id":"osm:node:10207626916","latitude":53.477389,"longitude":-2.243707,"name":"St Peter's Square","properties":{"fee":"yes","network":"tfgm_cycle_hire","operator":"Beryl"},"sourceId":"osm"},{"categories":["hire"],"id":"osm:node:10207662317","latitude":53.467967,"longitude":-2.241854,"name":"Bonsall Street","properties":{"fee":"yes","network":"tfgm_cycle_hire","operator":"Beryl"},"sourceId":"osm"},{"categories":["hire"],"id":"osm:node:10207662318","latitude":53.479021,"longitude":-2.234913,"name":"Manchester Crown Court","properties":{"fee":"yes","network":"tfgm_cycle_hire","operator":"Beryl"},"sourceId":"osm"},{"categories":["hire"],"id":"osm:node:10207662319","latitude":53.442835,"longitude":-2.268034,"name":"St Werburgh's Church","properties":{"fee":"yes","network":"tfgm_cycle_hire","operator":"Beryl"},"sourceId":"osm"},{"categories":["hire"],"id":"osm:node:10207662320","latitude":53.471738,"longitude":-2.242076,"name":"Chester Street","properties":{"fee":"yes","network":"tfgm_cycle_hire","operator":"Beryl"},"sourceId":"osm"},{"categories":["hire"],"id":"osm:node:10207662321","latitude":53.474141,"longitude":-2.24718,"name":"The Hacienda","properties":{"fee":"yes","network":"tfgm_cycle_hire","operator":"Beryl"},"sourceId":"osm"},{"categories":["hire"],"id":"osm:node:10207662322","latitude":53.476743,"longitude":-2.242947,"name":"Landmark St Peter's Square","properties":{"brand":"Beryl","fee":"yes","network":"Beryl","operator":"Beryl"},"sourceId":"osm"},{"categories":["hire"],"id":"osm:node:10207662323","latitude":53.479298,"longitude":-2.24188,"name":"Booth Street/W Mosley Street","properties":{"fee":"yes","network":"tfgm_cycle_hire","operator":"Beryl"},"sourceId":"osm"},{"categories":["hire"],"id":"osm:node:10207662324","latitude":53.477177,"longitude":-2.248449,"name":"Watson Street","properties":{"fee":"yes","network":"tfgm_cycle_hire","operator":"Beryl"},"sourceId":"osm"},{"categories":["hire"],"id":"osm:node:10207662325","latitude":53.477733,"longitude":-2.244558,"name":"Manchester Central Library","properties":{"fee":"yes","network":"tfgm_cycle_hire","operator":"Beryl"},"sourceId":"osm"},{"categories":["hire"],"id":"osm:node:10207662328","latitude":53.481026,"longitude":-2.251084,"name":"Dolefield","properties":{"brand":"Beryl","fee":"yes","network":"Beryl","operator":"Beryl"},"sourceId":"osm"},{"categories":["hire"],"id":"osm:node:10207662329","latitude":53.44336,"longitude":-2.250391,"name":"Highbury Road","properties":{"fee":"yes","network":"tfgm_cycle_hire","operator":"Beryl"},"sourceId":"osm"},{"categories":["hire"],"id":"osm:node:10207662330","latitude":53.460325,"longitude":-2.250735,"name":"Moss Lane E","properties":{"fee":"yes","network":"tfgm_cycle_hire","operator":"Beryl"},"sourceId":"osm"},{"categories":["hire"],"id":"osm:node:10207770521","latitude":53.47316,"longitude":-2.248502,"name":"Albion Street/City Road East","properties":{"fee":"yes","network":"tfgm_cycle_hire","operator":"Beryl"},"sourceId":"osm"},{"categories":["hire"],"id":"osm:node:10207770522","latitude":53.443742,"longitude":-2.257125,"name":"Withington/Wilbraham Road","properties":{"fee":"yes","network":"tfgm_cycle_hire","operator":"Beryl"},"sourceId":"osm"},{"categories":["hire"],"id":"osm:node:10207770523","latitude":53.479584,"longitude":-2.239493,"name":"Chinatown/George Street","properties":{"fee":"yes","network":"tfgm_cycle_hire","operator":"Beryl"},"sourceId":"osm"},{"categories":["hire"],"id":"osm:node:10207770524","latitude":53.442801,"longitude":-2.220353,"name":"Wilbraham Road","properties":{"fee":"yes","network":"tfgm_cycle_hire","operator":"Beryl"},"sourceId":"osm"},{"categories":["hire"],"id":"osm:node:10207770525","latitude":53.440854,"longitude":-2.282754,"name":"St John's RC Church","properties":{"fee":"yes","network":"tfgm_cycle_hire","operator":"Beryl"},"sourceId":"osm"},{"categories":["hire"],"id":"osm:node:10207770526","latitude":53.48266,"longitude":-2.242656,"name":"Pall Mall","properties":{"brand":"Beryl","fee":"yes","network":"Beryl","operator":"Beryl"},"sourceId":"osm"},{"categories":["hire"],"id":"osm:node:10207770527","latitude":53.46414,"longitude":-2.248694,"name":"Old Birley Street","properties":{"fee":"yes","network":"tfgm_cycle_hire","operator":"Beryl"},"sourceId":"osm"},{"categories":["hire"],"id":"osm:node:10207770528","latitude":53.466784,"longitude":-2.24082,"name":"Freeman Square","properties":{"fee":"yes","network":"tfgm_cycle_hire","operator":"Beryl"},"sourceId":"osm"},{"categories":["hire"],"id":"osm:node:10207770529","latitude":53.479529,"longitude":-2.254643,"name":"New Quay Street","properties":{"fee":"yes","network":"tfgm_cycle_hire","operator":"Beryl"},"sourceId":"osm"},{"categories":["hire"],"id":"osm:node:10207770530","latitude":53.45354,"longitude":-2.223148,"name":"Park Crescent","properties":{"fee":"yes","network":"tfgm_cycle_hire","operator":"Beryl"},"sourceId":"osm"},{"categories":["hire"],"id":"osm:node:10207770531","latitude":53.454947,"longitude":-2.252603,"name":"Manchester Chinese Christian Church","properties":{"fee":"yes","network":"tfgm_cycle_hire","operator":"Beryl"},"sourceId":"osm"},{"categories":["hire"],"id":"osm:node:10207770532","latitude":53.462542,"longitude":-2.216341,"name":"Flixton Road","properties":{"fee":"yes","network":"tfgm_cycle_hire","operator":"Beryl"},"sourceId":"osm"},{"categories":["hire"],"id":"osm:node:10207770533","latitude":53.460382,"longitude":-2.2093,"name":"Plymouth Grove/Richmond Grove","properties":{"fee":"yes","network":"tfgm_cycle_hire","operator":"Beryl"},"sourceId":"osm"},{"categories":["hire"],"id":"osm:node:10207770535","latitude":53.4690826,"longitude":-2.2254644,"name":"Brunswick Street","properties":{"brand":"Beryl","fee":"yes","network":"Beryl","operator":"Beryl"},"sourceId":"osm"},{"categories":["hire"],"id":"osm:node:10207770536","latitude":53.46238,"longitude":-2.211227,"name":"Markfield Avenue","properties":{"fee":"yes","network":"tfgm_cycle_hire","operator":"Beryl"},"sourceId":"osm"},{"categories":["hire"],"id":"osm:node:10207770537","latitude":53.481608,"longitude":-2.204621,"name":"Darley Street","properties":{"fee":"yes","network":"tfgm_cycle_hire","operator":"Beryl"},"sourceId":"osm"},{"categories":["hire"],"id":"osm:node:10207770538","latitude":53.471395,"longitude":-2.215647,"name":"Devonshire Street North","properties":{"fee":"yes","network":"tfgm_cycle_hire","operator":"Beryl"},"sourceId":"osm"},{"categories":["hire"],"id":"osm:node:10207770539","latitude":53.454281,"longitude":-2.258059,"name":"Withington Road/William Coates Court","properties":{"fee":"yes","network":"tfgm_cycle_hire","operator":"Beryl"},"sourceId":"osm"},{"categories":["hire"],"id":"osm:node:10207770540","latitude":53.487421,"longitude":-2.2198,"name":"Lower Vickers Street","properties":{"fee":"yes","network":"tfgm_cycle_hire","operator":"Beryl"},"sourceId":"osm"},{"categories":["hire"],"id":"osm:node:10207770541","latitude":53.464607,"longitude":-2.222521,"name":"Legh Street","properties":{"fee":"yes","network":"tfgm_cycle_hire","operator":"Beryl"},"sourceId":"osm"},{"categories":["hire"],"id":"osm:node:10207770542","latitude":53.484228,"longitude":-2.221903,"name":"Woodward Street","properties":{"fee":"yes","network":"tfgm_cycle_hire","operator":"Beryl"},"sourceId":"osm"},{"categories":["hire"],"id":"osm:node:10207770543","latitude":53.48231,"longitude":-2.216627,"name":"Pollard Street","properties":{"fee":"yes","network":"tfgm_cycle_hire","operator":"Beryl"},"sourceId":"osm"},{"categories":["hire"],"id":"osm:node:10207770544","latitude":53.487375,"longitude":-2.226514,"name":"Royal Mail Office Oldham Road","properties":{"fee":"yes","network":"tfgm_cycle_hire","operator":"Beryl"},"sourceId":"osm"},{"categories":["hire"],"id":"osm:node:10207770545","latitude":53.484405,"longitude":-2.224342,"name":"New Union Street","properties":{"fee":"yes","network":"tfgm_cycle_hire","operator":"Beryl"},"sourceId":"osm"},{"categories":["hire"],"id":"osm:node:10538029873","latitude":53.4849422,"longitude":-2.2323521,"name":"Great Ancoats Street","properties":{"fee":"yes","network":"tfgm_cycle_hire","operator":"Beryl"},"sourceId":"osm"},{"categories":["hire"],"id":"osm:node:10983117956","latitude":53.4622148,"longitude":-2.2400112,"name":"Greenheys Lane / Charles Halle Road","properties":{"brand":"Beryl","fee":"yes","network":"Beryl","operator":"Beryl"},"sourceId":"osm"},{"categories":["repair"],"id":"osm:node:11008078805","latitude":53.4805735,"longitude":-2.2537585,"name":"Bicycle repair station","properties":{"servicePump":"yes","serviceTools":"yes"},"sourceId":"osm"},{"categories":["hire"],"id":"osm:node:11649291649","latitude":53.4505161,"longitude":-2.2736528,"name":"Beryl","properties":{"brand":"Beryl","network":"Beryl"},"sourceId":"osm"},{"categories":["hire"],"id":"osm:node:11984383689","latitude":53.4695725,"longitude":-2.2663352,"name":"Cornbrook / Manchester Waters","properties":{},"sourceId":"osm"},{"categories":["hire"],"id":"osm:node:12405582668","latitude":53.4652932,"longitude":-2.2184968,"name":"Cycle hire","properties":{},"sourceId":"osm"},{"categories":["hire"],"id":"osm:node:12629976116","latitude":53.460728,"longitude":-2.273562,"name":"Cycle hire","properties":{},"sourceId":"osm"},{"categories":["shop"],"id":"osm:node:1268119846","latitude":53.452182,"longitude":-2.2197131,"name":"Bicycle Doctor","properties":{},"sourceId":"osm"},{"categories":["hire"],"id":"osm:node:13656917036","latitude":53.4776205,"longitude":-2.2425835,"name":"Beryl","properties":{"brand":"Beryl","network":"Beryl"},"sourceId":"osm"},{"categories":["repair"],"id":"osm:node:13874182301","latitude":53.4756601,"longitude":-2.2754839,"name":"Bicycle repair station","properties":{"servicePump":"no","serviceTools":"no"},"sourceId":"osm"},{"categories":["shop","repair"],"id":"osm:node:1418446022","latitude":53.4823032,"longitude":-2.232942,"name":"Keep Pedalling","properties":{"openingHours":"Tu-Fr 10:00-18:00; Sa 10:00-16:00; PH,Su off","serviceRepair":"yes"},"sourceId":"osm"},{"categories":["shop"],"id":"osm:node:1436094114","latitude":53.4831534,"longitude":-2.237781,"name":"Ridelow Ltd","properties":{},"sourceId":"osm"},{"categories":["shop","repair"],"id":"osm:node:2353325848","latitude":53.4865661,"longitude":-2.2246935,"name":"Popup Bikes","properties":{"servicePump":"yes","serviceRepair":"yes"},"sourceId":"osm"},{"categories":["hire"],"id":"osm:node:2788560610","latitude":53.478137,"longitude":-2.232199,"name":"Brompton Dock","properties":{"fee":"yes","operator":"Brompton Dock"},"sourceId":"osm"},{"categories":["shop"],"id":"osm:node:4208788519","latitude":53.4605234,"longitude":-2.2329349,"name":"The Bicycle Garage","properties":{},"sourceId":"osm"},{"categories":["repair"],"id":"osm:node:4391605601","latitude":53.4746291,"longitude":-2.2326881,"name":"Bicycle repair station","properties":{},"sourceId":"osm"},{"categories":["repair"],"id":"osm:node:4391605606","latitude":53.4645472,"longitude":-2.233026,"name":"Bicycle repair station","properties":{"servicePump":"yes","serviceTools":"yes"},"sourceId":"osm"},{"categories":["shop","repair"],"id":"osm:node:4639489922","latitude":53.4465458,"longitude":-2.2243778,"name":"Platt Fields Bike Hub","properties":{"openingHours":"Mo,Tu,Th,Sa 11:00-16:00","serviceRepair":"yes"},"sourceId":"osm"},{"categories":["shop"],"id":"osm:node:6109543000","latitude":53.483445,"longitude":-2.2581821,"name":"Manchester Bikes","properties":{"brand":"Carla Cargo;Tern;Ridgeback;workcycles;Riese & Müller;Babboe;Larry vs Harry;Gazelle;Urban Arrow;Muli","openingHours":"Mo-Fr 09:00-17:00","servicePump":"yes"},"sourceId":"osm"},{"categories":["shop"],"id":"osm:node:6360996534","latitude":53.4816371,"longitude":-2.2334382,"name":"Trek","properties":{"brand":"Trek","openingHours":"Tu,We,Th,Fr 09:30-18:00; Sa 09:30-17:00; Su,Mo off"},"sourceId":"osm"},{"categories":["shop","repair"],"id":"osm:node:738206218","latitude":53.4707939,"longitude":-2.2361206,"name":"NEVER MIND THE BIKE SHOPS","properties":{"openingHours":"Mo-Sa 10:00-17:00","serviceRepair":"yes"},"sourceId":"osm"},{"categories":["shop"],"id":"osm:node:738207471","latitude":53.4383006,"longitude":-2.2743086,"name":"Ken Foster's Cycle Logic","properties":{},"sourceId":"osm"},{"categories":["repair"],"id":"osm:node:7423227580","latitude":53.4804181,"longitude":-2.271086,"name":"Bicycle repair station","properties":{"openingHours":"24/7"},"sourceId":"osm"},{"categories":["shop"],"id":"osm:node:8825965141","latitude":53.4460543,"longitude":-2.2775692,"name":"The Charity Bike Shop","properties":{},"sourceId":"osm"},{"categories":["repair"],"id":"osm:node:8895589540","latitude":53.487261,"longitude":-2.2316953,"name":"Bicycle repair station","properties":{"fee":"no","openingHours":"24/7","servicePump":"no","serviceTools":"yes"},"sourceId":"osm"},{"categories":["repair"],"id":"osm:node:9264343684","latitude":53.4690746,"longitude":-2.2404696,"name":"Bicycle repair station","properties":{"servicePump":"no"},"sourceId":"osm"},{"categories":["hire"],"id":"osm:node:9264343688","latitude":53.4660417,"longitude":-2.2337265,"name":"Manchester Museum","properties":{"fee":"yes","network":"tfgm_cycle_hire","operator":"Beryl"},"sourceId":"osm"},{"categories":["hire"],"id":"osm:node:9264343689","latitude":53.4651955,"longitude":-2.2319645,"name":"Dover Street","properties":{"fee":"yes","network":"tfgm_cycle_hire","operator":"Beryl"},"sourceId":"osm"},{"categories":["hire"],"id":"osm:node:9264343691","latitude":53.4621601,"longitude":-2.2292337,"name":"Citylabs 1.0","properties":{"fee":"yes","network":"tfgm_cycle_hire","operator":"Beryl"},"sourceId":"osm"},{"categories":["hire"],"id":"osm:node:9264343692","latitude":53.4489632,"longitude":-2.2204136,"name":"Platt Fields Park II","properties":{"fee":"yes","network":"tfgm_cycle_hire","operator":"Beryl"},"sourceId":"osm"},{"categories":["hire"],"id":"osm:node:9264343693","latitude":53.4482448,"longitude":-2.220068,"name":"Grangethorpe Road","properties":{"fee":"yes","network":"tfgm_cycle_hire","operator":"Beryl"},"sourceId":"osm"},{"categories":["hire"],"id":"osm:node:9405476221","latitude":53.4398567,"longitude":-2.2667017,"name":"Cargoroo","properties":{"fee":"yes","network":"Cargoroo"},"sourceId":"osm"},{"categories":["repair"],"id":"osm:node:9605760773","latitude":53.4840636,"longitude":-2.2557536,"name":"Bicycle repair station","properties":{"servicePump":"yes","serviceTools":"yes"},"sourceId":"osm"},{"categories":["shop"],"id":"osm:node:9810695653","latitude":53.485387,"longitude":-2.2571072,"name":"KD Bike Shop","properties":{},"sourceId":"osm"},{"categories":["shop","repair"],"id":"osm:way:1433114069","latitude":53.456334175,"longitude":-2.2313279374999997,"name":"Chain Dog Cycles","properties":{"serviceRepair":"yes"},"sourceId":"osm"}],"schemaVersion":2}
