{"key":"12/2022/1326","points":[{"categories":["shop"],"id":"osm:node:13411103076","latitude":53.4104915,"longitude":-2.2557545,"name":"Cycles-Shark","properties":{},"sourceId":"osm"},{"categories":["shop"],"id":"osm:node:1480257502","latitude":53.3973885,"longitude":-2.2013616,"name":"The North West Mountain Bike Centre","properties":{},"sourceId":"osm"},{"categories":["shop"],"id":"osm:node:1988701290","latitude":53.4329289,"longitude":-2.2326682,"name":"Withington Cycles","properties":{},"sourceId":"osm"},{"categories":["shop"],"id":"osm:node:5718757983","latitude":53.3914044,"longitude":-2.2409188,"name":"Stonepail Cycles","properties":{"operator":"STONEPAIL CYCLES LIMITED"},"sourceId":"osm"},{"categories":["shop"],"id":"osm:node:6227682857","latitude":53.4071221,"longitude":-2.2602011,"name":"A1 Cycle centre","properties":{},"sourceId":"osm"},{"categories":["shop"],"id":"osm:node:7473478541","latitude":53.4209187,"longitude":-2.2126512,"name":"Lane End Cycles","properties":{},"sourceId":"osm"},{"categories":["shop"],"id":"osm:way:1533936594","latitude":53.38890228333333,"longitude":-2.2581046333333332,"name":"Threadgolds Cycles","properties":{},"sourceId":"osm"}],"schemaVersion":2}
