{"key":"12/2022/1376","points":[{"categories":["hire"],"id":"osm:node:10220654835","latitude":50.695176,"longitude":-2.24222,"name":"The Tank Museum","properties":{"fee":"yes","network":"Beryl - Wool","operator":"Beryl","website":"https://beryl.cc/scheme/wool"},"sourceId":"osm"},{"categories":["hire"],"id":"osm:node:10220654836","latitude":50.70211,"longitude":-2.24174,"name":"Memorial Hall","properties":{"brand":"Beryl","fee":"yes","network":"Beryl","operator":"Beryl","website":"https://beryl.cc/scheme/wool"},"sourceId":"osm"},{"categories":["hire"],"id":"osm:node:10220654838","latitude":50.681476,"longitude":-2.253498,"name":"Atlas House","properties":{"fee":"yes","network":"Beryl - Wool","operator":"Beryl","website":"https://beryl.cc/scheme/wool"},"sourceId":"osm"},{"categories":["hire"],"id":"osm:node:10220654839","latitude":50.681976,"longitude":-2.255704,"name":"Chesil House","properties":{"fee":"yes","network":"Beryl - Wool","operator":"Beryl","website":"https://beryl.cc/scheme/wool"},"sourceId":"osm"},{"categories":["hire"],"id":"osm:node:10220654840","latitude":50.694241,"longitude":-2.224894,"name":"Cologne Road Community Centre","properties":{"fee":"yes","network":"Beryl - Wool","operator":"Beryl","website":"https://beryl.cc/scheme/wool"},"sourceId":"osm"},{"categories":["hire"],"id":"osm:node:10220654841","latitude":50.681588,"longitude":-2.221073,"name":"Wool Station","properties":{"brand":"Beryl","fee":"yes","network":"Beryl","operator":"Beryl","website":"https://beryl.cc/scheme/wool"},"sourceId":"osm"}],"schemaVersion":2}
