{"key":"12/2069/1528","points":[{"id":"osm:node:11741741470","latitude":41.4975832,"longitude":1.872411,"name":"Avinguda de Josep llobet i Bonastre near Passeig de l'Estació","properties":{"access":"unknown","bicycle_pa":"","capacity":0,"covered":"","fee":"","operator":"","nameSource":"junction"},"sourceId":"osm"},{"id":"osm:node:6565124800","latitude":41.4816444,"longitude":1.9159749,"name":"Carrer de Josep Vilar near Plaça de Frederic Duran","properties":{"access":"yes","bicycle_pa":"rack","capacity":6,"covered":"yes","fee":"no","operator":"Mercadona","nameSource":"junction"},"sourceId":"osm"},{"id":"osm:node:6566673951","latitude":41.4829466,"longitude":1.9185036,"name":"Parking Carrefour near Passatge del Masset","properties":{"access":"yes","bicycle_pa":"","capacity":12,"covered":"no","fee":"no","operator":"","nameSource":"junction"},"sourceId":"osm"},{"id":"osm:node:7234951157","latitude":41.4765243,"longitude":1.9289438,"name":"Camí del Riu cycle parking","properties":{"access":"yes","bicycle_pa":"ground_slots","capacity":6,"covered":"no","fee":"24/7","operator":"","nameSource":"street"},"sourceId":"osm"},{"id":"osm:node:9434502293","latitude":41.4837751,"longitude":1.9183169,"name":"Bicitancat Martorell","properties":{"access":"permit","bicycle_pa":"shed","capacity":28,"covered":"yes","fee":"no","operator":"","nameSource":"source"},"sourceId":"osm"}],"schemaVersion":2}
