{"key":"12/2070/1530","points":[{"categories":["hire"],"id":"osm:node:11020622458","latitude":41.3119542,"longitude":2.0021118,"name":"Riera de Sant Llorenç - Can Guardiola","properties":{"brand":"AMBici","fee":"yes","network":"AMBici","operator":"Transports Metropolitans de Barcelona","website":"https://www.ambici.cat/ca/"},"sourceId":"osm"},{"categories":["hire"],"id":"osm:node:11020622459","latitude":41.3127817,"longitude":1.9903859,"name":"Can Tries","properties":{"brand":"AMBici","fee":"yes","network":"AMBici","operator":"Transports Metropolitans de Barcelona","website":"https://www.ambici.cat/ca/"},"sourceId":"osm"},{"categories":["hire"],"id":"osm:node:11020622460","latitude":41.3156885,"longitude":2.0126945,"name":"Torrent Ballester - Atrium","properties":{"brand":"AMBici","fee":"yes","network":"AMBici","operator":"Transports Metropolitans de Barcelona","website":"https://www.ambici.cat/ca/"},"sourceId":"osm"},{"categories":["hire"],"id":"osm:node:11020622461","latitude":41.3155827,"longitude":2.0163037,"name":"Plaça de les Palmeres","properties":{"brand":"AMBici","fee":"yes","network":"AMBici","operator":"Transports Metropolitans de Barcelona","website":"https://www.ambici.cat/ca/"},"sourceId":"osm"},{"categories":["hire"],"id":"osm:node:11020622463","latitude":41.3156943,"longitude":2.02086,"name":"Av. Generalitat - Plaça de la Vila","properties":{"brand":"AMBici","fee":"yes","network":"AMBici","operator":"Transports Metropolitans de Barcelona","website":"https://www.ambici.cat/ca/"},"sourceId":"osm"},{"categories":["hire"],"id":"osm:node:11020622465","latitude":41.3213749,"longitude":2.0096374,"name":"Plaça Constitució - Av. Roureda","properties":{"brand":"AMBici","fee":"yes","network":"AMBici","operator":"Transports Metropolitans de Barcelona","website":"https://www.ambici.cat/ca/"},"sourceId":"osm"},{"categories":["hire"],"id":"osm:node:11020622466","latitude":41.322482,"longitude":2.0162951,"name":"Av. Dels Jocs Olímpics - Parc Torre-roja","properties":{"brand":"AMBici","fee":"yes","network":"AMBici","operator":"Transports Metropolitans de Barcelona","website":"https://www.ambici.cat/ca/"},"sourceId":"osm"},{"categories":["hire"],"id":"osm:node:9557284917","latitude":41.3150699,"longitude":2.0207278,"name":"732 Plaça de la Vila","properties":{"fee":"yes","network":"e-BiciBox","openingHours":"Mo-Su 07:00-24:00","operator":"Movement","website":"https://www.bicibox.cat/"},"sourceId":"osm"},{"categories":["hire"],"id":"osm:node:9557334408","latitude":41.3175571,"longitude":2.0103878,"name":"CAP Maria Bernades","properties":{"brand":"AMBici","fee":"yes","network":"AMBici","operator":"Transports Metropolitans de Barcelona","website":"https://www.ambici.cat/ca/"},"sourceId":"osm"}],"schemaVersion":2}
