{"key":"12/1973/1327","points":[{"id":"osm:node:10919765718","latitude":53.3412998,"longitude":-6.5372099,"name":"Castletown The Drive near Big Lane","properties":{"access":"yes","bicycle_pa":"stands","capacity":4,"covered":"no","fee":"no","operator":"","nameSource":"junction"},"sourceId":"osm"},{"id":"osm:node:11248519248","latitude":53.3792861,"longitude":-6.5909057,"name":"Harbour Place near Leinster Street","properties":{"access":"unknown","bicycle_pa":"stands","capacity":6,"covered":"no","fee":"","operator":"","nameSource":"junction"},"sourceId":"osm"},{"id":"osm:node:11248522407","latitude":53.3793327,"longitude":-6.5909394,"name":"Harbour Place near Leinster Street","properties":{"access":"unknown","bicycle_pa":"stands","capacity":14,"covered":"no","fee":"","operator":"","nameSource":"junction"},"sourceId":"osm"},{"id":"osm:node:11248522665","latitude":53.3802687,"longitude":-6.5896536,"name":"Straffan Road near Manor Court","properties":{"access":"unknown","bicycle_pa":"","capacity":10,"covered":"no","fee":"","operator":"","nameSource":"junction"},"sourceId":"osm"},{"id":"osm:node:1213136270","latitude":53.3484174,"longitude":-6.5310586,"name":"Avenue by Courtyard Café","properties":{"access":"unknown","bicycle_pa":"","capacity":0,"covered":"no","fee":"","operator":"","nameSource":"landmark"},"sourceId":"osm"},{"id":"osm:node:13276067835","latitude":53.3439256,"longitude":-6.5447973,"name":"Shackleton Road near Witethorn","properties":{"access":"unknown","bicycle_pa":"wall_loops","capacity":0,"covered":"yes","fee":"","operator":"","nameSource":"junction"},"sourceId":"osm"},{"id":"osm:node:13356560306","latitude":53.3449507,"longitude":-6.5412874,"name":"Maynooth Road by Centric Health Celbridge","properties":{"access":"unknown","bicycle_pa":"wall_loops","capacity":0,"covered":"no","fee":"","operator":"","nameSource":"landmark"},"sourceId":"osm"},{"id":"osm:node:13356560313","latitude":53.3449693,"longitude":-6.5412904,"name":"Maynooth Road by Centric Health Celbridge","properties":{"access":"unknown","bicycle_pa":"wall_loops","capacity":0,"covered":"no","fee":"","operator":"","nameSource":"landmark"},"sourceId":"osm"},{"id":"osm:node:13421620017","latitude":53.3705438,"longitude":-6.5114459,"name":"Maynooth Road cycle parking","properties":{"access":"unknown","bicycle_pa":"","capacity":0,"covered":"","fee":"","operator":"","nameSource":"street"},"sourceId":"osm"},{"id":"osm:node:13421620018","latitude":53.3705566,"longitude":-6.511505,"name":"Maynooth Road cycle parking","properties":{"access":"unknown","bicycle_pa":"anchors","capacity":20,"covered":"no","fee":"","operator":"","nameSource":"street"},"sourceId":"osm"},{"id":"osm:node:13789917656","latitude":53.3706604,"longitude":-6.5120359,"name":"Maynooth Road cycle parking","properties":{"access":"yes","bicycle_pa":"stands","capacity":10,"covered":"no","fee":"no","operator":"","nameSource":"street"},"sourceId":"osm"},{"id":"osm:node:1454922913","latitude":53.3695248,"longitude":-6.5895099,"name":"Griffin Rath Road by Lidl","properties":{"access":"unknown","bicycle_pa":"wall_loops","capacity":4,"covered":"","fee":"","operator":"","nameSource":"landmark"},"sourceId":"osm"},{"id":"osm:node:1587112565","latitude":53.3781641,"longitude":-6.5902722,"name":"Silken Vale by Platform 1","properties":{"access":"customers","bicycle_pa":"lockers","capacity":15,"covered":"yes","fee":"yes","operator":"Bike Locker","nameSource":"landmark"},"sourceId":"osm"},{"id":"osm:node:2990853610","latitude":53.3697234,"longitude":-6.5065045,"name":"Station Road near Accommodation Road","properties":{"access":"customers","bicycle_pa":"lockers","capacity":8,"covered":"yes","fee":"","operator":"","nameSource":"junction"},"sourceId":"osm"},{"id":"osm:node:3004277710","latitude":53.3697674,"longitude":-6.5066376,"name":"Accommodation Road near Station Road","properties":{"access":"unknown","bicycle_pa":"stands","capacity":10,"covered":"yes","fee":"","operator":"","nameSource":"junction"},"sourceId":"osm"},{"id":"osm:node:3016456841","latitude":53.3796174,"longitude":-6.5888908,"name":"Straffan Road cycle parking","properties":{"access":"unknown","bicycle_pa":"stands","capacity":8,"covered":"no","fee":"","operator":"","nameSource":"street"},"sourceId":"osm"},{"id":"osm:node:334189581","latitude":53.3782844,"longitude":-6.5902384,"name":"Royal Canal Way by Platform 1","properties":{"access":"unknown","bicycle_pa":"anchors","capacity":20,"covered":"yes","fee":"","operator":"","nameSource":"landmark"},"sourceId":"osm"},{"id":"osm:node:335736121","latitude":53.382472,"longitude":-6.5861402,"name":"Silken Gardens near Dublin Road","properties":{"access":"unknown","bicycle_pa":"","capacity":0,"covered":"","fee":"","operator":"","nameSource":"junction"},"sourceId":"osm"},{"id":"osm:node:335754697","latitude":53.3799976,"longitude":-6.5872473,"name":"Leinster Park by Glenroyal Sport Centre","properties":{"access":"unknown","bicycle_pa":"","capacity":0,"covered":"","fee":"","operator":"","nameSource":"landmark"},"sourceId":"osm"},{"id":"osm:node:414667390","latitude":53.3628924,"longitude":-6.5225315,"name":"Beech Park cycle parking","properties":{"access":"unknown","bicycle_pa":"","capacity":0,"covered":"","fee":"","operator":"","nameSource":"street"},"sourceId":"osm"},{"id":"osm:node:5016442122","latitude":53.3818694,"longitude":-6.5900968,"name":"Main Street near Buckley's Lane","properties":{"access":"unknown","bicycle_pa":"stands","capacity":2,"covered":"no","fee":"","operator":"","nameSource":"junction"},"sourceId":"osm"},{"id":"osm:node:5016442125","latitude":53.3813693,"longitude":-6.5917824,"name":"Main Street near The Mall","properties":{"access":"unknown","bicycle_pa":"stands","capacity":1,"covered":"no","fee":"","operator":"","nameSource":"junction"},"sourceId":"osm"},{"id":"osm:node:5016442129","latitude":53.3818441,"longitude":-6.5901921,"name":"Main Street near Buckley's Lane","properties":{"access":"unknown","bicycle_pa":"stands","capacity":4,"covered":"no","fee":"","operator":"","nameSource":"junction"},"sourceId":"osm"},{"id":"osm:node:5016464121","latitude":53.3816715,"longitude":-6.5907754,"name":"Main Street near Coate's Lane","properties":{"access":"unknown","bicycle_pa":"","capacity":0,"covered":"","fee":"","operator":"","nameSource":"junction"},"sourceId":"osm"},{"id":"osm:node:5016464126","latitude":53.3819834,"longitude":-6.5897028,"name":"Main Street near Buckley's Lane","properties":{"access":"unknown","bicycle_pa":"stands","capacity":4,"covered":"no","fee":"","operator":"","nameSource":"junction"},"sourceId":"osm"},{"id":"osm:node:5016464127","latitude":53.382073,"longitude":-6.5894596,"name":"Main Street near Buckley's Lane","properties":{"access":"unknown","bicycle_pa":"stands","capacity":4,"covered":"no","fee":"","operator":"","nameSource":"junction"},"sourceId":"osm"},{"id":"osm:node:5016464128","latitude":53.381983,"longitude":-6.5893778,"name":"Main Street near Buckley's Lane","properties":{"access":"unknown","bicycle_pa":"stands","capacity":0,"covered":"","fee":"","operator":"","nameSource":"junction"},"sourceId":"osm"},{"id":"osm:node:5016464421","latitude":53.3815276,"longitude":-6.5912549,"name":"Main Street near Fagan's Lane","properties":{"access":"unknown","bicycle_pa":"stands","capacity":8,"covered":"no","fee":"","operator":"","nameSource":"junction"},"sourceId":"osm"},{"id":"osm:node:5016465023","latitude":53.3816803,"longitude":-6.5903973,"name":"Main Street near Coate's Lane","properties":{"access":"unknown","bicycle_pa":"stands","capacity":0,"covered":"","fee":"","operator":"","nameSource":"junction"},"sourceId":"osm"},{"id":"osm:node:5016465025","latitude":53.3817585,"longitude":-6.5901171,"name":"Main Street near Buckley's Lane","properties":{"access":"unknown","bicycle_pa":"stands","capacity":0,"covered":"","fee":"","operator":"","nameSource":"junction"},"sourceId":"osm"},{"id":"osm:node:5016465027","latitude":53.381774,"longitude":-6.5904234,"name":"Main Street near Coate's Lane","properties":{"access":"unknown","bicycle_pa":"stands","capacity":0,"covered":"","fee":"","operator":"","nameSource":"junction"},"sourceId":"osm"},{"id":"osm:node:5016465721","latitude":53.382097,"longitude":-6.5892046,"name":"Main Street near Convent Lane","properties":{"access":"unknown","bicycle_pa":"stands","capacity":0,"covered":"","fee":"","operator":"","nameSource":"junction"},"sourceId":"osm"},{"id":"osm:node:5018634725","latitude":53.3820661,"longitude":-6.5891061,"name":"Main Street near Convent Lane","properties":{"access":"unknown","bicycle_pa":"stands","capacity":4,"covered":"no","fee":"","operator":"","nameSource":"junction"},"sourceId":"osm"},{"id":"osm:node:5018635024","latitude":53.3821372,"longitude":-6.5888576,"name":"Main Street near Convent Lane","properties":{"access":"unknown","bicycle_pa":"stands","capacity":4,"covered":"no","fee":"","operator":"","nameSource":"junction"},"sourceId":"osm"},{"id":"osm:node:611638921","latitude":53.3585815,"longitude":-6.5512869,"name":"Maynooth Road cycle parking","properties":{"access":"unknown","bicycle_pa":"","capacity":0,"covered":"","fee":"","operator":"","nameSource":"street"},"sourceId":"osm"},{"id":"osm:node:614222700","latitude":53.3697067,"longitude":-6.5067987,"name":"Station Road near Accommodation Road","properties":{"access":"unknown","bicycle_pa":"ground_slots","capacity":0,"covered":"","fee":"","operator":"","nameSource":"junction"},"sourceId":"osm"},{"id":"osm:node:616056758","latitude":53.3480587,"longitude":-6.5498633,"name":"Aghards Road near Thornhill Heights","properties":{"access":"unknown","bicycle_pa":"stands","capacity":0,"covered":"no","fee":"","operator":"","nameSource":"junction"},"sourceId":"osm"},{"id":"osm:node:643420344","latitude":53.3523015,"longitude":-6.5169122,"name":"Castletown cycle parking","properties":{"access":"unknown","bicycle_pa":"","capacity":0,"covered":"","fee":"","operator":"","nameSource":"place"},"sourceId":"osm"},{"id":"osm:node:643420347","latitude":53.3550298,"longitude":-6.5145573,"name":"Castletown cycle parking","properties":{"access":"customers","bicycle_pa":"shed","capacity":30,"covered":"yes","fee":"no","operator":"","nameSource":"place"},"sourceId":"osm"},{"id":"osm:node:643420349","latitude":53.3560735,"longitude":-6.5119966,"name":"Castletown cycle parking","properties":{"access":"unknown","bicycle_pa":"","capacity":0,"covered":"","fee":"","operator":"","nameSource":"place"},"sourceId":"osm"},{"id":"osm:node:7103225928","latitude":53.3327326,"longitude":-6.5307542,"name":"The Square near Hazelhatch Park","properties":{"access":"private","bicycle_pa":"rack","capacity":10,"covered":"no","fee":"no","operator":"","nameSource":"junction"},"sourceId":"osm"},{"id":"osm:node:7103225929","latitude":53.3334317,"longitude":-6.5307951,"name":"The Square by Bin Shed","properties":{"access":"unknown","bicycle_pa":"rack","capacity":10,"covered":"no","fee":"","operator":"","nameSource":"landmark"},"sourceId":"osm"},{"id":"osm:node:7332874881","latitude":53.3359556,"longitude":-6.5301688,"name":"Willow Green near Willow Court","properties":{"access":"unknown","bicycle_pa":"wall_loops","capacity":4,"covered":"no","fee":"","operator":"","nameSource":"junction"},"sourceId":"osm"},{"id":"osm:node:7463655480","latitude":53.3317991,"longitude":-6.5336507,"name":"The Court near The Crescent","properties":{"access":"unknown","bicycle_pa":"rack","capacity":10,"covered":"no","fee":"","operator":"","nameSource":"junction"},"sourceId":"osm"},{"id":"osm:node:8059095323","latitude":53.3323802,"longitude":-6.5362215,"name":"The Green near Hazelhatch Park","properties":{"access":"unknown","bicycle_pa":"rack","capacity":10,"covered":"no","fee":"","operator":"","nameSource":"junction"},"sourceId":"osm"},{"id":"osm:node:8405406429","latitude":53.3380508,"longitude":-6.540163,"name":"English Row near Hazelhatch Road","properties":{"access":"unknown","bicycle_pa":"stands","capacity":4,"covered":"no","fee":"","operator":"","nameSource":"junction"},"sourceId":"osm"},{"id":"osm:node:8405442404","latitude":53.3390706,"longitude":-6.5404098,"name":"Saint Patrick's Park near King's Archway","properties":{"access":"unknown","bicycle_pa":"stands","capacity":6,"covered":"","fee":"","operator":"","nameSource":"junction"},"sourceId":"osm"},{"id":"osm:node:8486226755","latitude":53.3405242,"longitude":-6.53775,"name":"Main Street by Kildare Carpets and Floors","properties":{"access":"yes","bicycle_pa":"stands","capacity":4,"covered":"no","fee":"no","operator":"","nameSource":"landmark"},"sourceId":"osm"},{"id":"osm:node:8486226758","latitude":53.3405221,"longitude":-6.5379669,"name":"Main Street by Shine Haircare","properties":{"access":"yes","bicycle_pa":"stands","capacity":4,"covered":"no","fee":"no","operator":"","nameSource":"landmark"},"sourceId":"osm"},{"id":"osm:node:8504206896","latitude":53.3412598,"longitude":-6.5370541,"name":"Castletown The Drive near Big Lane","properties":{"access":"yes","bicycle_pa":"stands","capacity":8,"covered":"no","fee":"no","operator":"","nameSource":"junction"},"sourceId":"osm"},{"id":"osm:node:8555092213","latitude":53.3494451,"longitude":-6.5290357,"name":"Berkeley Costume and Toy Collection cycle parking","properties":{"access":"unknown","bicycle_pa":"rack","capacity":6,"covered":"","fee":"","operator":"","nameSource":"landmark"},"sourceId":"osm"},{"id":"osm:node:8560477879","latitude":53.3324363,"longitude":-6.5285021,"name":"Celbridge GAA Walking Track by Celbridge GAA","properties":{"access":"unknown","bicycle_pa":"wall_loops","capacity":20,"covered":"no","fee":"","operator":"","nameSource":"landmark"},"sourceId":"osm"},{"id":"osm:node:8560477880","latitude":53.3502719,"longitude":-6.5455301,"name":"Aghards Road near Maynooth Road","properties":{"access":"unknown","bicycle_pa":"stands","capacity":8,"covered":"yes","fee":"","operator":"","nameSource":"junction"},"sourceId":"osm"},{"id":"osm:node:8560477884","latitude":53.3453187,"longitude":-6.5410374,"name":"Maynooth Road by Lidl","properties":{"access":"yes","bicycle_pa":"stands","capacity":8,"covered":"no","fee":"no","operator":"","nameSource":"landmark"},"sourceId":"osm"},{"id":"osm:node:8560477885","latitude":53.3444595,"longitude":-6.5416925,"name":"Maynooth Road near Big Lane","properties":{"access":"unknown","bicycle_pa":"","capacity":10,"covered":"","fee":"","operator":"","nameSource":"junction"},"sourceId":"osm"},{"id":"osm:node:8560477899","latitude":53.3441202,"longitude":-6.5444398,"name":"Shackleton Road near Witethorn","properties":{"access":"yes","bicycle_pa":"stands","capacity":8,"covered":"","fee":"no","operator":"","nameSource":"junction"},"sourceId":"osm"},{"id":"osm:node:8665780807","latitude":53.3376336,"longitude":-6.533135,"name":"The Crescent cycle parking","properties":{"access":"unknown","bicycle_pa":"","capacity":0,"covered":"","fee":"","operator":"","nameSource":"street"},"sourceId":"osm"},{"id":"osm:node:8665780809","latitude":53.3377315,"longitude":-6.5324671,"name":"The Crescent cycle parking","properties":{"access":"unknown","bicycle_pa":"","capacity":0,"covered":"","fee":"","operator":"","nameSource":"street"},"sourceId":"osm"},{"id":"osm:node:8665783427","latitude":53.3379415,"longitude":-6.5315223,"name":"The View near Shinkeen Road","properties":{"access":"unknown","bicycle_pa":"","capacity":0,"covered":"","fee":"","operator":"","nameSource":"junction"},"sourceId":"osm"},{"id":"osm:node:8665783429","latitude":53.3372441,"longitude":-6.5316631,"name":"The View near The Crescent","properties":{"access":"unknown","bicycle_pa":"","capacity":0,"covered":"","fee":"","operator":"","nameSource":"junction"},"sourceId":"osm"},{"id":"osm:way:1106136715","latitude":53.349746059999994,"longitude":-6.54633664,"name":"Castlewellan Park cycle parking","properties":{"access":"private","bicycle_pa":"lockers","capacity":4,"covered":"","fee":"","operator":"","nameSource":"street"},"sourceId":"osm"},{"id":"osm:way:1122697757","latitude":53.33821018,"longitude":-6.533025100000001,"name":"The Crescent by SuperValu","properties":{"access":"yes","bicycle_pa":"stands","capacity":16,"covered":"no","fee":"no","operator":"","nameSource":"landmark"},"sourceId":"osm"},{"id":"osm:way:1467378708","latitude":53.348506237500004,"longitude":-6.5502956,"name":"Aghards Road by Scoil Mochua Gardens","properties":{"access":"private","bicycle_pa":"","capacity":0,"covered":"","fee":"no","operator":"","nameSource":"landmark"},"sourceId":"osm"},{"id":"osm:way:917374742","latitude":53.339065579999996,"longitude":-6.53202182,"name":"Dublin Road near Shinkeen Road","properties":{"access":"yes","bicycle_pa":"stands","capacity":16,"covered":"no","fee":"no","operator":"","nameSource":"junction"},"sourceId":"osm"}],"schemaVersion":2}
