{"key":"12/1857/1715","points":[{"categories":["hire"],"id":"osm:node:13100501869","latitude":28.0557046,"longitude":-16.7303692,"name":"Alquiler de Bicicletas en Tenerife","properties":{"fee":"yes","openingHours":"Mo-Sa 09:00-18:00","operator":"https://www.alquilerdebicicletasenetenerife.com","website":"https://www.bikerenttenerife.com/"},"sourceId":"osm"},{"categories":["hire"],"id":"osm:node:13100535512","latitude":28.0690852,"longitude":-16.7227585,"name":"Bike Rental Tenerife","properties":{"fee":"yes","openingHours":"Mo-Sa 09:00-18:00","website":"https://www.bikerenttenerife.com/"},"sourceId":"osm"},{"categories":["hire"],"id":"osm:node:13100602593","latitude":28.0524433,"longitude":-16.7067248,"name":"Bike Hire Tenerife","properties":{"fee":"yes","network":"https://www.bikerenttenerife.com","openingHours":"Mo-Sa 09:00-18:00","operator":"https://www.bikerenttenerife.com","website":"https://www.bikerenttenerife.com/"},"sourceId":"osm"},{"categories":["hire"],"id":"osm:node:2877172577","latitude":28.052517,"longitude":-16.7288393,"name":"Cycle hire","properties":{},"sourceId":"osm"},{"categories":["hire"],"id":"osm:node:3867991679","latitude":28.0681448,"longitude":-16.7281261,"name":"Bike Experience Tenerife","properties":{"openingHours":"Sep-Apr 08:00-18:00; May-Aug 09:00-18:00","serviceRental":"yes","website":"https://bikeexperiencetenerife.com/"},"sourceId":"osm"},{"categories":["shop","repair","hire"],"id":"osm:node:3867991680","latitude":28.0676697,"longitude":-16.7266766,"name":"Bike Point Tenerife","properties":{"openingHours":"Mo-Su 09:00-13:00, 14:00-18:00","serviceRental":"yes","serviceRepair":"yes","website":"https://www.bikepointtenerife.com/"},"sourceId":"osm"},{"categories":["hire"],"id":"osm:node:4541723164","latitude":28.0556406,"longitude":-16.723679,"name":"Easy Bikerent","properties":{"openingHours":"Mo-Fr 09:30-12:30,15:00-18:00; Sa 09:30-13:30","operator":"Easy Bikerent","website":"https://easybikerent.com/"},"sourceId":"osm"},{"categories":["shop"],"id":"osm:node:5792895701","latitude":28.0564832,"longitude":-16.721593,"name":"Free Motion","properties":{},"sourceId":"osm"},{"categories":["hire"],"id":"osm:node:957154222","latitude":28.0563358,"longitude":-16.7325614,"name":"DIGA sports","properties":{"operator":"DIGA sports"},"sourceId":"osm"}],"schemaVersion":2}
