{"key":"12/1845/1707","points":[{"categories":["shop"],"id":"osm:node:10582191330","latitude":28.6654443,"longitude":-17.7868761,"name":"Luque Bike","properties":{},"sourceId":"osm"},{"categories":["repair"],"id":"osm:node:11163911451","latitude":28.6142128,"longitude":-17.8362732,"name":"Bicycle repair station","properties":{"servicePump":"yes"},"sourceId":"osm"},{"categories":["shop"],"id":"osm:node:12915124243","latitude":28.6885026,"longitude":-17.7656916,"name":"Mountain Ride","properties":{"servicePump":"no"},"sourceId":"osm"},{"categories":["shop","hire"],"id":"osm:node:13098221315","latitude":28.64606,"longitude":-17.7585793,"name":"Flow Trails La Palma","properties":{"openingHours":"Mo-Fr 18:00-20:00","serviceRental":"yes"},"sourceId":"osm"},{"categories":["shop","repair","hire"],"id":"osm:node:1667588582","latitude":28.6509483,"longitude":-17.7595033,"name":"Su Bici","properties":{"openingHours":"Mo-Su 09:00-16:00","operator":"La Palma Active S.L.","servicePump":"yes","serviceRental":"yes","serviceRepair":"yes","serviceTools":"yes"},"sourceId":"osm"},{"categories":["hire"],"id":"osm:node:1674411429","latitude":28.6445319,"longitude":-17.7596442,"name":"Isla Verde","properties":{},"sourceId":"osm"}],"schemaVersion":2}
