{"key":"12/2013/1326","points":[{"categories":["hire"],"id":"osm:node:10700510313","latitude":53.4039817,"longitude":-2.9926547,"name":"city bike - Port of Liverpool Building","properties":{"network":"city bike Liverpool","operator":"city bike Liverpool"},"sourceId":"osm"},{"categories":["hire"],"id":"osm:node:10700510335","latitude":53.4040911,"longitude":-2.9935699,"name":"city bike - Port of Liverpool Building","properties":{"network":"city bike Liverpool","operator":"city bike Liverpool"},"sourceId":"osm"},{"categories":["hire"],"id":"osm:node:11137267489","latitude":53.4051734,"longitude":-2.9904524,"name":"Cycle hire","properties":{},"sourceId":"osm"},{"categories":["hire"],"id":"osm:node:11137267491","latitude":53.405228,"longitude":-2.9901547,"name":"Cycle hire","properties":{},"sourceId":"osm"},{"categories":["hire"],"id":"osm:node:2989899042","latitude":53.4302539,"longitude":-2.9911482,"name":"Citybike - Sandhills Station","properties":{"network":"Citybike Liverpool","operator":"Citybike Liverpool"},"sourceId":"osm"},{"categories":["hire"],"id":"osm:node:2989899043","latitude":53.4210677,"longitude":-2.9891361,"name":"city bike - Silvester Street","properties":{"network":"city bike Liverpool","operator":"city bike Liverpool"},"sourceId":"osm"},{"categories":["hire"],"id":"osm:node:2989899049","latitude":53.4104261,"longitude":-2.9957118,"name":"city bike - Passport Office","properties":{"network":"city bike Liverpool","operator":"city bike Liverpool"},"sourceId":"osm"},{"categories":["hire"],"id":"osm:node:2989899050","latitude":53.4092493,"longitude":-2.9941502,"name":"city bike - Capital Building","properties":{},"sourceId":"osm"},{"categories":["hire"],"id":"osm:node:2989899052","latitude":53.4081645,"longitude":-2.9926116,"name":"city bike - Chapel Street","properties":{"network":"city bike Liverpool","operator":"city bike Liverpool"},"sourceId":"osm"},{"categories":["hire"],"id":"osm:node:2989901935","latitude":53.4023018,"longitude":-2.9902676,"name":"city bike - Canning Street","properties":{"network":"city bike Liverpool","operator":"city bike Liverpool"},"sourceId":"osm"},{"categories":["hire"],"id":"osm:node:2989901936","latitude":53.404398,"longitude":-2.9961328,"name":"city bike - Port of Liverpool Building","properties":{"network":"city bike Liverpool","operator":"city bike Liverpool"},"sourceId":"osm"},{"categories":["hire"],"id":"osm:node:4890011227","latitude":53.4070791,"longitude":-2.990899,"name":"city bike - Liverpool Town Hall","properties":{"network":"city bike Liverpool","operator":"city bike Liverpool"},"sourceId":"osm"},{"categories":["hire"],"id":"osm:node:6247252887","latitude":53.4087804,"longitude":-2.9997611,"name":"Promenade Princes Parade","properties":{"openingHours":"24/7","operator":"Voi"},"sourceId":"osm"},{"categories":["shop"],"id":"osm:node:687484929","latitude":53.3940327,"longitude":-3.0303882,"name":"Birkenhead Cycles","properties":{},"sourceId":"osm"},{"categories":["shop"],"id":"osm:node:736374708","latitude":53.4280985,"longitude":-3.052525,"name":"Off The Rock Cycles","properties":{},"sourceId":"osm"},{"categories":["repair"],"id":"osm:way:236548619","latitude":53.41203881,"longitude":-3.07378429,"name":"Halfords","properties":{"brand":"Halfords","serviceRepair":"yes"},"sourceId":"osm"}],"schemaVersion":2}
