{"key":"12/2013/1360","points":[{"categories":["hire"],"id":"osm:node:10182576820","latitude":51.5683965,"longitude":-3.0242409,"name":"Wheels for All","properties":{"operator":"Newport City Council","website":"https://www.newportlive.co.uk/en/sports-wellbeing/cycling/wheels-all/"},"sourceId":"osm"},{"categories":["repair"],"id":"osm:node:10937128446","latitude":51.5881882,"longitude":-2.9957193,"name":"Spokesafe","properties":{"fee":"yes","openingHours":"24/7","operator":"Spokesafe","servicePump":"yes"},"sourceId":"osm"},{"categories":["shop"],"id":"osm:node:12118534502","latitude":51.5728688,"longitude":-3.0127246,"name":"Citizen Cycl","properties":{},"sourceId":"osm"},{"categories":["repair"],"id":"osm:node:7928470862","latitude":51.5684878,"longitude":-2.9995966,"name":"Halfords","properties":{"brand":"Halfords","openingHours":"Mo-Fr 08:00-20:00; Sa 08:00-18:00; Su 10:00-17:00","serviceRepair":"yes","website":"https://www.halfords.com/locations/newport-store/"},"sourceId":"osm"},{"categories":["shop"],"id":"osm:node:9984268270","latitude":51.5863824,"longitude":-3.0372155,"name":"Leisure Lakes Bikes","properties":{"openingHours":"Mo-Sa 10:00-17:00; Su off","website":"https://www.leisurelakesbikes.com/location/store/newport/"},"sourceId":"osm"}],"schemaVersion":2}
