{"key":"12/1983/1535","points":[{"id":"osm:node:11077853661","latitude":40.9806837,"longitude":-5.6669536,"name":"Calle de los Valles Mineros near Calle de Astorga","properties":{"access":"unknown","bicycle_pa":"stands","capacity":4,"covered":"no","fee":"","operator":"","nameSource":"junction"},"sourceId":"osm"},{"id":"osm:node:11445367401","latitude":40.996439,"longitude":-5.6937326,"name":"Paseo de Medes near Calle Consuelo Moreno","properties":{"access":"unknown","bicycle_pa":"stands","capacity":8,"covered":"no","fee":"","operator":"","nameSource":"junction"},"sourceId":"osm"},{"id":"osm:node:12753005840","latitude":40.9970825,"longitude":-5.6914112,"name":"Calle Escuelas Menores near Avenida Diego de Velázquez","properties":{"access":"unknown","bicycle_pa":"stands","capacity":8,"covered":"","fee":"","operator":"","nameSource":"junction"},"sourceId":"osm"},{"id":"osm:node:12753005843","latitude":40.9969373,"longitude":-5.6911359,"name":"Calle Escuelas Menores cycle parking","properties":{"access":"unknown","bicycle_pa":"stands","capacity":8,"covered":"","fee":"","operator":"","nameSource":"street"},"sourceId":"osm"},{"id":"osm:node:12753005844","latitude":40.995497,"longitude":-5.6932835,"name":"Paseo de Medes near Calle Rodríguez de la Fuente","properties":{"access":"unknown","bicycle_pa":"stands","capacity":8,"covered":"","fee":"","operator":"","nameSource":"junction"},"sourceId":"osm"},{"id":"osm:node:12753005845","latitude":40.9990058,"longitude":-5.6940004,"name":"Parque Picasso near Calle los verdes","properties":{"access":"unknown","bicycle_pa":"stands","capacity":8,"covered":"","fee":"","operator":"","nameSource":"junction"},"sourceId":"osm"},{"id":"osm:node:12753005846","latitude":40.9979421,"longitude":-5.6944893,"name":"Calle Goya near Calle Rivera","properties":{"access":"unknown","bicycle_pa":"stands","capacity":8,"covered":"","fee":"","operator":"","nameSource":"junction"},"sourceId":"osm"},{"id":"osm:node:12753041350","latitude":40.9824951,"longitude":-5.6532475,"name":"Avenida de San Agustín by Pabellón Municipal Würzburg","properties":{"access":"unknown","bicycle_pa":"wall_loops","capacity":10,"covered":"","fee":"","operator":"","nameSource":"landmark"},"sourceId":"osm"},{"id":"osm:node:12753041351","latitude":40.9818797,"longitude":-5.6669969,"name":"Plaza de Castrotorafe cycle parking","properties":{"access":"unknown","bicycle_pa":"stands","capacity":4,"covered":"","fee":"","operator":"","nameSource":"street"},"sourceId":"osm"},{"id":"osm:node:1298211591","latitude":40.9964066,"longitude":-5.6660802,"name":"Acceso Norte a Salamanca near Glorieta del Helmántico","properties":{"access":"yes","bicycle_pa":"wall_loops","capacity":7,"covered":"no","fee":"no","operator":"","nameSource":"junction"},"sourceId":"osm"},{"id":"osm:node:1298211595","latitude":40.9964006,"longitude":-5.666118,"name":"Acceso Norte a Salamanca near Glorieta del Helmántico","properties":{"access":"yes","bicycle_pa":"wall_loops","capacity":7,"covered":"no","fee":"no","operator":"","nameSource":"junction"},"sourceId":"osm"},{"id":"osm:node:1298211607","latitude":40.996418,"longitude":-5.6659875,"name":"Glorieta del Helmántico near Paseo Prado Panaderos","properties":{"access":"yes","bicycle_pa":"","capacity":7,"covered":"","fee":"no","operator":"","nameSource":"junction"},"sourceId":"osm"},{"id":"osm:node:1298211608","latitude":40.9964127,"longitude":-5.6660325,"name":"Glorieta del Helmántico near Acceso Norte a Salamanca","properties":{"access":"yes","bicycle_pa":"wall_loops","capacity":7,"covered":"no","fee":"no","operator":"","nameSource":"junction"},"sourceId":"osm"},{"id":"osm:node:3814223597","latitude":40.9964284,"longitude":-5.6659467,"name":"Glorieta del Helmántico near Paseo Prado Panaderos","properties":{"access":"yes","bicycle_pa":"","capacity":7,"covered":"","fee":"no","operator":"","nameSource":"junction"},"sourceId":"osm"},{"id":"osm:node:3828521278","latitude":41.0097634,"longitude":-5.6526929,"name":"Carretera de La Mata near SA-605 a San Cristóbal de la Cuesta por Monterrubio de Armuña","properties":{"access":"unknown","bicycle_pa":"bollard","capacity":4,"covered":"no","fee":"","operator":"","nameSource":"junction"},"sourceId":"osm"},{"id":"osm:node:3830292483","latitude":41.0091336,"longitude":-5.6516938,"name":"Carretera de La Mata near Calle Pozo Prado","properties":{"access":"unknown","bicycle_pa":"wall_loops","capacity":4,"covered":"no","fee":"","operator":"","nameSource":"junction"},"sourceId":"osm"},{"id":"osm:node:9241646584","latitude":40.9806974,"longitude":-5.6529171,"name":"Calle de la Docencia cycle parking","properties":{"access":"unknown","bicycle_pa":"wall_loops","capacity":5,"covered":"no","fee":"","operator":"","nameSource":"street"},"sourceId":"osm"},{"id":"osm:node:9241646592","latitude":40.9800429,"longitude":-5.6669055,"name":"Calle de los Valles Mineros cycle parking","properties":{"access":"unknown","bicycle_pa":"stands","capacity":4,"covered":"no","fee":"","operator":"","nameSource":"street"},"sourceId":"osm"}],"schemaVersion":2}
