{"key":"12/1983/1536","points":[{"id":"osm:node:10002860625","latitude":40.9602606,"longitude":-5.635648,"name":"Avenida Baloncesto cycle parking","properties":{"access":"unknown","bicycle_pa":"","capacity":6,"covered":"","fee":"","operator":"","nameSource":"street"},"sourceId":"osm"},{"id":"osm:node:10210631862","latitude":40.9582361,"longitude":-5.6863984,"name":"Avenida Padre Ignacio Ellacuría near Glorieta de las Aceñas","properties":{"access":"unknown","bicycle_pa":"stands","capacity":12,"covered":"no","fee":"","operator":"","nameSource":"junction"},"sourceId":"osm"},{"id":"osm:node:10805246927","latitude":40.9369323,"longitude":-5.6523681,"name":"Calle Salamanca cycle parking","properties":{"access":"unknown","bicycle_pa":"stands","capacity":6,"covered":"","fee":"","operator":"","nameSource":"street"},"sourceId":"osm"},{"id":"osm:node:10814628466","latitude":40.976836,"longitude":-5.6670551,"name":"Avenida de Salamanca near Glorieta de los Ingenieros Militares","properties":{"access":"unknown","bicycle_pa":"stands","capacity":4,"covered":"no","fee":"","operator":"","nameSource":"junction"},"sourceId":"osm"},{"id":"osm:node:10814628467","latitude":40.9766135,"longitude":-5.6674145,"name":"Avenida de Salamanca near Glorieta de los Ingenieros Militares","properties":{"access":"unknown","bicycle_pa":"stands","capacity":4,"covered":"no","fee":"","operator":"","nameSource":"junction"},"sourceId":"osm"},{"id":"osm:node:10858169261","latitude":40.9560291,"longitude":-5.6502375,"name":"Paseo del Parque Fluvial cycle parking","properties":{"access":"unknown","bicycle_pa":"wall_loops","capacity":6,"covered":"no","fee":"","operator":"","nameSource":"street"},"sourceId":"osm"},{"id":"osm:node:10858169263","latitude":40.9572876,"longitude":-5.646782,"name":"Paseo del Parque Fluvial near Calle Génova","properties":{"access":"unknown","bicycle_pa":"wall_loops","capacity":6,"covered":"no","fee":"","operator":"","nameSource":"junction"},"sourceId":"osm"},{"id":"osm:node:10858169289","latitude":40.9565149,"longitude":-5.6489171,"name":"Paseo del Parque Fluvial near Calle La Haya","properties":{"access":"unknown","bicycle_pa":"wall_loops","capacity":6,"covered":"no","fee":"","operator":"","nameSource":"junction"},"sourceId":"osm"},{"id":"osm:node:10865237345","latitude":40.9585138,"longitude":-5.6554193,"name":"Avenida de la Aldehuela cycle parking","properties":{"access":"unknown","bicycle_pa":"stands","capacity":4,"covered":"no","fee":"","operator":"","nameSource":"street"},"sourceId":"osm"},{"id":"osm:node:10865237361","latitude":40.9588947,"longitude":-5.656581,"name":"Avenida de la Aldehuela cycle parking","properties":{"access":"unknown","bicycle_pa":"wall_loops","capacity":5,"covered":"no","fee":"","operator":"","nameSource":"street"},"sourceId":"osm"},{"id":"osm:node:10865305454","latitude":40.954273,"longitude":-5.6534213,"name":"Paseo del Parque Fluvial cycle parking","properties":{"access":"unknown","bicycle_pa":"wall_loops","capacity":6,"covered":"no","fee":"","operator":"","nameSource":"street"},"sourceId":"osm"},{"id":"osm:node:10865305478","latitude":40.9546859,"longitude":-5.6525101,"name":"Paseo del Parque Fluvial near Calle Coimbra","properties":{"access":"unknown","bicycle_pa":"wall_loops","capacity":12,"covered":"no","fee":"","operator":"","nameSource":"junction"},"sourceId":"osm"},{"id":"osm:node:10868083945","latitude":40.9650036,"longitude":-5.6607963,"name":"Calle Correhuela near Calle Gran Vía","properties":{"access":"unknown","bicycle_pa":"stands","capacity":4,"covered":"no","fee":"","operator":"","nameSource":"junction"},"sourceId":"osm"},{"id":"osm:node:10879141812","latitude":40.9529939,"longitude":-5.6379463,"name":"Isla del Soto cycle parking","properties":{"access":"unknown","bicycle_pa":"wall_loops","capacity":5,"covered":"","fee":"","operator":"","nameSource":"street"},"sourceId":"osm"},{"id":"osm:node:10900647724","latitude":40.9668517,"longitude":-5.6614902,"name":"Plaza de Santa Eulalia near Calle Azafranal","properties":{"access":"unknown","bicycle_pa":"stands","capacity":8,"covered":"no","fee":"","operator":"","nameSource":"junction"},"sourceId":"osm"},{"id":"osm:node:10904146049","latitude":40.9736825,"longitude":-5.6673422,"name":"Plaza del Barrio Vidal near Calle Pintores","properties":{"access":"unknown","bicycle_pa":"stands","capacity":6,"covered":"no","fee":"","operator":"","nameSource":"junction"},"sourceId":"osm"},{"id":"osm:node:10919543649","latitude":40.9742933,"longitude":-5.6710855,"name":"Carretera de Ledesma near Avenida de Salamanca","properties":{"access":"unknown","bicycle_pa":"wall_loops","capacity":10,"covered":"no","fee":"","operator":"","nameSource":"junction"},"sourceId":"osm"},{"id":"osm:node:10924848182","latitude":40.9596459,"longitude":-5.6984424,"name":"Calle Adolfo Suárez near Calle Antonio López Borrasca","properties":{"access":"unknown","bicycle_pa":"stands","capacity":8,"covered":"no","fee":"","operator":"","nameSource":"junction"},"sourceId":"osm"},{"id":"osm:node:10924877022","latitude":40.959663,"longitude":-5.6967863,"name":"Calle Adolfo Suárez cycle parking","properties":{"access":"unknown","bicycle_pa":"stands","capacity":8,"covered":"","fee":"","operator":"","nameSource":"street"},"sourceId":"osm"},{"id":"osm:node:10925321380","latitude":40.9597983,"longitude":-5.6955588,"name":"Calle Adolfo Suárez near Calle Antonio Colinas Lobato","properties":{"access":"unknown","bicycle_pa":"stands","capacity":8,"covered":"no","fee":"","operator":"","nameSource":"junction"},"sourceId":"osm"},{"id":"osm:node:10925325582","latitude":40.9567994,"longitude":-5.68954,"name":"Camino Huertas de la Vega near Camino Huertas de la Vega (Turborotonda de Salamanca)","properties":{"access":"unknown","bicycle_pa":"stands","capacity":12,"covered":"no","fee":"","operator":"","nameSource":"junction"},"sourceId":"osm"},{"id":"osm:node:10940666157","latitude":40.9569051,"longitude":-5.6900902,"name":"Camino Huertas de la Vega (Turborotonda de Salamanca) cycle parking","properties":{"access":"unknown","bicycle_pa":"stands","capacity":8,"covered":"no","fee":"","operator":"","nameSource":"street"},"sourceId":"osm"},{"id":"osm:node:10940666158","latitude":40.9578975,"longitude":-5.6896845,"name":"Camino Huertas de la Vega cycle parking","properties":{"access":"unknown","bicycle_pa":"stands","capacity":8,"covered":"no","fee":"","operator":"","nameSource":"street"},"sourceId":"osm"},{"id":"osm:node:10940666160","latitude":40.9592651,"longitude":-5.6863429,"name":"Huertos Urbanos Salamanca cycle parking","properties":{"access":"unknown","bicycle_pa":"stands","capacity":8,"covered":"no","fee":"","operator":"","nameSource":"landmark"},"sourceId":"osm"},{"id":"osm:node:10940666161","latitude":40.9580528,"longitude":-5.6888138,"name":"Avenida Padre Ignacio Ellacuría near Camino Huertas de la Vega","properties":{"access":"unknown","bicycle_pa":"stands","capacity":8,"covered":"no","fee":"","operator":"","nameSource":"junction"},"sourceId":"osm"},{"id":"osm:node:10940666163","latitude":40.9585289,"longitude":-5.6852654,"name":"Avenida Padre Ignacio Ellacuría near Glorieta de las Aceñas","properties":{"access":"unknown","bicycle_pa":"stands","capacity":8,"covered":"no","fee":"","operator":"","nameSource":"junction"},"sourceId":"osm"},{"id":"osm:node:10940666165","latitude":40.958607,"longitude":-5.6859452,"name":"Glorieta de las Aceñas near Avenida Padre Ignacio Ellacuría","properties":{"access":"unknown","bicycle_pa":"stands","capacity":16,"covered":"no","fee":"","operator":"","nameSource":"junction"},"sourceId":"osm"},{"id":"osm:node:10940666166","latitude":40.9588789,"longitude":-5.6867594,"name":"Glorieta de las Aceñas by Huertos Urbanos Salamanca","properties":{"access":"unknown","bicycle_pa":"stands","capacity":16,"covered":"no","fee":"","operator":"","nameSource":"landmark"},"sourceId":"osm"},{"id":"osm:node:10940666167","latitude":40.9591172,"longitude":-5.6860716,"name":"Glorieta de las Aceñas by Huertos Urbanos Salamanca","properties":{"access":"unknown","bicycle_pa":"stands","capacity":8,"covered":"no","fee":"","operator":"","nameSource":"landmark"},"sourceId":"osm"},{"id":"osm:node:10940666168","latitude":40.9600824,"longitude":-5.6867968,"name":"Salas Bajas cycle parking","properties":{"access":"unknown","bicycle_pa":"stands","capacity":8,"covered":"no","fee":"","operator":"","nameSource":"place"},"sourceId":"osm"},{"id":"osm:node:10940666171","latitude":40.9588333,"longitude":-5.6886324,"name":"Avenida Padre Ignacio Ellacuría cycle parking","properties":{"access":"unknown","bicycle_pa":"stands","capacity":8,"covered":"no","fee":"","operator":"","nameSource":"street"},"sourceId":"osm"},{"id":"osm:node:10940666172","latitude":40.9600477,"longitude":-5.686657,"name":"Salas Bajas cycle parking","properties":{"access":"unknown","bicycle_pa":"stands","capacity":8,"covered":"no","fee":"","operator":"","nameSource":"place"},"sourceId":"osm"},{"id":"osm:node:10940666174","latitude":40.958244,"longitude":-5.6876748,"name":"Avenida Padre Ignacio Ellacuría near Paseo Fernando Araujo","properties":{"access":"unknown","bicycle_pa":"stands","capacity":12,"covered":"no","fee":"","operator":"","nameSource":"junction"},"sourceId":"osm"},{"id":"osm:node:10940666177","latitude":40.9590273,"longitude":-5.6886549,"name":"Salas Bajas cycle parking","properties":{"access":"unknown","bicycle_pa":"stands","capacity":8,"covered":"no","fee":"","operator":"","nameSource":"place"},"sourceId":"osm"},{"id":"osm:node:10940666178","latitude":40.9586246,"longitude":-5.6819299,"name":"Avenida José Núñez Larráz near Avenida Padre Ignacio Ellacuría","properties":{"access":"unknown","bicycle_pa":"stands","capacity":12,"covered":"no","fee":"","operator":"","nameSource":"junction"},"sourceId":"osm"},{"id":"osm:node:10940666181","latitude":40.9596214,"longitude":-5.6881479,"name":"Salas Bajas cycle parking","properties":{"access":"unknown","bicycle_pa":"stands","capacity":16,"covered":"no","fee":"","operator":"","nameSource":"place"},"sourceId":"osm"},{"id":"osm:node:10940666182","latitude":40.9586396,"longitude":-5.6844747,"name":"Avenida Padre Ignacio Ellacuría near Calle Tomás Rodríguez Pinilla","properties":{"access":"unknown","bicycle_pa":"stands","capacity":8,"covered":"no","fee":"","operator":"","nameSource":"junction"},"sourceId":"osm"},{"id":"osm:node:10940666184","latitude":40.9590217,"longitude":-5.6848439,"name":"Avenida Padre Ignacio Ellacuría cycle parking","properties":{"access":"unknown","bicycle_pa":"stands","capacity":4,"covered":"no","fee":"","operator":"","nameSource":"street"},"sourceId":"osm"},{"id":"osm:node:10940666186","latitude":40.9578082,"longitude":-5.6890941,"name":"Camino Huertas de la Vega near Avenida Padre Ignacio Ellacuría","properties":{"access":"unknown","bicycle_pa":"stands","capacity":12,"covered":"no","fee":"","operator":"","nameSource":"junction"},"sourceId":"osm"},{"id":"osm:node:10940666187","latitude":40.9587338,"longitude":-5.686673,"name":"Glorieta de las Aceñas by Huertos Urbanos Salamanca","properties":{"access":"unknown","bicycle_pa":"stands","capacity":8,"covered":"no","fee":"","operator":"","nameSource":"landmark"},"sourceId":"osm"},{"id":"osm:node:10940666189","latitude":40.9579731,"longitude":-5.6891415,"name":"Camino Huertas de la Vega near Avenida Padre Ignacio Ellacuría","properties":{"access":"unknown","bicycle_pa":"stands","capacity":8,"covered":"no","fee":"","operator":"","nameSource":"junction"},"sourceId":"osm"},{"id":"osm:node:10940666192","latitude":40.9582264,"longitude":-5.6879823,"name":"Avenida Padre Ignacio Ellacuría near Paseo Fernando Araujo","properties":{"access":"unknown","bicycle_pa":"stands","capacity":8,"covered":"no","fee":"","operator":"","nameSource":"junction"},"sourceId":"osm"},{"id":"osm:node:10940666195","latitude":40.9569123,"longitude":-5.6901325,"name":"Camino Huertas de la Vega (Turborotonda de Salamanca) cycle parking","properties":{"access":"unknown","bicycle_pa":"stands","capacity":8,"covered":"no","fee":"","operator":"","nameSource":"street"},"sourceId":"osm"},{"id":"osm:node:10940666196","latitude":40.9583494,"longitude":-5.6878126,"name":"Avenida Padre Ignacio Ellacuría near Paseo Fernando Araujo","properties":{"access":"unknown","bicycle_pa":"stands","capacity":16,"covered":"no","fee":"","operator":"","nameSource":"junction"},"sourceId":"osm"},{"id":"osm:node:10955922153","latitude":40.9619961,"longitude":-5.6621719,"name":"Calle Marquesa de Almarza near Calle Gran Vía","properties":{"access":"unknown","bicycle_pa":"stands","capacity":4,"covered":"no","fee":"","operator":"","nameSource":"junction"},"sourceId":"osm"},{"id":"osm:node:10965611103","latitude":40.925607,"longitude":-5.6906498,"name":"Avenida de la Peña de Francia near Calle Dalí","properties":{"access":"unknown","bicycle_pa":"wall_loops","capacity":5,"covered":"yes","fee":"","operator":"","nameSource":"junction"},"sourceId":"osm"},{"id":"osm:node:10969435404","latitude":40.9603989,"longitude":-5.6594446,"name":"Calle del Obispo Barbado Viejo near Paseo de Canalejas","properties":{"access":"unknown","bicycle_pa":"stands","capacity":16,"covered":"no","fee":"","operator":"","nameSource":"junction"},"sourceId":"osm"},{"id":"osm:node:11006269780","latitude":40.939643,"longitude":-5.6256063,"name":"Avenida de Prado Pocito cycle parking","properties":{"access":"unknown","bicycle_pa":"wall_loops","capacity":6,"covered":"","fee":"","operator":"","nameSource":"street"},"sourceId":"osm"},{"id":"osm:node:11006269783","latitude":40.9393404,"longitude":-5.6257869,"name":"Avenida de Prado Pocito cycle parking","properties":{"access":"unknown","bicycle_pa":"wall_loops","capacity":12,"covered":"","fee":"","operator":"","nameSource":"street"},"sourceId":"osm"},{"id":"osm:node:11006269784","latitude":40.9387885,"longitude":-5.6259437,"name":"Avenida de Prado Pocito cycle parking","properties":{"access":"unknown","bicycle_pa":"wall_loops","capacity":6,"covered":"","fee":"","operator":"","nameSource":"street"},"sourceId":"osm"},{"id":"osm:node:11026635803","latitude":40.9502402,"longitude":-5.6341249,"name":"Avenida de Madrid near Glorieta de Santa Marta","properties":{"access":"unknown","bicycle_pa":"wall_loops","capacity":12,"covered":"no","fee":"","operator":"","nameSource":"junction"},"sourceId":"osm"},{"id":"osm:node:11076102941","latitude":40.9393109,"longitude":-5.6254999,"name":"Avenida de Prado Pocito cycle parking","properties":{"access":"unknown","bicycle_pa":"wall_loops","capacity":6,"covered":"","fee":"","operator":"","nameSource":"street"},"sourceId":"osm"},{"id":"osm:node:11076138736","latitude":40.9377495,"longitude":-5.6315158,"name":"Avenida Pireo near Calle Micenas","properties":{"access":"unknown","bicycle_pa":"wall_loops","capacity":6,"covered":"","fee":"","operator":"","nameSource":"junction"},"sourceId":"osm"},{"id":"osm:node:11076138737","latitude":40.9380648,"longitude":-5.6311442,"name":"Avenida Pireo near Calle Rodas","properties":{"access":"unknown","bicycle_pa":"wall_loops","capacity":6,"covered":"","fee":"","operator":"","nameSource":"junction"},"sourceId":"osm"},{"id":"osm:node:11083827197","latitude":40.9649565,"longitude":-5.6830823,"name":"Calle José de Lamano Beneite near Calle Eugenio de Castro","properties":{"access":"unknown","bicycle_pa":"stands","capacity":12,"covered":"","fee":"","operator":"","nameSource":"junction"},"sourceId":"osm"},{"id":"osm:node:11401857845","latitude":40.9747482,"longitude":-5.6617484,"name":"Calle Salesas near Calle del Sur","properties":{"access":"unknown","bicycle_pa":"stands","capacity":4,"covered":"","fee":"","operator":"","nameSource":"junction"},"sourceId":"osm"},{"id":"osm:node:11436111329","latitude":40.961916,"longitude":-5.66389,"name":"Plaza de Colón near Calle Juan de la Fuente","properties":{"access":"unknown","bicycle_pa":"stands","capacity":4,"covered":"no","fee":"","operator":"","nameSource":"junction"},"sourceId":"osm"},{"id":"osm:node:11464482701","latitude":40.9635155,"longitude":-5.673584,"name":"Paseo de San Vicente cycle parking","properties":{"access":"unknown","bicycle_pa":"stands","capacity":8,"covered":"no","fee":"","operator":"","nameSource":"street"},"sourceId":"osm"},{"id":"osm:node:11949144377","latitude":40.9600663,"longitude":-5.67227,"name":"Calle la Palma cycle parking","properties":{"access":"unknown","bicycle_pa":"stands","capacity":16,"covered":"no","fee":"","operator":"","nameSource":"street"},"sourceId":"osm"},{"id":"osm:node:12412961936","latitude":40.9623102,"longitude":-5.6747084,"name":"Paseo de San Vicente near Glorieta de los Sanitarios","properties":{"access":"unknown","bicycle_pa":"stands","capacity":16,"covered":"no","fee":"","operator":"","nameSource":"junction"},"sourceId":"osm"},{"id":"osm:node:12517103312","latitude":40.9509079,"longitude":-5.6874171,"name":"Calle del Cóndor near Calle Alcalde Cruz Hernández","properties":{"access":"unknown","bicycle_pa":"stands","capacity":6,"covered":"no","fee":"","operator":"","nameSource":"junction"},"sourceId":"osm"},{"id":"osm:node:12517103313","latitude":40.9509411,"longitude":-5.6874673,"name":"Calle Juan de Herrera near Calle Alcalde Cruz Hernández","properties":{"access":"unknown","bicycle_pa":"stands","capacity":6,"covered":"no","fee":"","operator":"","nameSource":"junction"},"sourceId":"osm"},{"id":"osm:node:1261958624","latitude":40.9699789,"longitude":-5.6770203,"name":"Avenida de los Maristas near Glorieta Adolfo Suárez","properties":{"access":"yes","bicycle_pa":"wall_loops","capacity":5,"covered":"no","fee":"no","operator":"","nameSource":"junction"},"sourceId":"osm"},{"id":"osm:node:12750691612","latitude":40.9716875,"longitude":-5.6346413,"name":"Avenida de Santiago Madrigal near Glorieta de los Repobladores","properties":{"access":"unknown","bicycle_pa":"stands","capacity":4,"covered":"","fee":"","operator":"","nameSource":"junction"},"sourceId":"osm"},{"id":"osm:node:12750691613","latitude":40.9761534,"longitude":-5.6545983,"name":"Calle de los Tilos near Avenida Federico Anaya","properties":{"access":"unknown","bicycle_pa":"stands","capacity":4,"covered":"","fee":"","operator":"","nameSource":"junction"},"sourceId":"osm"},{"id":"osm:node:12750691614","latitude":40.9736686,"longitude":-5.6468507,"name":"Avenida de los Cipreses near Calle Río Alhándiga","properties":{"access":"unknown","bicycle_pa":"stands","capacity":4,"covered":"no","fee":"","operator":"","nameSource":"junction"},"sourceId":"osm"},{"id":"osm:node:12753041349","latitude":40.9711804,"longitude":-5.6614832,"name":"Calle de García Quiñones near Calle Velarde","properties":{"access":"unknown","bicycle_pa":"stands","capacity":4,"covered":"no","fee":"","operator":"","nameSource":"junction"},"sourceId":"osm"},{"id":"osm:node:12753041352","latitude":40.9728547,"longitude":-5.669464,"name":"Avenida de Portugal near Avenida de Italia","properties":{"access":"unknown","bicycle_pa":"stands","capacity":4,"covered":"","fee":"","operator":"","nameSource":"junction"},"sourceId":"osm"},{"id":"osm:node:12753041357","latitude":40.9786319,"longitude":-5.6742161,"name":"Plaza de la Enseñanza near Calle Ruiz Zorrilla","properties":{"access":"unknown","bicycle_pa":"stands","capacity":12,"covered":"","fee":"","operator":"","nameSource":"junction"},"sourceId":"osm"},{"id":"osm:node:12753041359","latitude":40.9759985,"longitude":-5.6738781,"name":"Calle de los Alfareros near Calle López Vivero","properties":{"access":"unknown","bicycle_pa":"stands","capacity":4,"covered":"","fee":"","operator":"","nameSource":"junction"},"sourceId":"osm"},{"id":"osm:node:12753050792","latitude":40.9649077,"longitude":-5.6764243,"name":"Paseo de la Universidad de Coimbra near Calle Donantes de Sangre","properties":{"access":"unknown","bicycle_pa":"stands","capacity":8,"covered":"no","fee":"","operator":"","nameSource":"junction"},"sourceId":"osm"},{"id":"osm:node:12753050794","latitude":40.9650804,"longitude":-5.6762792,"name":"Paseo de la Universidad de Coimbra near Calle Donantes de Sangre","properties":{"access":"unknown","bicycle_pa":"wall_loops","capacity":4,"covered":"no","fee":"","operator":"","nameSource":"junction"},"sourceId":"osm"},{"id":"osm:node:12753050795","latitude":40.9656982,"longitude":-5.6761208,"name":"Calle Donantes de Sangre near Paseo de la Universidad de Coimbra","properties":{"access":"unknown","bicycle_pa":"stands","capacity":8,"covered":"no","fee":"","operator":"","nameSource":"junction"},"sourceId":"osm"},{"id":"osm:node:12753050799","latitude":40.9653327,"longitude":-5.6755643,"name":"Calle Donantes de Sangre near Paseo de la Universidad de Coimbra","properties":{"access":"unknown","bicycle_pa":"stands","capacity":8,"covered":"no","fee":"","operator":"","nameSource":"junction"},"sourceId":"osm"},{"id":"osm:node:12753090201","latitude":40.9642231,"longitude":-5.6864287,"name":"Calle Antonio Ponz near Calle Jean Laurent","properties":{"access":"unknown","bicycle_pa":"stands","capacity":4,"covered":"no","fee":"","operator":"","nameSource":"junction"},"sourceId":"osm"},{"id":"osm:node:12754760225","latitude":40.9650749,"longitude":-5.6587671,"name":"Ronda de Sancti-Spíritus near Calle Bodegones","properties":{"access":"unknown","bicycle_pa":"stands","capacity":4,"covered":"","fee":"","operator":"","nameSource":"junction"},"sourceId":"osm"},{"id":"osm:node:12754760226","latitude":40.9690397,"longitude":-5.6415991,"name":"Calle Colombia near Carretera de Aldealengua","properties":{"access":"unknown","bicycle_pa":"wall_loops","capacity":5,"covered":"no","fee":"","operator":"","nameSource":"junction"},"sourceId":"osm"},{"id":"osm:node:12754760230","latitude":40.9657381,"longitude":-5.6488935,"name":"Calle de Fontiveros near Calle de La Coruña","properties":{"access":"unknown","bicycle_pa":"stands","capacity":4,"covered":"no","fee":"","operator":"","nameSource":"junction"},"sourceId":"osm"},{"id":"osm:node:12754760231","latitude":40.9589114,"longitude":-5.6500461,"name":"Avenida de la Aldehuela near Calle del Río Cea","properties":{"access":"unknown","bicycle_pa":"wall_loops","capacity":5,"covered":"no","fee":"","operator":"","nameSource":"junction"},"sourceId":"osm"},{"id":"osm:node:12754760232","latitude":40.9612416,"longitude":-5.6510005,"name":"Calle Alonso del Castillo near Calle Núñez de Zamora","properties":{"access":"unknown","bicycle_pa":"stands","capacity":4,"covered":"","fee":"","operator":"","nameSource":"junction"},"sourceId":"osm"},{"id":"osm:node:12754760233","latitude":40.9627781,"longitude":-5.6519346,"name":"Calle Almansa near Calle del Recreo","properties":{"access":"unknown","bicycle_pa":"stands","capacity":4,"covered":"no","fee":"","operator":"","nameSource":"junction"},"sourceId":"osm"},{"id":"osm:node:12754760234","latitude":40.9632981,"longitude":-5.6515053,"name":"Calle La Unión near Camino de Las Aguas","properties":{"access":"unknown","bicycle_pa":"stands","capacity":4,"covered":"no","fee":"","operator":"","nameSource":"junction"},"sourceId":"osm"},{"id":"osm:node:1288269427","latitude":40.9660303,"longitude":-5.6656523,"name":"Calle Íscar Peyra near Cuesta del Carmen","properties":{"access":"yes","bicycle_pa":"stands","capacity":12,"covered":"no","fee":"no","operator":"","nameSource":"junction"},"sourceId":"osm"},{"id":"osm:node:13218504313","latitude":40.9688052,"longitude":-5.6625685,"name":"Calle Bientocadas near Calle el Arco","properties":{"access":"unknown","bicycle_pa":"stands","capacity":6,"covered":"","fee":"","operator":"","nameSource":"junction"},"sourceId":"osm"},{"id":"osm:node:13343517171","latitude":40.972502,"longitude":-5.6404865,"name":"Calle Zarzuela by Parque Tomás Bretón","properties":{"access":"unknown","bicycle_pa":"stands","capacity":4,"covered":"","fee":"","operator":"","nameSource":"landmark"},"sourceId":"osm"},{"id":"osm:node:13354335724","latitude":40.9762281,"longitude":-5.6623241,"name":"Avenida de la Merced near Glorieta Santiago Martín \"El Viti\"","properties":{"access":"unknown","bicycle_pa":"stands","capacity":12,"covered":"","fee":"","operator":"","nameSource":"junction"},"sourceId":"osm"},{"id":"osm:node:13367901502","latitude":40.9647176,"longitude":-5.6918447,"name":"Avenida Fernando Pessoa near Calle Fray Bernardino de Sahagún","properties":{"access":"unknown","bicycle_pa":"stands","capacity":4,"covered":"","fee":"","operator":"","nameSource":"junction"},"sourceId":"osm"},{"id":"osm:node:13374157494","latitude":40.9630847,"longitude":-5.6573414,"name":"Calle Álava near Calle la Marina","properties":{"access":"unknown","bicycle_pa":"stands","capacity":4,"covered":"","fee":"","operator":"","nameSource":"junction"},"sourceId":"osm"},{"id":"osm:node:1353683239","latitude":40.9625151,"longitude":-5.6689652,"name":"Calle Placentinos near Cuesta de Oviedo","properties":{"access":"unknown","bicycle_pa":"stands","capacity":4,"covered":"no","fee":"","operator":"","nameSource":"junction"},"sourceId":"osm"},{"id":"osm:node:1741406666","latitude":40.9650685,"longitude":-5.6762144,"name":"Calle Donantes de Sangre near Paseo de la Universidad de Coimbra","properties":{"access":"unknown","bicycle_pa":"stands","capacity":16,"covered":"no","fee":"","operator":"","nameSource":"junction"},"sourceId":"osm"},{"id":"osm:node:1741406670","latitude":40.9661801,"longitude":-5.6774927,"name":"Calle Alfonso X El Sabio near Paseo de la Universidad de Coimbra","properties":{"access":"unknown","bicycle_pa":"stands","capacity":16,"covered":"yes","fee":"no","operator":"","nameSource":"junction"},"sourceId":"osm"},{"id":"osm:node:1741406673","latitude":40.9669052,"longitude":-5.6781209,"name":"Calle Alfonso X El Sabio near Paseo de la Universidad de Coimbra","properties":{"access":"unknown","bicycle_pa":"stands","capacity":8,"covered":"no","fee":"no","operator":"","nameSource":"junction"},"sourceId":"osm"},{"id":"osm:node:1741406676","latitude":40.9675663,"longitude":-5.6785144,"name":"Calle Alfonso X El Sabio near Paseo Francisco Tomás y Valiente","properties":{"access":"yes","bicycle_pa":"stands","capacity":24,"covered":"no","fee":"no","operator":"","nameSource":"junction"},"sourceId":"osm"},{"id":"osm:node:1741406678","latitude":40.9688151,"longitude":-5.6760303,"name":"Paseo Francisco Tomás y Valiente near Avenida de los Maristas","properties":{"access":"yes","bicycle_pa":"stands","capacity":16,"covered":"no","fee":"no","operator":"","nameSource":"junction"},"sourceId":"osm"},{"id":"osm:node:1741406681","latitude":40.9709306,"longitude":-5.6754577,"name":"Calle Peña de Francia near Avenida Filiberto Villalobos","properties":{"access":"yes","bicycle_pa":"stands","capacity":16,"covered":"no","fee":"no","operator":"","nameSource":"junction"},"sourceId":"osm"},{"id":"osm:node:2725100506","latitude":40.9692247,"longitude":-5.6693395,"name":"Avenida de Villamayor near Calle Alarcón","properties":{"access":"yes","bicycle_pa":"stands","capacity":4,"covered":"no","fee":"no","operator":"","nameSource":"junction"},"sourceId":"osm"},{"id":"osm:node:2778985478","latitude":40.9689682,"longitude":-5.6755624,"name":"Paseo Francisco Tomás y Valiente near Avenida de los Maristas","properties":{"access":"unknown","bicycle_pa":"wall_loops","capacity":25,"covered":"no","fee":"","operator":"","nameSource":"junction"},"sourceId":"osm"},{"id":"osm:node:2795528829","latitude":40.968575,"longitude":-5.6597136,"name":"Calle Cristo de los Milagros near Calle Toro","properties":{"access":"yes","bicycle_pa":"stands","capacity":4,"covered":"no","fee":"no","operator":"","nameSource":"junction"},"sourceId":"osm"},{"id":"osm:node:2795528830","latitude":40.968708,"longitude":-5.6586231,"name":"Plaza de España near Paseo de la Estación","properties":{"access":"yes","bicycle_pa":"stands","capacity":4,"covered":"no","fee":"no","operator":"","nameSource":"junction"},"sourceId":"osm"},{"id":"osm:node:2806074898","latitude":40.9669149,"longitude":-5.6777038,"name":"Plaza Diego de Covarrubias near Calle Alfonso X El Sabio","properties":{"access":"unknown","bicycle_pa":"stands","capacity":8,"covered":"no","fee":"no","operator":"","nameSource":"junction"},"sourceId":"osm"},{"id":"osm:node:2820830914","latitude":40.9687392,"longitude":-5.6549527,"name":"Avenida de los Comuneros near Paseo del Ferrocarril","properties":{"access":"yes","bicycle_pa":"stands","capacity":4,"covered":"no","fee":"no","operator":"","nameSource":"junction"},"sourceId":"osm"},{"id":"osm:node:2857964105","latitude":40.9557291,"longitude":-5.67409,"name":"Carretera de La Fregeneda near Calle de José Rivera","properties":{"access":"unknown","bicycle_pa":"","capacity":5,"covered":"","fee":"","operator":"","nameSource":"junction"},"sourceId":"osm"},{"id":"osm:node:3017994203","latitude":40.9522397,"longitude":-5.6556054,"name":"Avenida de la Carretera de Madrid near Carretera de Alba de Tormes","properties":{"access":"unknown","bicycle_pa":"","capacity":0,"covered":"no","fee":"","operator":"","nameSource":"junction"},"sourceId":"osm"},{"id":"osm:node:3371401829","latitude":40.9740579,"longitude":-5.6567972,"name":"Calle Víctimas del Terrorismo near Calle de María Auxiliadora","properties":{"access":"unknown","bicycle_pa":"stands","capacity":12,"covered":"no","fee":"","operator":"","nameSource":"junction"},"sourceId":"osm"},{"id":"osm:node:3490797040","latitude":40.9704693,"longitude":-5.667068,"name":"Calle Wences Moreno near Plaza del Oeste","properties":{"access":"yes","bicycle_pa":"stands","capacity":8,"covered":"no","fee":"no","operator":"","nameSource":"junction"},"sourceId":"osm"},{"id":"osm:node:3529879458","latitude":40.9648005,"longitude":-5.6703178,"name":"Calle Fonseca near Calle Espejo","properties":{"access":"yes","bicycle_pa":"stands","capacity":8,"covered":"no","fee":"no","operator":"","nameSource":"junction"},"sourceId":"osm"},{"id":"osm:node:3818332244","latitude":40.9735559,"longitude":-5.6496399,"name":"Avenida de París near Plaza de Barcelona","properties":{"access":"unknown","bicycle_pa":"wall_loops","capacity":5,"covered":"no","fee":"","operator":"","nameSource":"junction"},"sourceId":"osm"},{"id":"osm:node:3868784063","latitude":40.9649975,"longitude":-5.6631246,"name":"Calle Pozo Amarillo near Plaza del Mercado","properties":{"access":"yes","bicycle_pa":"stands","capacity":4,"covered":"no","fee":"no","operator":"","nameSource":"junction"},"sourceId":"osm"},{"id":"osm:node:3898664983","latitude":40.9672786,"longitude":-5.6668696,"name":"Cuesta del Carmen near Calle Peña Primera","properties":{"access":"yes","bicycle_pa":"stands","capacity":4,"covered":"no","fee":"no","operator":"","nameSource":"junction"},"sourceId":"osm"},{"id":"osm:node:3899409542","latitude":40.9686668,"longitude":-5.6476233,"name":"Avenida de los Comuneros near Plaza Alto del Rollo","properties":{"access":"unknown","bicycle_pa":"stands","capacity":4,"covered":"no","fee":"","operator":"","nameSource":"junction"},"sourceId":"osm"},{"id":"osm:node:3912610295","latitude":40.9729641,"longitude":-5.6629499,"name":"Calle Fernando de la Peña near Paseo del Doctor Torres Villarroel","properties":{"access":"yes","bicycle_pa":"stands","capacity":10,"covered":"no","fee":"no","operator":"","nameSource":"junction"},"sourceId":"osm"},{"id":"osm:node:3982924214","latitude":40.9498088,"longitude":-5.6797629,"name":"Calle Ramón de Mesonero Romanos by Parque de las Musas","properties":{"access":"unknown","bicycle_pa":"stands","capacity":8,"covered":"no","fee":"","operator":"","nameSource":"landmark"},"sourceId":"osm"},{"id":"osm:node:4086145554","latitude":40.9600271,"longitude":-5.668236,"name":"Calle Libreros near Calle Veracruz","properties":{"access":"unknown","bicycle_pa":"stands","capacity":8,"covered":"no","fee":"","operator":"","nameSource":"junction"},"sourceId":"osm"},{"id":"osm:node:5743332733","latitude":40.9609022,"longitude":-5.6655357,"name":"Plaza de Anaya by Teatro Juan del Enzina","properties":{"access":"yes","bicycle_pa":"stands","capacity":8,"covered":"no","fee":"no","operator":"","nameSource":"landmark"},"sourceId":"osm"},{"id":"osm:node:5860889496","latitude":40.9704704,"longitude":-5.6770777,"name":"Avenida de los Maristas near Calle Francisco Bernís","properties":{"access":"yes","bicycle_pa":"stands","capacity":10,"covered":"no","fee":"no","operator":"","nameSource":"junction"},"sourceId":"osm"},{"id":"osm:node:5860889497","latitude":40.9705595,"longitude":-5.6769302,"name":"Avenida de los Maristas near Calle Francisco Bernís","properties":{"access":"yes","bicycle_pa":"stands","capacity":10,"covered":"no","fee":"no","operator":"","nameSource":"junction"},"sourceId":"osm"},{"id":"osm:node:5860908266","latitude":40.9588511,"longitude":-5.6602041,"name":"Paseo de Canalejas near Calle Monte Olivete","properties":{"access":"unknown","bicycle_pa":"","capacity":0,"covered":"","fee":"","operator":"","nameSource":"junction"},"sourceId":"osm"},{"id":"osm:node:5860908267","latitude":40.9587499,"longitude":-5.6596247,"name":"Calle Bailén near Calle de la Ballesta","properties":{"access":"unknown","bicycle_pa":"","capacity":0,"covered":"","fee":"","operator":"","nameSource":"junction"},"sourceId":"osm"},{"id":"osm:node:6544762899","latitude":40.9712375,"longitude":-5.6692618,"name":"Calle Gutenberg near Calle Palacio Valdés","properties":{"access":"unknown","bicycle_pa":"stands","capacity":4,"covered":"no","fee":"","operator":"","nameSource":"junction"},"sourceId":"osm"},{"id":"osm:node:6565232252","latitude":40.963876,"longitude":-5.6614513,"name":"Calle Varillas near Calle Gran Vía","properties":{"access":"yes","bicycle_pa":"stands","capacity":4,"covered":"no","fee":"no","operator":"","nameSource":"junction"},"sourceId":"osm"},{"id":"osm:node:6584931154","latitude":40.9721098,"longitude":-5.6694382,"name":"Calle de Valle Inclán near Calle Vitigudino","properties":{"access":"unknown","bicycle_pa":"stands","capacity":8,"covered":"no","fee":"","operator":"","nameSource":"junction"},"sourceId":"osm"},{"id":"osm:node:6702898660","latitude":40.9765163,"longitude":-5.6596834,"name":"Calle del Corregidor Caballero Llanes near Plaza de Madrid","properties":{"access":"yes","bicycle_pa":"stands","capacity":8,"covered":"no","fee":"no","operator":"","nameSource":"junction"},"sourceId":"osm"},{"id":"osm:node:6720964250","latitude":40.9668604,"longitude":-5.6780709,"name":"Calle Alfonso X El Sabio near Paseo de la Universidad de Coimbra","properties":{"access":"unknown","bicycle_pa":"stands","capacity":8,"covered":"no","fee":"no","operator":"","nameSource":"junction"},"sourceId":"osm"},{"id":"osm:node:6720964251","latitude":40.962318,"longitude":-5.6624926,"name":"Calle Caldereros near Calle Gran Vía","properties":{"access":"unknown","bicycle_pa":"stands","capacity":4,"covered":"no","fee":"","operator":"","nameSource":"junction"},"sourceId":"osm"},{"id":"osm:node:6720964252","latitude":40.9610156,"longitude":-5.6520689,"name":"Calle Príncipe de Vergara near Calle Abraham Zacut","properties":{"access":"yes","bicycle_pa":"stands","capacity":8,"covered":"no","fee":"no","operator":"","nameSource":"junction"},"sourceId":"osm"},{"id":"osm:node:6720964253","latitude":40.957177,"longitude":-5.6662859,"name":"Calle Teso de San Nicolás near Avenida de los Reyes de España","properties":{"access":"yes","bicycle_pa":"wall_loops","capacity":6,"covered":"no","fee":"no","operator":"","nameSource":"junction"},"sourceId":"osm"},{"id":"osm:node:6720964254","latitude":40.9613569,"longitude":-5.6517396,"name":"Calle de la Milagrosa near Calle Abraham Zacut","properties":{"access":"yes","bicycle_pa":"stands","capacity":10,"covered":"","fee":"no","operator":"","nameSource":"junction"},"sourceId":"osm"},{"id":"osm:node:6720964255","latitude":40.9779653,"longitude":-5.6632563,"name":"Avenida Raimundo de Borgoña cycle parking","properties":{"access":"yes","bicycle_pa":"stands","capacity":8,"covered":"no","fee":"no","operator":"","nameSource":"street"},"sourceId":"osm"},{"id":"osm:node:6720964256","latitude":40.9668873,"longitude":-5.6626113,"name":"Calle Rector Lucena near Calle Toro","properties":{"access":"unknown","bicycle_pa":"stands","capacity":8,"covered":"no","fee":"","operator":"","nameSource":"junction"},"sourceId":"osm"},{"id":"osm:node:6725322765","latitude":40.9681944,"longitude":-5.6583381,"name":"Paseo de Canalejas near Plaza de España","properties":{"access":"yes","bicycle_pa":"stands","capacity":8,"covered":"no","fee":"no","operator":"","nameSource":"junction"},"sourceId":"osm"},{"id":"osm:node:6725322766","latitude":40.9696021,"longitude":-5.6612703,"name":"Avenida de Mirat near Calle de Maldonado Ocampo","properties":{"access":"yes","bicycle_pa":"stands","capacity":8,"covered":"no","fee":"no","operator":"","nameSource":"junction"},"sourceId":"osm"},{"id":"osm:node:6725322767","latitude":40.9707302,"longitude":-5.6683893,"name":"Calle de Nieto Bonal near Calle Doctor Jaime Vera","properties":{"access":"yes","bicycle_pa":"stands","capacity":4,"covered":"no","fee":"no","operator":"","nameSource":"junction"},"sourceId":"osm"},{"id":"osm:node:6725322768","latitude":40.9718815,"longitude":-5.6610446,"name":"Calle de García Quiñones near Avenida de Portugal","properties":{"access":"yes","bicycle_pa":"stands","capacity":8,"covered":"no","fee":"no","operator":"","nameSource":"junction"},"sourceId":"osm"},{"id":"osm:node:6727011208","latitude":40.978598,"longitude":-5.6503046,"name":"Avenida de los Cipreses near Calle Gloria Fuertes","properties":{"access":"yes","bicycle_pa":"wall_loops","capacity":5,"covered":"no","fee":"no","operator":"","nameSource":"junction"},"sourceId":"osm"},{"id":"osm:node:6727012847","latitude":40.9743978,"longitude":-5.6591715,"name":"Calle Alfonso de Castro near Calle del Norte","properties":{"access":"yes","bicycle_pa":"stands","capacity":8,"covered":"no","fee":"no","operator":"","nameSource":"junction"},"sourceId":"osm"},{"id":"osm:node:6727018804","latitude":40.9780141,"longitude":-5.6532745,"name":"Avenida Federico Anaya near Calle del Bosque","properties":{"access":"yes","bicycle_pa":"stands","capacity":4,"covered":"no","fee":"no","operator":"","nameSource":"junction"},"sourceId":"osm"},{"id":"osm:node:6727019331","latitude":40.9785462,"longitude":-5.6502675,"name":"Avenida de los Cipreses near Calle Gloria Fuertes","properties":{"access":"yes","bicycle_pa":"wall_loops","capacity":5,"covered":"no","fee":"no","operator":"","nameSource":"junction"},"sourceId":"osm"},{"id":"osm:node:6727022384","latitude":40.9762258,"longitude":-5.6484747,"name":"Avenida de los Cipreses near Calle de Julita Ramos","properties":{"access":"yes","bicycle_pa":"stands","capacity":4,"covered":"no","fee":"no","operator":"","nameSource":"junction"},"sourceId":"osm"},{"id":"osm:node:6727027767","latitude":40.97668,"longitude":-5.6580171,"name":"Calle de Fray Junípero Serra near Calle del Lazarillo de Tormes","properties":{"access":"yes","bicycle_pa":"stands","capacity":8,"covered":"no","fee":"no","operator":"","nameSource":"junction"},"sourceId":"osm"},{"id":"osm:node:6727031244","latitude":40.9751148,"longitude":-5.648364,"name":"Calle Juan Ramón Jiménez near Calle Pío Baroja","properties":{"access":"customers","bicycle_pa":"stands","capacity":6,"covered":"no","fee":"no","operator":"","nameSource":"junction"},"sourceId":"osm"},{"id":"osm:node:6727034250","latitude":40.9768086,"longitude":-5.6488443,"name":"Avenida de los Cipreses near Calle Federico Lozano Andrés","properties":{"access":"customers","bicycle_pa":"stands","capacity":8,"covered":"no","fee":"no","operator":"","nameSource":"junction"},"sourceId":"osm"},{"id":"osm:node:6727077886","latitude":40.9586007,"longitude":-5.6521802,"name":"Avenida de la Aldehuela near Calle del Río Tera","properties":{"access":"yes","bicycle_pa":"wall_loops","capacity":5,"covered":"no","fee":"no","operator":"","nameSource":"junction"},"sourceId":"osm"},{"id":"osm:node:6727077887","latitude":40.9589398,"longitude":-5.6499308,"name":"Avenida de la Aldehuela near Calle del Río Cea","properties":{"access":"yes","bicycle_pa":"stands","capacity":10,"covered":"no","fee":"no","operator":"","nameSource":"junction"},"sourceId":"osm"},{"id":"osm:node:6727077888","latitude":40.9611027,"longitude":-5.6522063,"name":"Calle Príncipe de Vergara near Calle Abraham Zacut","properties":{"access":"yes","bicycle_pa":"stands","capacity":8,"covered":"no","fee":"no","operator":"","nameSource":"junction"},"sourceId":"osm"},{"id":"osm:node:6727077889","latitude":40.9652852,"longitude":-5.657845,"name":"Paseo de Canalejas near Cuesta de Sancti-Spíritus","properties":{"access":"yes","bicycle_pa":"stands","capacity":4,"covered":"no","fee":"no","operator":"","nameSource":"junction"},"sourceId":"osm"},{"id":"osm:node:6727077890","latitude":40.966383,"longitude":-5.6562115,"name":"Avenida de Campoamor near Calle Domingo de Soto","properties":{"access":"yes","bicycle_pa":"stands","capacity":4,"covered":"no","fee":"no","operator":"","nameSource":"junction"},"sourceId":"osm"},{"id":"osm:node:6727077891","latitude":40.9671328,"longitude":-5.6571496,"name":"Avenida del Parque de la Alamedilla near Calle de la Alamedilla","properties":{"access":"yes","bicycle_pa":"wall_loops","capacity":6,"covered":"no","fee":"no","operator":"","nameSource":"junction"},"sourceId":"osm"},{"id":"osm:node:6731789458","latitude":40.9641224,"longitude":-5.6649481,"name":"Plaza del Corrillo near Soportales del Corrillo","properties":{"access":"yes","bicycle_pa":"stands","capacity":8,"covered":"no","fee":"no","operator":"","nameSource":"junction"},"sourceId":"osm"},{"id":"osm:node:6731789459","latitude":40.9589569,"longitude":-5.6650979,"name":"Paseo del Rector Esperabé near Calle San Pablo","properties":{"access":"yes","bicycle_pa":"stands","capacity":4,"covered":"no","fee":"no","operator":"","nameSource":"junction"},"sourceId":"osm"},{"id":"osm:node:6751308655","latitude":40.9571912,"longitude":-5.6654991,"name":"Avenida de los Reyes de España near Calle Teso de San Nicolás","properties":{"access":"yes","bicycle_pa":"stands","capacity":8,"covered":"no","fee":"no","operator":"","nameSource":"junction"},"sourceId":"osm"},{"id":"osm:node:6751313090","latitude":40.9582652,"longitude":-5.683595,"name":"Calle del Lagar near Avenida Padre Ignacio Ellacuría","properties":{"access":"yes","bicycle_pa":"stands","capacity":8,"covered":"no","fee":"no","operator":"","nameSource":"junction"},"sourceId":"osm"},{"id":"osm:node:6751313091","latitude":40.9615949,"longitude":-5.6686866,"name":"Plaza de Fray Luis de León near Plazuela de San Bartolomé","properties":{"access":"unknown","bicycle_pa":"stands","capacity":8,"covered":"no","fee":"","operator":"","nameSource":"junction"},"sourceId":"osm"},{"id":"osm:node:6751313092","latitude":40.9606139,"longitude":-5.6701876,"name":"Calle del Parque near Calle Balmes","properties":{"access":"unknown","bicycle_pa":"stands","capacity":0,"covered":"no","fee":"","operator":"","nameSource":"junction"},"sourceId":"osm"},{"id":"osm:node:6751313094","latitude":40.967494,"longitude":-5.6758076,"name":"Avenida del Doctor Gregorio Marañón cycle parking","properties":{"access":"unknown","bicycle_pa":"stands","capacity":8,"covered":"no","fee":"","operator":"","nameSource":"street"},"sourceId":"osm"},{"id":"osm:node:6755804363","latitude":40.9677459,"longitude":-5.6784415,"name":"Calle Alfonso X El Sabio near Paseo Francisco Tomás y Valiente","properties":{"access":"yes","bicycle_pa":"stands","capacity":8,"covered":"no","fee":"no","operator":"","nameSource":"junction"},"sourceId":"osm"},{"id":"osm:node:6755817548","latitude":40.9663685,"longitude":-5.6766357,"name":"Calle Alfonso X El Sabio near Avenida del Doctor Gregorio Marañón","properties":{"access":"unknown","bicycle_pa":"wall_loops","capacity":10,"covered":"no","fee":"no","operator":"","nameSource":"junction"},"sourceId":"osm"},{"id":"osm:node:6755830444","latitude":40.9672709,"longitude":-5.6783359,"name":"Paseo Francisco Tomás y Valiente near Calle Alfonso X El Sabio","properties":{"access":"yes","bicycle_pa":"wall_loops","capacity":0,"covered":"no","fee":"no","operator":"","nameSource":"junction"},"sourceId":"osm"},{"id":"osm:node:6755847889","latitude":40.9689429,"longitude":-5.6767601,"name":"Plaza de Bolonia by Cafetería Derecho","properties":{"access":"yes","bicycle_pa":"stands","capacity":12,"covered":"no","fee":"no","operator":"","nameSource":"landmark"},"sourceId":"osm"},{"id":"osm:node:6755848441","latitude":40.9677184,"longitude":-5.6778505,"name":"Paseo Francisco Tomás y Valiente near Plaza Diego de Covarrubias","properties":{"access":"yes","bicycle_pa":"stands","capacity":14,"covered":"no","fee":"no","operator":"","nameSource":"junction"},"sourceId":"osm"},{"id":"osm:node:6771757888","latitude":40.9652187,"longitude":-5.6772488,"name":"Plaza de los Doctores de la Reina near Calle Licenciado Méndez Nieto","properties":{"access":"unknown","bicycle_pa":"stands","capacity":8,"covered":"no","fee":"no","operator":"","nameSource":"junction"},"sourceId":"osm"},{"id":"osm:node:6771758165","latitude":40.9643502,"longitude":-5.6776612,"name":"Paseo de la Universidad de Coimbra near Calle Licenciado Méndez Nieto","properties":{"access":"unknown","bicycle_pa":"stands","capacity":16,"covered":"no","fee":"no","operator":"","nameSource":"junction"},"sourceId":"osm"},{"id":"osm:node:6771770123","latitude":40.9654633,"longitude":-5.6787431,"name":"Calle Licenciado Méndez Nieto by Laboratorios Docentes","properties":{"access":"unknown","bicycle_pa":"stands","capacity":8,"covered":"no","fee":"no","operator":"","nameSource":"landmark"},"sourceId":"osm"},{"id":"osm:node:6771772066","latitude":40.9651974,"longitude":-5.6772209,"name":"Plaza de los Doctores de la Reina near Calle Licenciado Méndez Nieto","properties":{"access":"unknown","bicycle_pa":"wall_loops","capacity":6,"covered":"no","fee":"no","operator":"","nameSource":"junction"},"sourceId":"osm"},{"id":"osm:node:6771772085","latitude":40.9664324,"longitude":-5.6785456,"name":"Calle Licenciado Méndez Nieto near Paseo de la Universidad de Coimbra","properties":{"access":"unknown","bicycle_pa":"stands","capacity":8,"covered":"no","fee":"no","operator":"","nameSource":"junction"},"sourceId":"osm"},{"id":"osm:node:6771772086","latitude":40.9651761,"longitude":-5.6772012,"name":"Plaza de los Doctores de la Reina near Calle Licenciado Méndez Nieto","properties":{"access":"unknown","bicycle_pa":"wall_loops","capacity":6,"covered":"no","fee":"no","operator":"","nameSource":"junction"},"sourceId":"osm"},{"id":"osm:node:6772834969","latitude":40.9648024,"longitude":-5.6778785,"name":"Calle Licenciado Méndez Nieto near Plaza de los Doctores de la Reina","properties":{"access":"unknown","bicycle_pa":"wall_loops","capacity":34,"covered":"no","fee":"no","operator":"","nameSource":"junction"},"sourceId":"osm"},{"id":"osm:node:6774811345","latitude":40.9705744,"longitude":-5.6748245,"name":"Avenida Filiberto Villalobos near Calle Candelario","properties":{"access":"yes","bicycle_pa":"stands","capacity":8,"covered":"no","fee":"no","operator":"","nameSource":"junction"},"sourceId":"osm"},{"id":"osm:node:6774883493","latitude":40.96954,"longitude":-5.6763963,"name":"Avenida de los Maristas near Glorieta Adolfo Suárez","properties":{"access":"yes","bicycle_pa":"stands","capacity":8,"covered":"no","fee":"no","operator":"","nameSource":"junction"},"sourceId":"osm"},{"id":"osm:node:6929702101","latitude":40.9677623,"longitude":-5.6591774,"name":"Calle Azafranal near Calle Cristo de los Milagros","properties":{"access":"yes","bicycle_pa":"stands","capacity":4,"covered":"no","fee":"no","operator":"","nameSource":"junction"},"sourceId":"osm"},{"id":"osm:node:7033646826","latitude":40.973969,"longitude":-5.6673354,"name":"Plaza del Barrio Vidal near Calle del Regato del Anís","properties":{"access":"unknown","bicycle_pa":"stands","capacity":4,"covered":"no","fee":"","operator":"","nameSource":"junction"},"sourceId":"osm"},{"id":"osm:node:7059883732","latitude":40.9692138,"longitude":-5.662386,"name":"Calle José Jáuregui near Calle Bientocadas","properties":{"access":"unknown","bicycle_pa":"stands","capacity":8,"covered":"no","fee":"","operator":"","nameSource":"junction"},"sourceId":"osm"},{"id":"osm:node:7059883733","latitude":40.9699096,"longitude":-5.6691746,"name":"Calle Escultor Carmona near Calle de los Churriguera","properties":{"access":"unknown","bicycle_pa":"stands","capacity":4,"covered":"no","fee":"","operator":"","nameSource":"junction"},"sourceId":"osm"},{"id":"osm:node:7059883735","latitude":40.9712856,"longitude":-5.679426,"name":"Avenida de los Maristas near Calle Papa Luna","properties":{"access":"unknown","bicycle_pa":"stands","capacity":8,"covered":"no","fee":"","operator":"","nameSource":"junction"},"sourceId":"osm"},{"id":"osm:node:7111898681","latitude":40.9699225,"longitude":-5.6621111,"name":"Plaza de Gabriel y Galán near Calle Bernardo Martín Pérez","properties":{"access":"unknown","bicycle_pa":"stands","capacity":4,"covered":"no","fee":"","operator":"","nameSource":"junction"},"sourceId":"osm"},{"id":"osm:node:7142778344","latitude":40.9702978,"longitude":-5.6606747,"name":"Plaza de Julián Sánchez \"El Charro\" near Calle de las Eras","properties":{"access":"unknown","bicycle_pa":"stands","capacity":12,"covered":"no","fee":"","operator":"","nameSource":"junction"},"sourceId":"osm"},{"id":"osm:node:7148767959","latitude":40.9639371,"longitude":-5.659632,"name":"Plaza de San Cristóbal near Calle Asadería","properties":{"access":"unknown","bicycle_pa":"stands","capacity":4,"covered":"no","fee":"","operator":"","nameSource":"junction"},"sourceId":"osm"},{"id":"osm:node:7148786897","latitude":40.9705224,"longitude":-5.6612802,"name":"Plaza de Julián Sánchez \"El Charro\" near Calle de Echegaray","properties":{"access":"unknown","bicycle_pa":"stands","capacity":4,"covered":"no","fee":"","operator":"","nameSource":"junction"},"sourceId":"osm"},{"id":"osm:node:7216118184","latitude":40.9792946,"longitude":-5.6668755,"name":"Calle de los Valles Mineros near Calle La Bañeza","properties":{"access":"unknown","bicycle_pa":"stands","capacity":4,"covered":"no","fee":"","operator":"","nameSource":"junction"},"sourceId":"osm"},{"id":"osm:node:7216150385","latitude":40.9597055,"longitude":-5.6499811,"name":"Calle Martínez Silíceo near Calle Abraham Zacut","properties":{"access":"unknown","bicycle_pa":"stands","capacity":4,"covered":"no","fee":"","operator":"","nameSource":"junction"},"sourceId":"osm"},{"id":"osm:node:7216150386","latitude":40.9618018,"longitude":-5.658284,"name":"Calle de Calatañazor near Calle de San Quintín","properties":{"access":"unknown","bicycle_pa":"stands","capacity":8,"covered":"no","fee":"","operator":"","nameSource":"junction"},"sourceId":"osm"},{"id":"osm:node:7216150388","latitude":40.9681522,"longitude":-5.6524868,"name":"Calle Cruz de Caravaca near Calle Nicaragua","properties":{"access":"unknown","bicycle_pa":"stands","capacity":6,"covered":"no","fee":"","operator":"","nameSource":"junction"},"sourceId":"osm"},{"id":"osm:node:7472098739","latitude":40.9662047,"longitude":-5.6717187,"name":"Avenida de los Maristas near Calle Cepeda","properties":{"access":"yes","bicycle_pa":"stands","capacity":4,"covered":"no","fee":"no","operator":"","nameSource":"junction"},"sourceId":"osm"},{"id":"osm:node:7472098740","latitude":40.9724518,"longitude":-5.6478972,"name":"Paseo de la Estación near Calle Río Guadalquivir","properties":{"access":"yes","bicycle_pa":"","capacity":0,"covered":"no","fee":"no","operator":"","nameSource":"junction"},"sourceId":"osm"},{"id":"osm:node:7472098741","latitude":40.959963,"longitude":-5.6530979,"name":"Avenida de las Artes near Calle Arias Pinel","properties":{"access":"yes","bicycle_pa":"stands","capacity":4,"covered":"no","fee":"no","operator":"","nameSource":"junction"},"sourceId":"osm"},{"id":"osm:node:7472098742","latitude":40.9789894,"longitude":-5.6624438,"name":"Avenida de Salamanca near Glorieta Ruta de la Plata","properties":{"access":"yes","bicycle_pa":"wall_loops","capacity":5,"covered":"no","fee":"no","operator":"","nameSource":"junction"},"sourceId":"osm"},{"id":"osm:node:7472098743","latitude":40.9790117,"longitude":-5.6624497,"name":"Avenida de Salamanca near Glorieta Ruta de la Plata","properties":{"access":"yes","bicycle_pa":"wall_loops","capacity":5,"covered":"no","fee":"no","operator":"","nameSource":"junction"},"sourceId":"osm"},{"id":"osm:node:7472098744","latitude":40.9634266,"longitude":-5.6625277,"name":"Calle Consuelo near Calle San Justo","properties":{"access":"yes","bicycle_pa":"stands","capacity":4,"covered":"no","fee":"no","operator":"","nameSource":"junction"},"sourceId":"osm"},{"id":"osm:node:7472098745","latitude":40.9581192,"longitude":-5.6491371,"name":"Calle del Río Carrión near Calle Río Ubierna","properties":{"access":"yes","bicycle_pa":"wall_loops","capacity":5,"covered":"no","fee":"no","operator":"","nameSource":"junction"},"sourceId":"osm"},{"id":"osm:node:7472098746","latitude":40.9628132,"longitude":-5.6640377,"name":"Calle San Pablo near Calle Pan y Carbón","properties":{"access":"yes","bicycle_pa":"stands","capacity":4,"covered":"no","fee":"no","operator":"","nameSource":"junction"},"sourceId":"osm"},{"id":"osm:node:7475431296","latitude":40.9677569,"longitude":-5.6640568,"name":"Calle de Zamora near Calle las Isabeles","properties":{"access":"unknown","bicycle_pa":"stands","capacity":4,"covered":"no","fee":"","operator":"","nameSource":"junction"},"sourceId":"osm"},{"id":"osm:node:7475431297","latitude":40.9684719,"longitude":-5.6638921,"name":"Calle de Zamora near Calle Reyes Católicos","properties":{"access":"unknown","bicycle_pa":"stands","capacity":8,"covered":"no","fee":"","operator":"","nameSource":"junction"},"sourceId":"osm"},{"id":"osm:node:748839858","latitude":40.9651731,"longitude":-5.6760835,"name":"Calle Donantes de Sangre near Paseo de la Universidad de Coimbra","properties":{"access":"unknown","bicycle_pa":"wall_loops","capacity":12,"covered":"no","fee":"","operator":"","nameSource":"junction"},"sourceId":"osm"},{"id":"osm:node:748839869","latitude":40.9682331,"longitude":-5.6777748,"name":"Plaza de Bolonia by Facultad de Ciencias Sociales","properties":{"access":"yes","bicycle_pa":"wall_loops","capacity":48,"covered":"no","fee":"no","operator":"","nameSource":"landmark"},"sourceId":"osm"},{"id":"osm:node:7488653313","latitude":40.9673359,"longitude":-5.6683277,"name":"Paseo de Carmelitas near Avenida de Villamayor","properties":{"access":"unknown","bicycle_pa":"stands","capacity":4,"covered":"no","fee":"","operator":"","nameSource":"junction"},"sourceId":"osm"},{"id":"osm:node:7502771408","latitude":40.9664941,"longitude":-5.6686209,"name":"Calle Campo de San Francisco near Calle Arriba","properties":{"access":"unknown","bicycle_pa":"stands","capacity":8,"covered":"no","fee":"","operator":"","nameSource":"junction"},"sourceId":"osm"},{"id":"osm:node:7502985898","latitude":40.9724986,"longitude":-5.676736,"name":"Avenida Filiberto Villalobos near Glorieta Filiberto Villalobos","properties":{"access":"unknown","bicycle_pa":"stands","capacity":4,"covered":"no","fee":"","operator":"","nameSource":"junction"},"sourceId":"osm"},{"id":"osm:node:7504541710","latitude":40.9680769,"longitude":-5.6618251,"name":"Calle Rector Tovar near Calle San Mateo","properties":{"access":"unknown","bicycle_pa":"stands","capacity":4,"covered":"no","fee":"","operator":"","nameSource":"junction"},"sourceId":"osm"},{"id":"osm:node:7596034631","latitude":40.9641369,"longitude":-5.6773481,"name":"Paseo de la Universidad de Coimbra near Calle Licenciado Méndez Nieto","properties":{"access":"unknown","bicycle_pa":"stands","capacity":8,"covered":"yes","fee":"no","operator":"","nameSource":"junction"},"sourceId":"osm"},{"id":"osm:node:7849083821","latitude":40.9744189,"longitude":-5.6710569,"name":"Carretera de Ledesma cycle parking","properties":{"access":"unknown","bicycle_pa":"stands","capacity":4,"covered":"no","fee":"","operator":"","nameSource":"street"},"sourceId":"osm"},{"id":"osm:node:7849083825","latitude":40.9748901,"longitude":-5.6696128,"name":"Calle del Regato del Anís near Avenida de Salamanca","properties":{"access":"unknown","bicycle_pa":"stands","capacity":4,"covered":"no","fee":"","operator":"","nameSource":"junction"},"sourceId":"osm"},{"id":"osm:node:7849083826","latitude":40.975736,"longitude":-5.6685665,"name":"Avenida de Salamanca near Calle Monte Carmelo","properties":{"access":"unknown","bicycle_pa":"stands","capacity":4,"covered":"no","fee":"","operator":"","nameSource":"junction"},"sourceId":"osm"},{"id":"osm:node:7850587091","latitude":40.9752222,"longitude":-5.6692067,"name":"Avenida de Salamanca near Calle del Regato del Anís","properties":{"access":"unknown","bicycle_pa":"stands","capacity":4,"covered":"no","fee":"","operator":"","nameSource":"junction"},"sourceId":"osm"},{"id":"osm:node:7861725033","latitude":40.9771281,"longitude":-5.6676965,"name":"Avenida de Salamanca near Glorieta de los Ingenieros Militares","properties":{"access":"unknown","bicycle_pa":"stands","capacity":2,"covered":"no","fee":"","operator":"","nameSource":"junction"},"sourceId":"osm"},{"id":"osm:node:7864317579","latitude":40.9665336,"longitude":-5.6491462,"name":"Calle de Alicante near Calle Gerona","properties":{"access":"unknown","bicycle_pa":"stands","capacity":12,"covered":"no","fee":"","operator":"","nameSource":"junction"},"sourceId":"osm"},{"id":"osm:node:7887166630","latitude":40.9674366,"longitude":-5.6758842,"name":"Avenida del Doctor Gregorio Marañón cycle parking","properties":{"access":"unknown","bicycle_pa":"wall_loops","capacity":21,"covered":"yes","fee":"","operator":"","nameSource":"street"},"sourceId":"osm"},{"id":"osm:node:7887166631","latitude":40.9695399,"longitude":-5.6781399,"name":"Calle Fernando Población near Calle Francisco Bernís","properties":{"access":"yes","bicycle_pa":"stands","capacity":8,"covered":"no","fee":"no","operator":"","nameSource":"junction"},"sourceId":"osm"},{"id":"osm:node:8092135710","latitude":40.9742052,"longitude":-5.6502503,"name":"Avenida de los Cedros near Plaza de Barcelona","properties":{"access":"yes","bicycle_pa":"stands","capacity":8,"covered":"no","fee":"no","operator":"","nameSource":"junction"},"sourceId":"osm"},{"id":"osm:node:8119385634","latitude":40.9583816,"longitude":-5.6673085,"name":"Plaza del Mercado Viejo near Calle la Pesca","properties":{"access":"unknown","bicycle_pa":"stands","capacity":10,"covered":"no","fee":"no","operator":"","nameSource":"junction"},"sourceId":"osm"},{"id":"osm:node:8165063430","latitude":40.9623583,"longitude":-5.6761084,"name":"Paseo de la Transición Española cycle parking","properties":{"access":"unknown","bicycle_pa":"stands","capacity":8,"covered":"no","fee":"","operator":"","nameSource":"street"},"sourceId":"osm"},{"id":"osm:node:8675057484","latitude":40.9709304,"longitude":-5.6706722,"name":"Avenida de Villamayor near Calle Doctor Jaime Vera","properties":{"access":"unknown","bicycle_pa":"stands","capacity":4,"covered":"no","fee":"","operator":"","nameSource":"junction"},"sourceId":"osm"},{"id":"osm:node:9026320172","latitude":40.9580801,"longitude":-5.6376235,"name":"Avenida del Fútbol cycle parking","properties":{"access":"unknown","bicycle_pa":"","capacity":6,"covered":"","fee":"","operator":"","nameSource":"street"},"sourceId":"osm"},{"id":"osm:node:9026320173","latitude":40.9596599,"longitude":-5.6389201,"name":"Avenida del Fútbol by Piscinas de La Aldehuela","properties":{"access":"unknown","bicycle_pa":"","capacity":5,"covered":"","fee":"","operator":"","nameSource":"landmark"},"sourceId":"osm"},{"id":"osm:node:903683127","latitude":40.9722916,"longitude":-5.6489296,"name":"Plaza de la Estación by SalEnBici Estación de trenes (Vialia)","properties":{"access":"unknown","bicycle_pa":"wall_loops","capacity":5,"covered":"no","fee":"","operator":"","nameSource":"landmark"},"sourceId":"osm"},{"id":"osm:node:903683157","latitude":40.9723512,"longitude":-5.6487899,"name":"Plaza de la Estación by SalEnBici Estación de trenes (Vialia)","properties":{"access":"unknown","bicycle_pa":"wall_loops","capacity":5,"covered":"yes","fee":"","operator":"","nameSource":"landmark"},"sourceId":"osm"},{"id":"osm:node:9127847797","latitude":40.9775194,"longitude":-5.6472476,"name":"Calle Federico Lozano Andrés near Calle Profesor Camón Aznar","properties":{"access":"unknown","bicycle_pa":"stands","capacity":4,"covered":"no","fee":"","operator":"","nameSource":"junction"},"sourceId":"osm"},{"id":"osm:node:9196347277","latitude":40.9660874,"longitude":-5.6691461,"name":"Calle Fonseca near Calle Ramón y Cajal","properties":{"access":"unknown","bicycle_pa":"stands","capacity":4,"covered":"no","fee":"","operator":"","nameSource":"junction"},"sourceId":"osm"},{"id":"osm:node:9196378350","latitude":40.9640839,"longitude":-5.6676552,"name":"Calle Tahonas Viejas near Calle Cañizal","properties":{"access":"unknown","bicycle_pa":"stands","capacity":18,"covered":"no","fee":"","operator":"","nameSource":"junction"},"sourceId":"osm"},{"id":"osm:node:9205441201","latitude":40.9669354,"longitude":-5.6566195,"name":"Calle de la Alamedilla near Calle de San Francisco Javier","properties":{"access":"unknown","bicycle_pa":"wall_loops","capacity":5,"covered":"no","fee":"","operator":"","nameSource":"junction"},"sourceId":"osm"},{"id":"osm:node:9206343420","latitude":40.9568864,"longitude":-5.6820786,"name":"Paseo Luis Cortés near Calle Francisco Montejo","properties":{"access":"unknown","bicycle_pa":"stands","capacity":4,"covered":"yes","fee":"no","operator":"","nameSource":"junction"},"sourceId":"osm"},{"id":"osm:node:9206343421","latitude":40.9568852,"longitude":-5.6821311,"name":"Paseo Luis Cortés near Calle Francisco Montejo","properties":{"access":"unknown","bicycle_pa":"stands","capacity":4,"covered":"yes","fee":"no","operator":"","nameSource":"junction"},"sourceId":"osm"},{"id":"osm:node:9206343422","latitude":40.9571636,"longitude":-5.6837082,"name":"Calle del Lagar near Paseo Luis Cortés","properties":{"access":"unknown","bicycle_pa":"stands","capacity":10,"covered":"","fee":"no","operator":"","nameSource":"junction"},"sourceId":"osm"},{"id":"osm:node:9206343423","latitude":40.9603607,"longitude":-5.6607611,"name":"Calle Marquesa de Almarza near Calle del Rosario","properties":{"access":"unknown","bicycle_pa":"stands","capacity":4,"covered":"no","fee":"no","operator":"","nameSource":"junction"},"sourceId":"osm"},{"id":"osm:node:9206343424","latitude":40.9525001,"longitude":-5.6735956,"name":"Calle del Teso de la Feria by Am-tel & TICs","properties":{"access":"unknown","bicycle_pa":"stands","capacity":8,"covered":"","fee":"","operator":"","nameSource":"landmark"},"sourceId":"osm"},{"id":"osm:node:9241646581","latitude":40.9648219,"longitude":-5.6739852,"name":"Calle Norberto Cuesta Dutari near Calle Donantes de Sangre","properties":{"access":"unknown","bicycle_pa":"wall_loops","capacity":12,"covered":"no","fee":"","operator":"","nameSource":"junction"},"sourceId":"osm"},{"id":"osm:node:9241646585","latitude":40.9650073,"longitude":-5.6706981,"name":"Calle Espejo near Calle Fonseca","properties":{"access":"unknown","bicycle_pa":"wall_loops","capacity":5,"covered":"no","fee":"","operator":"","nameSource":"junction"},"sourceId":"osm"},{"id":"osm:node:9241646586","latitude":40.961636,"longitude":-5.6632758,"name":"Calle Juan de la Fuente near Plaza de Colón","properties":{"access":"unknown","bicycle_pa":"stands","capacity":4,"covered":"no","fee":"","operator":"","nameSource":"junction"},"sourceId":"osm"},{"id":"osm:node:9241646587","latitude":40.9591826,"longitude":-5.669115,"name":"Calle Santiago near Puente Romano","properties":{"access":"unknown","bicycle_pa":"stands","capacity":8,"covered":"no","fee":"","operator":"","nameSource":"junction"},"sourceId":"osm"},{"id":"osm:node:9241646588","latitude":40.9624168,"longitude":-5.666583,"name":"Plaza de San Isidro near Calle Libreros","properties":{"access":"unknown","bicycle_pa":"stands","capacity":8,"covered":"no","fee":"","operator":"","nameSource":"junction"},"sourceId":"osm"},{"id":"osm:node:9241646589","latitude":40.9623894,"longitude":-5.6664971,"name":"Calle Francisco de Vitoria near Plaza de San Isidro","properties":{"access":"unknown","bicycle_pa":"stands","capacity":8,"covered":"no","fee":"","operator":"","nameSource":"junction"},"sourceId":"osm"},{"id":"osm:node:9241646590","latitude":40.9625801,"longitude":-5.6677185,"name":"Calle Cervantes near Calle Cerrada de Serranos","properties":{"access":"unknown","bicycle_pa":"stands","capacity":16,"covered":"no","fee":"","operator":"","nameSource":"junction"},"sourceId":"osm"},{"id":"osm:node:9241646591","latitude":40.9684442,"longitude":-5.6797667,"name":"Calle Henry Collet cycle parking","properties":{"access":"unknown","bicycle_pa":"","capacity":0,"covered":"no","fee":"","operator":"","nameSource":"street"},"sourceId":"osm"},{"id":"osm:node:9241646603","latitude":40.9735284,"longitude":-5.6660123,"name":"Calle de la Esperanza near Calle de Dorado Montero","properties":{"access":"unknown","bicycle_pa":"stands","capacity":4,"covered":"no","fee":"","operator":"","nameSource":"junction"},"sourceId":"osm"},{"id":"osm:node:9241646604","latitude":40.9501004,"longitude":-5.6500297,"name":"Autovía Ávila-Salamanca by La Tagliatella","properties":{"access":"unknown","bicycle_pa":"wall_loops","capacity":5,"covered":"yes","fee":"","operator":"","nameSource":"landmark"},"sourceId":"osm"},{"id":"osm:node:924300839","latitude":40.9675867,"longitude":-5.6556771,"name":"Paseo del Ferrocarril cycle parking","properties":{"access":"unknown","bicycle_pa":"stands","capacity":11,"covered":"no","fee":"","operator":"","nameSource":"street"},"sourceId":"osm"},{"id":"osm:node:958154356","latitude":40.9780448,"longitude":-5.6544743,"name":"Calle del Cerezo near Paseo de los Olivos","properties":{"access":"yes","bicycle_pa":"wall_loops","capacity":10,"covered":"no","fee":"no","operator":"","nameSource":"junction"},"sourceId":"osm"},{"id":"osm:node:962135320","latitude":40.9734176,"longitude":-5.6813752,"name":"Avenida Obispo Sancho de Castilla near Calle Federico de Onís","properties":{"access":"yes","bicycle_pa":"wall_loops","capacity":5,"covered":"no","fee":"no","operator":"","nameSource":"junction"},"sourceId":"osm"},{"id":"osm:node:9649233713","latitude":40.9713776,"longitude":-5.6756883,"name":"Avenida Filiberto Villalobos near Calle Peña de Francia","properties":{"access":"unknown","bicycle_pa":"stands","capacity":8,"covered":"no","fee":"","operator":"","nameSource":"junction"},"sourceId":"osm"},{"id":"osm:node:975811764","latitude":40.9764464,"longitude":-5.6490228,"name":"Calle del Mirto near Avenida de los Cipreses","properties":{"access":"yes","bicycle_pa":"wall_loops","capacity":5,"covered":"no","fee":"no","operator":"","nameSource":"junction"},"sourceId":"osm"},{"id":"osm:node:9880276652","latitude":40.9621722,"longitude":-5.6500125,"name":"Calle Lope de Rueda near Calle Villalar","properties":{"access":"unknown","bicycle_pa":"stands","capacity":8,"covered":"no","fee":"","operator":"","nameSource":"junction"},"sourceId":"osm"},{"id":"osm:node:9920905780","latitude":40.9640471,"longitude":-5.6857775,"name":"Calle Girolamo da Sommaia near Paseo Enrique de Sena","properties":{"access":"unknown","bicycle_pa":"","capacity":4,"covered":"","fee":"","operator":"","nameSource":"junction"},"sourceId":"osm"},{"id":"osm:node:9943542045","latitude":40.9754243,"longitude":-5.6542288,"name":"Calle Juan de la Cierva near Calle Isaac Peral","properties":{"access":"unknown","bicycle_pa":"","capacity":16,"covered":"","fee":"","operator":"","nameSource":"junction"},"sourceId":"osm"},{"id":"osm:node:9958645174","latitude":40.9756755,"longitude":-5.6584431,"name":"Avenida Alfonso IX de León near Calle de Fray Junípero Serra","properties":{"access":"yes","bicycle_pa":"stands","capacity":8,"covered":"no","fee":"no","operator":"","nameSource":"junction"},"sourceId":"osm"}],"schemaVersion":2}
