{"key":"12/1990/1386","points":[{"id":"osm:node:10980635858","latitude":50.1551213,"longitude":-5.0719919,"name":"Killigrew Street near Jacob's Ladder","properties":{"access":"unknown","bicycle_pa":"stands","capacity":6,"covered":"no","fee":"","operator":"","nameSource":"junction"},"sourceId":"osm"},{"id":"osm:node:11034908044","latitude":50.1448162,"longitude":-5.0683872,"name":"Cliff Road near Gyllyngvase Hill","properties":{"access":"unknown","bicycle_pa":"","capacity":0,"covered":"","fee":"","operator":"","nameSource":"junction"},"sourceId":"osm"},{"id":"osm:node:11034908112","latitude":50.1513055,"longitude":-5.0616694,"name":"Discovery Quay by Koffiji","properties":{"access":"unknown","bicycle_pa":"","capacity":0,"covered":"","fee":"","operator":"","nameSource":"landmark"},"sourceId":"osm"},{"id":"osm:node:12912812637","latitude":50.1503606,"longitude":-5.0831307,"name":"Penmere Crescent by Penmere","properties":{"access":"unknown","bicycle_pa":"stands","capacity":5,"covered":"no","fee":"","operator":"","nameSource":"landmark"},"sourceId":"osm"},{"id":"osm:node:12917586502","latitude":50.1508086,"longitude":-5.0558012,"name":"Pendennis Rise by Falmouth Docks","properties":{"access":"unknown","bicycle_pa":"stands","capacity":3,"covered":"yes","fee":"","operator":"","nameSource":"landmark"},"sourceId":"osm"},{"id":"osm:node:1439213805","latitude":50.1486318,"longitude":-5.0638761,"name":"Avenue Road near Lansdowne Road","properties":{"access":"unknown","bicycle_pa":"stands","capacity":12,"covered":"no","fee":"","operator":"","nameSource":"junction"},"sourceId":"osm"},{"id":"osm:node:1440134295","latitude":50.148279,"longitude":-5.0680538,"name":"Fox's Lane near Melvill Crescent","properties":{"access":"unknown","bicycle_pa":"","capacity":0,"covered":"","fee":"","operator":"","nameSource":"junction"},"sourceId":"osm"},{"id":"osm:node:1440134299","latitude":50.1483877,"longitude":-5.0684897,"name":"Trelawney Avenue cycle parking","properties":{"access":"unknown","bicycle_pa":"","capacity":0,"covered":"","fee":"","operator":"","nameSource":"street"},"sourceId":"osm"},{"id":"osm:node:1440134300","latitude":50.1490599,"longitude":-5.0704451,"name":"Trelawney Avenue by Falmouth University","properties":{"access":"unknown","bicycle_pa":"","capacity":0,"covered":"","fee":"","operator":"","nameSource":"landmark"},"sourceId":"osm"},{"id":"osm:node:1440134301","latitude":50.1491712,"longitude":-5.0710383,"name":"Woodlane by Falmouth University","properties":{"access":"unknown","bicycle_pa":"","capacity":0,"covered":"","fee":"","operator":"","nameSource":"landmark"},"sourceId":"osm"},{"id":"osm:node:3759258786","latitude":50.1407731,"longitude":-5.0774318,"name":"Swanpool Road cycle parking","properties":{"access":"unknown","bicycle_pa":"stands","capacity":4,"covered":"no","fee":"no","operator":"","nameSource":"street"},"sourceId":"osm"},{"id":"osm:node:4358064578","latitude":50.1512585,"longitude":-5.064191,"name":"Arwenack Street by Event Square","properties":{"access":"unknown","bicycle_pa":"stands","capacity":8,"covered":"no","fee":"","operator":"","nameSource":"landmark"},"sourceId":"osm"},{"id":"osm:node:4358064579","latitude":50.1513642,"longitude":-5.0639013,"name":"Arwenack Street by Event Square","properties":{"access":"unknown","bicycle_pa":"stands","capacity":12,"covered":"no","fee":"","operator":"","nameSource":"landmark"},"sourceId":"osm"},{"id":"osm:node:8499176024","latitude":50.162429,"longitude":-5.0889214,"name":"Ponsharden by Argos","properties":{"access":"unknown","bicycle_pa":"wall_loops","capacity":10,"covered":"yes","fee":"","operator":"","nameSource":"landmark"},"sourceId":"osm"},{"id":"osm:node:8990001437","latitude":50.1466564,"longitude":-5.0500384,"name":"Castle Drive cycle parking","properties":{"access":"yes","bicycle_pa":"stands","capacity":10,"covered":"no","fee":"no","operator":"","nameSource":"street"},"sourceId":"osm"},{"id":"osm:node:9209740617","latitude":50.1562953,"longitude":-5.0706918,"name":"Prince of Wales Pier near Market Strand","properties":{"access":"unknown","bicycle_pa":"stands","capacity":8,"covered":"no","fee":"","operator":"","nameSource":"junction"},"sourceId":"osm"},{"id":"osm:node:9236004840","latitude":50.1560395,"longitude":-5.0709907,"name":"Killigrew Street near Market Strand","properties":{"access":"unknown","bicycle_pa":"stands","capacity":8,"covered":"no","fee":"","operator":"","nameSource":"junction"},"sourceId":"osm"},{"id":"osm:node:9236004846","latitude":50.1559972,"longitude":-5.0709548,"name":"Market Street near Killigrew Street","properties":{"access":"unknown","bicycle_pa":"stands","capacity":6,"covered":"no","fee":"","operator":"","nameSource":"junction"},"sourceId":"osm"},{"id":"osm:node:9236076960","latitude":50.1532386,"longitude":-5.0677271,"name":"Arwenack Street near Church Street","properties":{"access":"unknown","bicycle_pa":"stands","capacity":12,"covered":"no","fee":"","operator":"","nameSource":"junction"},"sourceId":"osm"},{"id":"osm:node:9240440722","latitude":50.1447236,"longitude":-5.0438862,"name":"Castle Drive cycle parking","properties":{"access":"unknown","bicycle_pa":"stands","capacity":16,"covered":"no","fee":"","operator":"","nameSource":"street"},"sourceId":"osm"},{"id":"osm:node:9900669808","latitude":50.1555352,"longitude":-5.0719538,"name":"Webber Street near Killigrew Street","properties":{"access":"unknown","bicycle_pa":"stands","capacity":6,"covered":"no","fee":"","operator":"","nameSource":"junction"},"sourceId":"osm"},{"id":"osm:way:1000541080","latitude":50.15461756,"longitude":-5.06743966,"name":"Fish Strand Quay cycle parking","properties":{"access":"yes","bicycle_pa":"stands","capacity":10,"covered":"yes","fee":"no","operator":"","nameSource":"street"},"sourceId":"osm"}],"schemaVersion":2}
