{"key":"12/2011/1361","points":[{"id":"osm:node:10031446424","latitude":51.5252775,"longitude":-3.2002525,"name":"Tatham Road by Timpson","properties":{"access":"unknown","bicycle_pa":"","capacity":20,"covered":"","fee":"","operator":"","nameSource":"landmark"},"sourceId":"osm"},{"id":"osm:node:11038067269","latitude":51.517679,"longitude":-3.2459089,"name":"Forest Farm Road by Wardens Centre","properties":{"access":"unknown","bicycle_pa":"stands","capacity":12,"covered":"no","fee":"no","operator":"","nameSource":"landmark"},"sourceId":"osm"},{"id":"osm:node:11708848343","latitude":51.5204202,"longitude":-3.231115,"name":"Park Crescent by Coryton","properties":{"access":"unknown","bicycle_pa":"","capacity":10,"covered":"no","fee":"","operator":"","nameSource":"landmark"},"sourceId":"osm"},{"id":"osm:node:11708848344","latitude":51.520405,"longitude":-3.2319786,"name":"Park Road near Pendwyallt Road","properties":{"access":"unknown","bicycle_pa":"","capacity":10,"covered":"no","fee":"","operator":"","nameSource":"junction"},"sourceId":"osm"},{"id":"osm:node:11873359307","latitude":51.5101182,"longitude":-3.1998081,"name":"Caerphilly Road near Rhydhelig Avenue","properties":{"access":"unknown","bicycle_pa":"","capacity":2,"covered":"","fee":"","operator":"","nameSource":"junction"},"sourceId":"osm"},{"id":"osm:node:11904184318","latitude":51.5103414,"longitude":-3.2111369,"name":"Cae Gwyn Road near Manor Rise","properties":{"access":"unknown","bicycle_pa":"rack","capacity":6,"covered":"no","fee":"","operator":"","nameSource":"junction"},"sourceId":"osm"},{"id":"osm:node:12010111538","latitude":51.5326235,"longitude":-3.1728894,"name":"Lisvane Reservoir Path by Mer","properties":{"access":"unknown","bicycle_pa":"shed","capacity":0,"covered":"","fee":"","operator":"","nameSource":"landmark"},"sourceId":"osm"},{"id":"osm:node:12010111539","latitude":51.5324498,"longitude":-3.1729169,"name":"Lisvane Reservoir Path by Lisvane and Llanishen Reservoirs Cafe","properties":{"access":"unknown","bicycle_pa":"","capacity":0,"covered":"","fee":"","operator":"","nameSource":"landmark"},"sourceId":"osm"},{"id":"osm:node:12105295391","latitude":51.529302,"longitude":-3.1878307,"name":"Station Road near Llanishen Court","properties":{"access":"unknown","bicycle_pa":"","capacity":10,"covered":"","fee":"","operator":"","nameSource":"junction"},"sourceId":"osm"},{"id":"osm:node:12108077081","latitude":51.5459863,"longitude":-3.1862808,"name":"M4 cycle parking","properties":{"access":"yes","bicycle_pa":"stands","capacity":0,"covered":"no","fee":"no","operator":"","nameSource":"street"},"sourceId":"osm"},{"id":"osm:node:12113777893","latitude":51.522296,"longitude":-3.2121159,"name":"Heol y Deri near Lon Fach","properties":{"access":"unknown","bicycle_pa":"","capacity":6,"covered":"","fee":"","operator":"","nameSource":"junction"},"sourceId":"osm"},{"id":"osm:node:12117653447","latitude":51.5121953,"longitude":-3.2188829,"name":"Bishop's Road near Merthyr Road","properties":{"access":"unknown","bicycle_pa":"","capacity":8,"covered":"","fee":"","operator":"","nameSource":"junction"},"sourceId":"osm"},{"id":"osm:node:12117727437","latitude":51.5159881,"longitude":-3.2246129,"name":"Park Road by Lloyds Pharmacy","properties":{"access":"unknown","bicycle_pa":"stands","capacity":2,"covered":"no","fee":"","operator":"","nameSource":"landmark"},"sourceId":"osm"},{"id":"osm:node:12117727438","latitude":51.5160095,"longitude":-3.2245573,"name":"Park Road by Lloyds Pharmacy","properties":{"access":"unknown","bicycle_pa":"stands","capacity":2,"covered":"no","fee":"","operator":"","nameSource":"landmark"},"sourceId":"osm"},{"id":"osm:node:12117727469","latitude":51.5157946,"longitude":-3.2240973,"name":"Tŷ'n Y Pwll Road near Foreland Road","properties":{"access":"unknown","bicycle_pa":"stands","capacity":8,"covered":"no","fee":"","operator":"","nameSource":"junction"},"sourceId":"osm"},{"id":"osm:node:12119600571","latitude":51.512188,"longitude":-3.1999148,"name":"Coronation Road near Caerphilly Road","properties":{"access":"unknown","bicycle_pa":"","capacity":2,"covered":"","fee":"","operator":"","nameSource":"junction"},"sourceId":"osm"},{"id":"osm:node:12119600572","latitude":51.5119993,"longitude":-3.1999019,"name":"Caerphilly Road near Coronation Road","properties":{"access":"unknown","bicycle_pa":"","capacity":2,"covered":"","fee":"","operator":"","nameSource":"junction"},"sourceId":"osm"},{"id":"osm:node:12119600573","latitude":51.5117812,"longitude":-3.1998562,"name":"Caerphilly Road near Birchgrove Road","properties":{"access":"unknown","bicycle_pa":"","capacity":4,"covered":"","fee":"","operator":"","nameSource":"junction"},"sourceId":"osm"},{"id":"osm:node:12119610891","latitude":51.5124178,"longitude":-3.1996482,"name":"Tair Erw Road near Caerphilly Road","properties":{"access":"unknown","bicycle_pa":"","capacity":8,"covered":"","fee":"","operator":"","nameSource":"junction"},"sourceId":"osm"},{"id":"osm:node:12119648417","latitude":51.5117921,"longitude":-3.1996172,"name":"Caerphilly Road near Birchgrove Road","properties":{"access":"unknown","bicycle_pa":"","capacity":4,"covered":"","fee":"","operator":"","nameSource":"junction"},"sourceId":"osm"},{"id":"osm:node:12119648431","latitude":51.5120488,"longitude":-3.1996535,"name":"Caerphilly Road near Coronation Road","properties":{"access":"unknown","bicycle_pa":"","capacity":2,"covered":"","fee":"","operator":"","nameSource":"junction"},"sourceId":"osm"},{"id":"osm:node:12139646985","latitude":51.5227244,"longitude":-3.199974,"name":"Ffordd Mograig near Smith Road","properties":{"access":"unknown","bicycle_pa":"","capacity":12,"covered":"","fee":"","operator":"","nameSource":"junction"},"sourceId":"osm"},{"id":"osm:node:12149677739","latitude":51.5256939,"longitude":-3.2028118,"name":"Thornhill Road near Beulah Road","properties":{"access":"unknown","bicycle_pa":"","capacity":6,"covered":"","fee":"","operator":"","nameSource":"junction"},"sourceId":"osm"},{"id":"osm:node:12184101232","latitude":51.519425,"longitude":-3.1781627,"name":"Llandennis Road near Park End Lane","properties":{"access":"unknown","bicycle_pa":"","capacity":10,"covered":"","fee":"","operator":"","nameSource":"junction"},"sourceId":"osm"},{"id":"osm:node:12194268224","latitude":51.5102777,"longitude":-3.187384,"name":"Celebration of Life Garden cycle parking","properties":{"access":"unknown","bicycle_pa":"","capacity":14,"covered":"","fee":"","operator":"","nameSource":"landmark"},"sourceId":"osm"},{"id":"osm:node:12288387813","latitude":51.5253955,"longitude":-3.1655771,"name":"Sherborne Avenue near Cyncoed Road","properties":{"access":"unknown","bicycle_pa":"","capacity":2,"covered":"","fee":"","operator":"","nameSource":"junction"},"sourceId":"osm"},{"id":"osm:node:13037051705","latitude":51.5142798,"longitude":-3.2053622,"name":"Pantbach Road near St Thomas Close","properties":{"access":"yes","bicycle_pa":"stands","capacity":2,"covered":"no","fee":"","operator":"","nameSource":"junction"},"sourceId":"osm"},{"id":"osm:node:13037059128","latitude":51.5181337,"longitude":-3.2011954,"name":"Caerphilly Road by Canton Chop Suey House","properties":{"access":"unknown","bicycle_pa":"stands","capacity":7,"covered":"yes","fee":"","operator":"","nameSource":"landmark"},"sourceId":"osm"},{"id":"osm:node:13037059129","latitude":51.5200464,"longitude":-3.2012019,"name":"Caerphilly Road near Ffordd Tŷ Unnos","properties":{"access":"unknown","bicycle_pa":"stands","capacity":5,"covered":"","fee":"","operator":"","nameSource":"junction"},"sourceId":"osm"},{"id":"osm:node:13037059130","latitude":51.5172395,"longitude":-3.1903856,"name":"St. Gildas Road near Saint Isan Road","properties":{"access":"unknown","bicycle_pa":"stands","capacity":3,"covered":"","fee":"","operator":"","nameSource":"junction"},"sourceId":"osm"},{"id":"osm:node:13233637379","latitude":51.5156229,"longitude":-3.2243162,"name":"Penlline Road by Roundabout Cafe","properties":{"access":"unknown","bicycle_pa":"stands","capacity":8,"covered":"no","fee":"","operator":"","nameSource":"landmark"},"sourceId":"osm"},{"id":"osm:node:13462248476","latitude":51.5283625,"longitude":-3.1846297,"name":"Fidlas Road near Melbourne Road","properties":{"access":"unknown","bicycle_pa":"","capacity":2,"covered":"","fee":"","operator":"","nameSource":"junction"},"sourceId":"osm"},{"id":"osm:node:13462248477","latitude":51.5284025,"longitude":-3.1847068,"name":"Fidlas Road near Melbourne Road","properties":{"access":"unknown","bicycle_pa":"","capacity":2,"covered":"","fee":"","operator":"","nameSource":"junction"},"sourceId":"osm"},{"id":"osm:node:3014013006","latitude":51.5161922,"longitude":-3.2487977,"name":"Radyr Train Station","properties":{"access":"yes","bicycle_pa":"shed","capacity":16,"covered":"yes","fee":"no","operator":"","nameSource":"source"},"sourceId":"osm"},{"id":"osm:node:3981923373","latitude":51.5235505,"longitude":-3.2423187,"name":"Asda Coryton","properties":{"access":"unknown","bicycle_pa":"stands","capacity":6,"covered":"no","fee":"","operator":"Asda","nameSource":"source"},"sourceId":"osm"},{"id":"osm:node:3986983422","latitude":51.5321415,"longitude":-3.2515539,"name":"Mill Road near Merthyr Road","properties":{"access":"unknown","bicycle_pa":"stands","capacity":4,"covered":"no","fee":"","operator":"","nameSource":"junction"},"sourceId":"osm"},{"id":"osm:node:3989924981","latitude":51.5128483,"longitude":-3.2199167,"name":"Merthyr Road near Church Road","properties":{"access":"unknown","bicycle_pa":"stands","capacity":6,"covered":"no","fee":"","operator":"","nameSource":"junction"},"sourceId":"osm"},{"id":"osm:node:3989924982","latitude":51.5128897,"longitude":-3.2197472,"name":"Merthyr Road near Church Road","properties":{"access":"unknown","bicycle_pa":"stands","capacity":4,"covered":"no","fee":"","operator":"","nameSource":"junction"},"sourceId":"osm"},{"id":"osm:node:3989924983","latitude":51.5126305,"longitude":-3.2195706,"name":"Merthyr Road by Farmers Pantry","properties":{"access":"unknown","bicycle_pa":"stands","capacity":4,"covered":"no","fee":"","operator":"","nameSource":"landmark"},"sourceId":"osm"},{"id":"osm:node:3989924984","latitude":51.5124744,"longitude":-3.2190983,"name":"Merthyr Road near Bishop's Road","properties":{"access":"unknown","bicycle_pa":"stands","capacity":4,"covered":"no","fee":"","operator":"","nameSource":"junction"},"sourceId":"osm"},{"id":"osm:node:4116991490","latitude":51.5154704,"longitude":-3.2511211,"name":"Station Road near Heol Isaf","properties":{"access":"unknown","bicycle_pa":"stands","capacity":6,"covered":"no","fee":"","operator":"","nameSource":"junction"},"sourceId":"osm"},{"id":"osm:node:4121026185","latitude":51.5130561,"longitude":-3.220251,"name":"Merthyr Road near Church Road","properties":{"access":"unknown","bicycle_pa":"stands","capacity":4,"covered":"no","fee":"","operator":"","nameSource":"junction"},"sourceId":"osm"},{"id":"osm:node:4185486889","latitude":51.5118378,"longitude":-3.2190331,"name":"Bishop's Road near Merthyr Road","properties":{"access":"unknown","bicycle_pa":"wall_loops","capacity":3,"covered":"no","fee":"","operator":"","nameSource":"junction"},"sourceId":"osm"},{"id":"osm:node:4185521019","latitude":51.5214329,"longitude":-3.2131419,"name":"Rhiwbina Library","properties":{"access":"unknown","bicycle_pa":"stands","capacity":6,"covered":"no","fee":"","operator":"Enfys","nameSource":"source"},"sourceId":"osm"},{"id":"osm:node:4185525652","latitude":51.5228262,"longitude":-3.2123987,"name":"Heol y Deri near Lon Fach","properties":{"access":"unknown","bicycle_pa":"stands","capacity":4,"covered":"no","fee":"","operator":"","nameSource":"junction"},"sourceId":"osm"},{"id":"osm:node:4185768201","latitude":51.5322966,"longitude":-3.2516223,"name":"Lewis Arms","properties":{"access":"yes","bicycle_pa":"wall_loops","capacity":3,"covered":"no","fee":"","operator":"Marstons","nameSource":"source"},"sourceId":"osm"},{"id":"osm:node:4185856387","latitude":51.5116991,"longitude":-3.199427,"name":"Heathwood Road near Birchgrove Road","properties":{"access":"unknown","bicycle_pa":"stands","capacity":8,"covered":"","fee":"","operator":"","nameSource":"junction"},"sourceId":"osm"},{"id":"osm:node:4185862207","latitude":51.5108463,"longitude":-3.1998244,"name":"Caerphilly Road by Lloyds Pharmacy","properties":{"access":"unknown","bicycle_pa":"stands","capacity":2,"covered":"","fee":"","operator":"Enfys","nameSource":"landmark"},"sourceId":"osm"},{"id":"osm:node:4220958389","latitude":51.5141641,"longitude":-3.2205116,"name":"Victoria Road cycle parking","properties":{"access":"yes","bicycle_pa":"stands","capacity":6,"covered":"no","fee":"","operator":"Cardiff Council","nameSource":"street"},"sourceId":"osm"},{"id":"osm:node:4244013709","latitude":51.5291145,"longitude":-3.1881483,"name":"Station Road near Llanishen Court","properties":{"access":"unknown","bicycle_pa":"stands","capacity":6,"covered":"","fee":"","operator":"","nameSource":"junction"},"sourceId":"osm"},{"id":"osm:node:4244021402","latitude":51.5198176,"longitude":-3.1788686,"name":"Heathwood Road by Ostuni","properties":{"access":"unknown","bicycle_pa":"stands","capacity":6,"covered":"","fee":"","operator":"","nameSource":"landmark"},"sourceId":"osm"},{"id":"osm:node:4244677977","latitude":51.5273601,"longitude":-3.1913407,"name":"Llanishen Leisure Centre","properties":{"access":"unknown","bicycle_pa":"stands","capacity":8,"covered":"no","fee":"","operator":"","nameSource":"source"},"sourceId":"osm"},{"id":"osm:node:4244677978","latitude":51.527136,"longitude":-3.1910804,"name":"Llanishen Leisure Centre","properties":{"access":"unknown","bicycle_pa":"stands","capacity":6,"covered":"no","fee":"","operator":"Cardiff Council","nameSource":"source"},"sourceId":"osm"},{"id":"osm:node:4244683862","latitude":51.5286935,"longitude":-3.1890465,"name":"Kimberley Terrace near Station Road","properties":{"access":"unknown","bicycle_pa":"stands","capacity":4,"covered":"no","fee":"","operator":"","nameSource":"junction"},"sourceId":"osm"},{"id":"osm:node:4244698245","latitude":51.5297758,"longitude":-3.2088222,"name":"Heol Llanishen Fach","properties":{"access":"unknown","bicycle_pa":"stands","capacity":4,"covered":"no","fee":"","operator":"","nameSource":"source"},"sourceId":"osm"},{"id":"osm:node:4244859516","latitude":51.5289706,"longitude":-3.1890072,"name":"Station Road near Kimberley Terrace","properties":{"access":"unknown","bicycle_pa":"stands","capacity":10,"covered":"","fee":"","operator":"","nameSource":"junction"},"sourceId":"osm"},{"id":"osm:node:4246541766","latitude":51.525636,"longitude":-3.1661285,"name":"Sandwick Court near Cyncoed Road","properties":{"access":"unknown","bicycle_pa":"stands","capacity":4,"covered":"no","fee":"","operator":"","nameSource":"junction"},"sourceId":"osm"},{"id":"osm:node:4246952936","latitude":51.5138587,"longitude":-3.23442,"name":"Samuels Crescent near Velindre Road","properties":{"access":"unknown","bicycle_pa":"stands","capacity":24,"covered":"no","fee":"","operator":"","nameSource":"junction"},"sourceId":"osm"},{"id":"osm:node:6859087547","latitude":51.5160442,"longitude":-3.2246999,"name":"Park Road by Lloyds Pharmacy","properties":{"access":"unknown","bicycle_pa":"stands","capacity":4,"covered":"no","fee":"","operator":"","nameSource":"landmark"},"sourceId":"osm"},{"id":"osm:node:6859087549","latitude":51.515953,"longitude":-3.225439,"name":"Park Road by Whitchurch Hub","properties":{"access":"yes","bicycle_pa":"stands","capacity":6,"covered":"no","fee":"","operator":"Cardiff Council","nameSource":"landmark"},"sourceId":"osm"},{"id":"osm:way:1094335879","latitude":51.52636233999999,"longitude":-3.19243068,"name":"Tŷ Glas Avenue by Marks & Spencer","properties":{"access":"unknown","bicycle_pa":"shed","capacity":14,"covered":"","fee":"","operator":"","nameSource":"landmark"},"sourceId":"osm"},{"id":"osm:way:1434015152","latitude":51.512598600000004,"longitude":-3.2196963600000004,"name":"Merthyr Road by Brompton Bike Hire - Whitchurch","properties":{"access":"unknown","bicycle_pa":"lockers","capacity":0,"covered":"","fee":"","operator":"","nameSource":"landmark"},"sourceId":"osm"},{"id":"osm:way:951843979","latitude":51.51755822857143,"longitude":-3.175815814285715,"name":"Llandennis Road by Cardiff High School","properties":{"access":"private","bicycle_pa":"shed","capacity":0,"covered":"","fee":"","operator":"","nameSource":"landmark"},"sourceId":"osm"}],"schemaVersion":2}
