{"key":"12/2011/1362","points":[{"id":"osm:node:10039875438","latitude":51.5040639,"longitude":-3.1978264,"name":"North Road near Gabalfa Interchange","properties":{"access":"unknown","bicycle_pa":"","capacity":6,"covered":"","fee":"","operator":"","nameSource":"junction"},"sourceId":"osm"},{"id":"osm:node:10311226337","latitude":51.4932449,"longitude":-3.1862961,"name":"Maindy Road cycle parking","properties":{"access":"customers","bicycle_pa":"stands","capacity":20,"covered":"yes","fee":"no","operator":"Cardiff Univerity","nameSource":"street"},"sourceId":"osm"},{"id":"osm:node:10425558394","latitude":51.4909135,"longitude":-3.1816212,"name":"Maindy Road near Cathays Terrace","properties":{"access":"yes","bicycle_pa":"stands","capacity":6,"covered":"yes","fee":"no","operator":"","nameSource":"junction"},"sourceId":"osm"},{"id":"osm:node:1050444555","latitude":51.482983,"longitude":-3.1715888,"name":"Queen Street near Station Terrace","properties":{"access":"unknown","bicycle_pa":"stands","capacity":28,"covered":"no","fee":"","operator":"","nameSource":"junction"},"sourceId":"osm"},{"id":"osm:node:10771634855","latitude":51.4933941,"longitude":-3.1688871,"name":"Red Route Pop-Up Cycleway (Proposed) by Home Bargains","properties":{"access":"unknown","bicycle_pa":"stands","capacity":4,"covered":"no","fee":"","operator":"","nameSource":"landmark"},"sourceId":"osm"},{"id":"osm:node:10771634864","latitude":51.4932972,"longitude":-3.1686793,"name":"Red Route Pop-Up Cycleway (Proposed) by Albany Primary School","properties":{"access":"unknown","bicycle_pa":"stands","capacity":6,"covered":"no","fee":"","operator":"","nameSource":"landmark"},"sourceId":"osm"},{"id":"osm:node:10771634865","latitude":51.493218,"longitude":-3.1691553,"name":"Albany Road near Arabella Street","properties":{"access":"unknown","bicycle_pa":"stands","capacity":6,"covered":"no","fee":"","operator":"","nameSource":"junction"},"sourceId":"osm"},{"id":"osm:node:10775569651","latitude":51.4941637,"longitude":-3.1662058,"name":"Red Route Pop-Up Cycleway (Proposed) by Rainbow Bargain","properties":{"access":"unknown","bicycle_pa":"","capacity":6,"covered":"","fee":"","operator":"","nameSource":"landmark"},"sourceId":"osm"},{"id":"osm:node:10823093707","latitude":51.4866504,"longitude":-3.1663342,"name":"City Road near Vere Street","properties":{"access":"unknown","bicycle_pa":"stands","capacity":4,"covered":"no","fee":"","operator":"","nameSource":"junction"},"sourceId":"osm"},{"id":"osm:node:10855681089","latitude":51.4753657,"longitude":-3.2138265,"name":"Lawrenny Avenue cycle parking","properties":{"access":"unknown","bicycle_pa":"","capacity":0,"covered":"","fee":"","operator":"","nameSource":"street"},"sourceId":"osm"},{"id":"osm:node:10896486050","latitude":51.462572,"longitude":-3.1738969,"name":"Hamadryad Road near Pomeroy Street","properties":{"access":"unknown","bicycle_pa":"","capacity":12,"covered":"","fee":"","operator":"","nameSource":"junction"},"sourceId":"osm"},{"id":"osm:node:10896486062","latitude":51.4625359,"longitude":-3.1745843,"name":"Hamadryad Road near Pomeroy Street","properties":{"access":"unknown","bicycle_pa":"","capacity":8,"covered":"","fee":"","operator":"","nameSource":"junction"},"sourceId":"osm"},{"id":"osm:node:10902863910","latitude":51.4639055,"longitude":-3.1717673,"name":"Burt Street near Hunter Street","properties":{"access":"unknown","bicycle_pa":"","capacity":10,"covered":"","fee":"","operator":"","nameSource":"junction"},"sourceId":"osm"},{"id":"osm:node:10920320410","latitude":51.4706804,"longitude":-3.1699502,"name":"Loudoun Square near Christina Street","properties":{"access":"unknown","bicycle_pa":"","capacity":4,"covered":"","fee":"","operator":"","nameSource":"junction"},"sourceId":"osm"},{"id":"osm:node:10920320411","latitude":51.4705787,"longitude":-3.1698792,"name":"Loudoun Square near Christina Street","properties":{"access":"unknown","bicycle_pa":"","capacity":14,"covered":"","fee":"","operator":"","nameSource":"junction"},"sourceId":"osm"},{"id":"osm:node:10920320412","latitude":51.4705927,"longitude":-3.1696724,"name":"Loudoun Square near Christina Street","properties":{"access":"unknown","bicycle_pa":"","capacity":6,"covered":"","fee":"","operator":"","nameSource":"junction"},"sourceId":"osm"},{"id":"osm:node:10920361349","latitude":51.4703095,"longitude":-3.1700872,"name":"Loudoun Square near Christina Street","properties":{"access":"unknown","bicycle_pa":"","capacity":6,"covered":"","fee":"","operator":"","nameSource":"junction"},"sourceId":"osm"},{"id":"osm:node:10920755538","latitude":51.4716359,"longitude":-3.1756186,"name":"Dumballs Road near Canal Parade","properties":{"access":"unknown","bicycle_pa":"stands","capacity":10,"covered":"no","fee":"","operator":"","nameSource":"junction"},"sourceId":"osm"},{"id":"osm:node:10920755543","latitude":51.4708716,"longitude":-3.1752365,"name":"Dumballs Road cycle parking","properties":{"access":"unknown","bicycle_pa":"","capacity":10,"covered":"","fee":"","operator":"","nameSource":"street"},"sourceId":"osm"},{"id":"osm:node:10920755544","latitude":51.4710361,"longitude":-3.1745864,"name":"Dumballs Road cycle parking","properties":{"access":"unknown","bicycle_pa":"","capacity":20,"covered":"","fee":"","operator":"","nameSource":"street"},"sourceId":"osm"},{"id":"osm:node:10921688552","latitude":51.5022085,"longitude":-3.2207583,"name":"College Road near Festiniog Road","properties":{"access":"customers","bicycle_pa":"","capacity":6,"covered":"","fee":"","operator":"","nameSource":"junction"},"sourceId":"osm"},{"id":"osm:node:10924117699","latitude":51.4916042,"longitude":-3.1897593,"name":"North Road Cycleway cycle parking","properties":{"access":"yes","bicycle_pa":"","capacity":10,"covered":"no","fee":"","operator":"","nameSource":"street"},"sourceId":"osm"},{"id":"osm:node:10925308818","latitude":51.470095,"longitude":-3.1717631,"name":"Loudoun Square near Angelina Street","properties":{"access":"unknown","bicycle_pa":"","capacity":8,"covered":"","fee":"","operator":"","nameSource":"junction"},"sourceId":"osm"},{"id":"osm:node:10925898678","latitude":51.5084961,"longitude":-3.2298622,"name":"The Parade near The Avenue","properties":{"access":"yes","bicycle_pa":"","capacity":10,"covered":"no","fee":"","operator":"","nameSource":"junction"},"sourceId":"osm"},{"id":"osm:node:10925898679","latitude":51.5084209,"longitude":-3.2300037,"name":"Ty Mawr Road near West Road","properties":{"access":"yes","bicycle_pa":"","capacity":16,"covered":"yes","fee":"","operator":"","nameSource":"junction"},"sourceId":"osm"},{"id":"osm:node:10928634437","latitude":51.4790477,"longitude":-3.1724404,"name":"David Street near Mary Ann Street","properties":{"access":"yes","bicycle_pa":"","capacity":6,"covered":"no","fee":"","operator":"","nameSource":"junction"},"sourceId":"osm"},{"id":"osm:node:10928912607","latitude":51.4762253,"longitude":-3.1713479,"name":"Herbert Street near Tyndall Street","properties":{"access":"customers","bicycle_pa":"stands","capacity":10,"covered":"no","fee":"","operator":"","nameSource":"junction"},"sourceId":"osm"},{"id":"osm:node:10977671174","latitude":51.4648294,"longitude":-3.1659108,"name":"Bute Street near Bute Place","properties":{"access":"unknown","bicycle_pa":"","capacity":6,"covered":"","fee":"","operator":"","nameSource":"junction"},"sourceId":"osm"},{"id":"osm:node:1102607244","latitude":51.4817406,"longitude":-3.1742862,"name":"Charles Street near Church Place","properties":{"access":"unknown","bicycle_pa":"stands","capacity":16,"covered":"yes","fee":"","operator":"","nameSource":"junction"},"sourceId":"osm"},{"id":"osm:node:11061746912","latitude":51.4624057,"longitude":-3.1686522,"name":"Havannah Street near Stuart Street","properties":{"access":"yes","bicycle_pa":"stands","capacity":14,"covered":"no","fee":"no","operator":"","nameSource":"junction"},"sourceId":"osm"},{"id":"osm:node:11189572947","latitude":51.4920956,"longitude":-3.2251383,"name":"Insole Gardens by Butler's Books","properties":{"access":"unknown","bicycle_pa":"stands","capacity":4,"covered":"no","fee":"no","operator":"","nameSource":"landmark"},"sourceId":"osm"},{"id":"osm:node:11263272354","latitude":51.4882261,"longitude":-3.1918407,"name":"Cardiff Wales Stadium cycle parking","properties":{"access":"customers","bicycle_pa":"stands","capacity":25,"covered":"yes","fee":"","operator":"","nameSource":"landmark"},"sourceId":"osm"},{"id":"osm:node:11300876975","latitude":51.4790679,"longitude":-3.1886328,"name":"Despenser Street near Clare Street","properties":{"access":"yes","bicycle_pa":"stands","capacity":4,"covered":"no","fee":"no","operator":"","nameSource":"junction"},"sourceId":"osm"},{"id":"osm:node:11431699640","latitude":51.4795196,"longitude":-3.179041,"name":"Saint Mary Street near Guildhall Place","properties":{"access":"yes","bicycle_pa":"stands","capacity":8,"covered":"no","fee":"no","operator":"","nameSource":"junction"},"sourceId":"osm"},{"id":"osm:node:11431699641","latitude":51.4795511,"longitude":-3.1789282,"name":"Saint Mary Street near Guildhall Place","properties":{"access":"yes","bicycle_pa":"stands","capacity":8,"covered":"no","fee":"no","operator":"","nameSource":"junction"},"sourceId":"osm"},{"id":"osm:node:11457193428","latitude":51.5015373,"longitude":-3.214892,"name":"Gabalfa Avenue near Bacton Road","properties":{"access":"unknown","bicycle_pa":"stands","capacity":8,"covered":"no","fee":"no","operator":"","nameSource":"junction"},"sourceId":"osm"},{"id":"osm:node:11698848916","latitude":51.492381,"longitude":-3.183606,"name":"Maindy Road near Minister Street","properties":{"access":"yes","bicycle_pa":"stands","capacity":0,"covered":"no","fee":"no","operator":"","nameSource":"junction"},"sourceId":"osm"},{"id":"osm:node:11698862852","latitude":51.4843954,"longitude":-3.1698707,"name":"The Parade near West Grove","properties":{"access":"private","bicycle_pa":"stands","capacity":0,"covered":"yes","fee":"no","operator":"","nameSource":"junction"},"sourceId":"osm"},{"id":"osm:node:1179414436","latitude":51.4857129,"longitude":-3.1765987,"name":"Gorsedd Gardens Road near Park Place","properties":{"access":"unknown","bicycle_pa":"stands","capacity":8,"covered":"no","fee":"","operator":"Cardiff County Council","nameSource":"junction"},"sourceId":"osm"},{"id":"osm:node:11802893330","latitude":51.4996645,"longitude":-3.202743,"name":"Excelsior Road near Batchelor Road","properties":{"access":"unknown","bicycle_pa":"","capacity":12,"covered":"","fee":"","operator":"","nameSource":"junction"},"sourceId":"osm"},{"id":"osm:node:11803423891","latitude":51.5010383,"longitude":-3.2051179,"name":"Western Avenue by Aldi","properties":{"access":"unknown","bicycle_pa":"","capacity":16,"covered":"","fee":"","operator":"","nameSource":"landmark"},"sourceId":"osm"},{"id":"osm:node:11808080598","latitude":51.4985567,"longitude":-3.2063921,"name":"Western Avenue by Timpson","properties":{"access":"unknown","bicycle_pa":"","capacity":14,"covered":"","fee":"","operator":"","nameSource":"landmark"},"sourceId":"osm"},{"id":"osm:node:11808080599","latitude":51.4987118,"longitude":-3.2063146,"name":"Western Avenue cycle parking","properties":{"access":"unknown","bicycle_pa":"","capacity":18,"covered":"","fee":"","operator":"","nameSource":"street"},"sourceId":"osm"},{"id":"osm:node:11809361963","latitude":51.5001633,"longitude":-3.2059643,"name":"Western Avenue by B&M","properties":{"access":"unknown","bicycle_pa":"","capacity":12,"covered":"","fee":"","operator":"","nameSource":"landmark"},"sourceId":"osm"},{"id":"osm:node:11811603483","latitude":51.4800389,"longitude":-3.188612,"name":"Green Street near Brook Street","properties":{"access":"unknown","bicycle_pa":"","capacity":6,"covered":"","fee":"","operator":"","nameSource":"junction"},"sourceId":"osm"},{"id":"osm:node:11812523889","latitude":51.4775389,"longitude":-3.1879194,"name":"Despenser Place by Clare Street","properties":{"access":"unknown","bicycle_pa":"","capacity":4,"covered":"","fee":"","operator":"","nameSource":"landmark"},"sourceId":"osm"},{"id":"osm:node:11812523909","latitude":51.477672,"longitude":-3.1869896,"name":"Beauchamp Street near Despenser Place","properties":{"access":"unknown","bicycle_pa":"","capacity":6,"covered":"","fee":"","operator":"","nameSource":"junction"},"sourceId":"osm"},{"id":"osm:node:11826572149","latitude":51.4812128,"longitude":-3.1815285,"name":"Castle Street near Womanby Street","properties":{"access":"unknown","bicycle_pa":"stands","capacity":10,"covered":"no","fee":"","operator":"","nameSource":"junction"},"sourceId":"osm"},{"id":"osm:node:11826572150","latitude":51.481221,"longitude":-3.1814563,"name":"Castle Street near Womanby Street","properties":{"access":"unknown","bicycle_pa":"stands","capacity":10,"covered":"no","fee":"","operator":"","nameSource":"junction"},"sourceId":"osm"},{"id":"osm:node:11826572151","latitude":51.4811818,"longitude":-3.1818071,"name":"Castle Street near Womanby Street","properties":{"access":"unknown","bicycle_pa":"stands","capacity":10,"covered":"no","fee":"","operator":"","nameSource":"junction"},"sourceId":"osm"},{"id":"osm:node:11826572152","latitude":51.4811891,"longitude":-3.181731,"name":"Castle Street near Womanby Street","properties":{"access":"unknown","bicycle_pa":"stands","capacity":10,"covered":"no","fee":"","operator":"","nameSource":"junction"},"sourceId":"osm"},{"id":"osm:node:11826572153","latitude":51.4811959,"longitude":-3.1816643,"name":"Castle Street near Womanby Street","properties":{"access":"unknown","bicycle_pa":"stands","capacity":10,"covered":"no","fee":"","operator":"","nameSource":"junction"},"sourceId":"osm"},{"id":"osm:node:11826572156","latitude":51.4814113,"longitude":-3.1812203,"name":"Castle Street near Womanby Street","properties":{"access":"unknown","bicycle_pa":"","capacity":10,"covered":"","fee":"","operator":"","nameSource":"junction"},"sourceId":"osm"},{"id":"osm:node:11826572157","latitude":51.4814202,"longitude":-3.181144,"name":"Castle Street near Duke Street","properties":{"access":"unknown","bicycle_pa":"","capacity":10,"covered":"","fee":"","operator":"","nameSource":"junction"},"sourceId":"osm"},{"id":"osm:node:11845805645","latitude":51.4968981,"longitude":-3.1911182,"name":"North Road by Maindy Centre","properties":{"access":"unknown","bicycle_pa":"stands","capacity":28,"covered":"no","fee":"","operator":"","nameSource":"landmark"},"sourceId":"osm"},{"id":"osm:node:11863889894","latitude":51.4977832,"longitude":-3.1838114,"name":"Gelligaer Lane near Gelligaer Street","properties":{"access":"unknown","bicycle_pa":"","capacity":8,"covered":"","fee":"","operator":"","nameSource":"junction"},"sourceId":"osm"},{"id":"osm:node:11867554635","latitude":51.5024987,"longitude":-3.1945235,"name":"Maitland Street near Quentin Street","properties":{"access":"unknown","bicycle_pa":"","capacity":4,"covered":"","fee":"","operator":"","nameSource":"junction"},"sourceId":"osm"},{"id":"osm:node:11869356171","latitude":51.5011767,"longitude":-3.1883151,"name":"Whitchurch Road near New Zealand Road","properties":{"access":"unknown","bicycle_pa":"","capacity":4,"covered":"","fee":"","operator":"","nameSource":"junction"},"sourceId":"osm"},{"id":"osm:node:11869356172","latitude":51.5012864,"longitude":-3.1884914,"name":"New Zealand Road near Whitchurch Road","properties":{"access":"unknown","bicycle_pa":"","capacity":4,"covered":"","fee":"","operator":"","nameSource":"junction"},"sourceId":"osm"},{"id":"osm:node:11869356181","latitude":51.5015416,"longitude":-3.1892477,"name":"Canada Road by Cant a Mil","properties":{"access":"unknown","bicycle_pa":"","capacity":4,"covered":"","fee":"","operator":"","nameSource":"landmark"},"sourceId":"osm"},{"id":"osm:node:11869356182","latitude":51.5015943,"longitude":-3.189166,"name":"Whitchurch Road near Australia Road","properties":{"access":"unknown","bicycle_pa":"","capacity":4,"covered":"","fee":"","operator":"","nameSource":"junction"},"sourceId":"osm"},{"id":"osm:node:11874171090","latitude":51.5071982,"longitude":-3.1923181,"name":"Dental Drive near Academic Avenue","properties":{"access":"unknown","bicycle_pa":"","capacity":12,"covered":"","fee":"","operator":"","nameSource":"junction"},"sourceId":"osm"},{"id":"osm:node:11875831716","latitude":51.5084369,"longitude":-3.1897215,"name":"Heath Park Way cycle parking","properties":{"access":"unknown","bicycle_pa":"","capacity":22,"covered":"","fee":"","operator":"","nameSource":"street"},"sourceId":"osm"},{"id":"osm:node:11884392512","latitude":51.4834907,"longitude":-3.1732686,"name":"Windsor Place near Windsor Lane","properties":{"access":"unknown","bicycle_pa":"","capacity":10,"covered":"","fee":"","operator":"","nameSource":"junction"},"sourceId":"osm"},{"id":"osm:node:11895904947","latitude":51.4960225,"longitude":-3.1818385,"name":"Cathays Terrace near May Street","properties":{"access":"unknown","bicycle_pa":"","capacity":2,"covered":"","fee":"","operator":"","nameSource":"junction"},"sourceId":"osm"},{"id":"osm:node:11895904948","latitude":51.4959831,"longitude":-3.1818378,"name":"Cathays Terrace near May Street","properties":{"access":"unknown","bicycle_pa":"","capacity":2,"covered":"","fee":"","operator":"","nameSource":"junction"},"sourceId":"osm"},{"id":"osm:node:11895904955","latitude":51.4958695,"longitude":-3.1817279,"name":"May Street near Cathays Terrace","properties":{"access":"unknown","bicycle_pa":"","capacity":4,"covered":"","fee":"","operator":"","nameSource":"junction"},"sourceId":"osm"},{"id":"osm:node:11895905045","latitude":51.4960298,"longitude":-3.1812628,"name":"May Street near Whitchurch Place","properties":{"access":"private","bicycle_pa":"","capacity":12,"covered":"","fee":"","operator":"","nameSource":"junction"},"sourceId":"osm"},{"id":"osm:node:11899737235","latitude":51.4781453,"longitude":-3.1733404,"name":"Tredegar Street near Millicent Street","properties":{"access":"unknown","bicycle_pa":"stands","capacity":16,"covered":"no","fee":"","operator":"","nameSource":"junction"},"sourceId":"osm"},{"id":"osm:node:11927278606","latitude":51.4766161,"longitude":-3.1809646,"name":"Scott Road near Wood Street","properties":{"access":"unknown","bicycle_pa":"","capacity":40,"covered":"","fee":"","operator":"","nameSource":"junction"},"sourceId":"osm"},{"id":"osm:node:11929026103","latitude":51.4762136,"longitude":-3.1802555,"name":"Millennium Walkway near Central Square","properties":{"access":"unknown","bicycle_pa":"","capacity":10,"covered":"","fee":"","operator":"","nameSource":"junction"},"sourceId":"osm"},{"id":"osm:node:11929026104","latitude":51.476262,"longitude":-3.1804246,"name":"Millennium Walkway near Central Square","properties":{"access":"unknown","bicycle_pa":"","capacity":10,"covered":"","fee":"","operator":"","nameSource":"junction"},"sourceId":"osm"},{"id":"osm:node:11938544434","latitude":51.4816479,"longitude":-3.1788804,"name":"Queen Street near St. John Street","properties":{"access":"unknown","bicycle_pa":"stands","capacity":12,"covered":"no","fee":"","operator":"","nameSource":"junction"},"sourceId":"osm"},{"id":"osm:node:11945086903","latitude":51.4540358,"longitude":-3.191881,"name":"Grangetown Link cycle parking","properties":{"access":"yes","bicycle_pa":"stands","capacity":10,"covered":"yes","fee":"no","operator":"Cardiff Council","nameSource":"street"},"sourceId":"osm"},{"id":"osm:node:11959839891","latitude":51.4835174,"longitude":-3.1660624,"name":"Newport Road Lane near Howard Place","properties":{"access":"unknown","bicycle_pa":"stands","capacity":12,"covered":"yes","fee":"","operator":"","nameSource":"junction"},"sourceId":"osm"},{"id":"osm:node:11959839892","latitude":51.4835498,"longitude":-3.1663059,"name":"Newport Road Lane near Howard Gardens","properties":{"access":"unknown","bicycle_pa":"stands","capacity":6,"covered":"no","fee":"","operator":"","nameSource":"junction"},"sourceId":"osm"},{"id":"osm:node:12025471079","latitude":51.4658288,"longitude":-3.1824348,"name":"Bradford Street by Well Pharmacy","properties":{"access":"yes","bicycle_pa":"rack","capacity":4,"covered":"no","fee":"no","operator":"","nameSource":"landmark"},"sourceId":"osm"},{"id":"osm:node:12025471099","latitude":51.4668996,"longitude":-3.182358,"name":"Holmesdale Street near Newport Street","properties":{"access":"unknown","bicycle_pa":"rack","capacity":8,"covered":"no","fee":"no","operator":"","nameSource":"junction"},"sourceId":"osm"},{"id":"osm:node:12025471102","latitude":51.4720108,"longitude":-3.1804654,"name":"Curran Embankment near Penarth Road","properties":{"access":"customers","bicycle_pa":"","capacity":6,"covered":"no","fee":"","operator":"Big Yellow Self Storage","nameSource":"junction"},"sourceId":"osm"},{"id":"osm:node:12025471104","latitude":51.4696394,"longitude":-3.1817097,"name":"Llanbradach Street near Taff Embankment","properties":{"access":"yes","bicycle_pa":"rack","capacity":8,"covered":"no","fee":"no","operator":"","nameSource":"junction"},"sourceId":"osm"},{"id":"osm:node:12128450771","latitude":51.4754028,"longitude":-3.1732075,"name":"Bute Street near Callaghan Square","properties":{"access":"unknown","bicycle_pa":"stands","capacity":4,"covered":"no","fee":"","operator":"","nameSource":"junction"},"sourceId":"osm"},{"id":"osm:node:12150156390","latitude":51.4914987,"longitude":-3.1840431,"name":"Colum Drive cycle parking","properties":{"access":"unknown","bicycle_pa":"","capacity":10,"covered":"","fee":"","operator":"","nameSource":"street"},"sourceId":"osm"},{"id":"osm:node:12150156491","latitude":51.4918801,"longitude":-3.1848195,"name":"Colum Drive cycle parking","properties":{"access":"unknown","bicycle_pa":"","capacity":24,"covered":"","fee":"","operator":"","nameSource":"street"},"sourceId":"osm"},{"id":"osm:node:12150510049","latitude":51.4885956,"longitude":-3.1789635,"name":"Park Place near College Lane","properties":{"access":"unknown","bicycle_pa":"","capacity":8,"covered":"","fee":"","operator":"","nameSource":"junction"},"sourceId":"osm"},{"id":"osm:node:12150610025","latitude":51.491516,"longitude":-3.1791923,"name":"Woodville Road near Mundy Place","properties":{"access":"unknown","bicycle_pa":"","capacity":4,"covered":"","fee":"","operator":"","nameSource":"junction"},"sourceId":"osm"},{"id":"osm:node:12150610077","latitude":51.4909417,"longitude":-3.1779513,"name":"Wyeverne Road near Mundy Place","properties":{"access":"unknown","bicycle_pa":"","capacity":4,"covered":"","fee":"","operator":"","nameSource":"junction"},"sourceId":"osm"},{"id":"osm:node:12150759640","latitude":51.4885297,"longitude":-3.173948,"name":"Salisbury Road near Lowther Road","properties":{"access":"unknown","bicycle_pa":"","capacity":8,"covered":"","fee":"","operator":"","nameSource":"junction"},"sourceId":"osm"},{"id":"osm:node:12193291037","latitude":51.5033431,"longitude":-3.1715237,"name":"Maryport Road near Brandreth Road","properties":{"access":"unknown","bicycle_pa":"","capacity":6,"covered":"","fee":"","operator":"","nameSource":"junction"},"sourceId":"osm"},{"id":"osm:node:12273092548","latitude":51.5052429,"longitude":-3.1673014,"name":"Birchwood Lane by Birchwood House","properties":{"access":"unknown","bicycle_pa":"","capacity":0,"covered":"","fee":"","operator":"","nameSource":"landmark"},"sourceId":"osm"},{"id":"osm:node:12326944735","latitude":51.4690005,"longitude":-3.1882059,"name":"North Street near Penarth Road","properties":{"access":"unknown","bicycle_pa":"stands","capacity":4,"covered":"no","fee":"","operator":"","nameSource":"junction"},"sourceId":"osm"},{"id":"osm:node:12377137247","latitude":51.4722247,"longitude":-3.1868687,"name":"Stafford Road near Clare Road","properties":{"access":"unknown","bicycle_pa":"","capacity":0,"covered":"","fee":"","operator":"","nameSource":"junction"},"sourceId":"osm"},{"id":"osm:node:12697711603","latitude":51.4814308,"longitude":-3.1739949,"name":"Charles Street near Church Place","properties":{"access":"unknown","bicycle_pa":"stands","capacity":14,"covered":"no","fee":"","operator":"","nameSource":"junction"},"sourceId":"osm"},{"id":"osm:node:12714392544","latitude":51.4609102,"longitude":-3.1683648,"name":"Havannah Street cycle parking","properties":{"access":"unknown","bicycle_pa":"","capacity":12,"covered":"","fee":"","operator":"","nameSource":"street"},"sourceId":"osm"},{"id":"osm:node:12759036840","latitude":51.4821519,"longitude":-3.1667186,"name":"Fitzalan Place near Knox Road","properties":{"access":"unknown","bicycle_pa":"","capacity":6,"covered":"","fee":"","operator":"","nameSource":"junction"},"sourceId":"osm"},{"id":"osm:node:12772654504","latitude":51.4890878,"longitude":-3.1811229,"name":"Park Place cycle parking","properties":{"access":"unknown","bicycle_pa":"","capacity":16,"covered":"","fee":"","operator":"","nameSource":"street"},"sourceId":"osm"},{"id":"osm:node:12775560180","latitude":51.4886646,"longitude":-3.180953,"name":"Park Place cycle parking","properties":{"access":"unknown","bicycle_pa":"shed","capacity":0,"covered":"","fee":"","operator":"","nameSource":"street"},"sourceId":"osm"},{"id":"osm:node:12775560181","latitude":51.4887001,"longitude":-3.1809986,"name":"Park Place cycle parking","properties":{"access":"unknown","bicycle_pa":"shed","capacity":0,"covered":"","fee":"","operator":"","nameSource":"street"},"sourceId":"osm"},{"id":"osm:node:12775560182","latitude":51.4887936,"longitude":-3.1811059,"name":"Park Place cycle parking","properties":{"access":"unknown","bicycle_pa":"shed","capacity":0,"covered":"","fee":"","operator":"","nameSource":"street"},"sourceId":"osm"},{"id":"osm:node:12775560183","latitude":51.4887665,"longitude":-3.1810743,"name":"Park Place cycle parking","properties":{"access":"unknown","bicycle_pa":"shed","capacity":0,"covered":"","fee":"","operator":"","nameSource":"street"},"sourceId":"osm"},{"id":"osm:node:12775560184","latitude":51.4886905,"longitude":-3.1811494,"name":"Park Place cycle parking","properties":{"access":"unknown","bicycle_pa":"shed","capacity":0,"covered":"","fee":"","operator":"","nameSource":"street"},"sourceId":"osm"},{"id":"osm:node:12776630698","latitude":51.4857687,"longitude":-3.1744314,"name":"Cardiff Cycleway 1 near Park Grove","properties":{"access":"unknown","bicycle_pa":"","capacity":10,"covered":"","fee":"","operator":"","nameSource":"junction"},"sourceId":"osm"},{"id":"osm:node:12788105507","latitude":51.4950388,"longitude":-3.1767131,"name":"Lucas Street near Crwys Road","properties":{"access":"unknown","bicycle_pa":"","capacity":10,"covered":"","fee":"","operator":"","nameSource":"junction"},"sourceId":"osm"},{"id":"osm:node:12798277090","latitude":51.4830398,"longitude":-3.2201766,"name":"Cowbridge Road East near Lansdowne Road","properties":{"access":"unknown","bicycle_pa":"","capacity":12,"covered":"","fee":"","operator":"","nameSource":"junction"},"sourceId":"osm"},{"id":"osm:node:12799059881","latitude":51.4895953,"longitude":-3.241117,"name":"Fairwater Green near St Fagans Road","properties":{"access":"unknown","bicycle_pa":"","capacity":4,"covered":"","fee":"","operator":"","nameSource":"junction"},"sourceId":"osm"},{"id":"osm:node:12818327481","latitude":51.4959877,"longitude":-3.2446914,"name":"Plas-Mawr Road near Ferrier Avenue","properties":{"access":"unknown","bicycle_pa":"","capacity":6,"covered":"","fee":"","operator":"","nameSource":"junction"},"sourceId":"osm"},{"id":"osm:node:12996141195","latitude":51.4632609,"longitude":-3.1879975,"name":"Ffordd Yr Haearn cycle parking","properties":{"access":"unknown","bicycle_pa":"stands","capacity":0,"covered":"yes","fee":"no","operator":"","nameSource":"street"},"sourceId":"osm"},{"id":"osm:node:13094368757","latitude":51.4808889,"longitude":-3.1839807,"name":"Castle Street near Westgate Street","properties":{"access":"unknown","bicycle_pa":"","capacity":8,"covered":"","fee":"","operator":"","nameSource":"junction"},"sourceId":"osm"},{"id":"osm:node:13118953322","latitude":51.4827744,"longitude":-3.1781321,"name":"The Friary near Greyfriars Road","properties":{"access":"unknown","bicycle_pa":"","capacity":2,"covered":"","fee":"","operator":"","nameSource":"junction"},"sourceId":"osm"},{"id":"osm:node:13118953324","latitude":51.4827351,"longitude":-3.1781098,"name":"The Friary near Greyfriars Road","properties":{"access":"unknown","bicycle_pa":"","capacity":2,"covered":"","fee":"","operator":"","nameSource":"junction"},"sourceId":"osm"},{"id":"osm:node:13118953327","latitude":51.4828952,"longitude":-3.1782094,"name":"The Friary near Greyfriars Road","properties":{"access":"unknown","bicycle_pa":"","capacity":2,"covered":"","fee":"","operator":"","nameSource":"junction"},"sourceId":"osm"},{"id":"osm:node:13118953328","latitude":51.482919,"longitude":-3.1782211,"name":"The Friary near Greyfriars Road","properties":{"access":"unknown","bicycle_pa":"","capacity":2,"covered":"","fee":"","operator":"","nameSource":"junction"},"sourceId":"osm"},{"id":"osm:node:13118953329","latitude":51.4830712,"longitude":-3.1783075,"name":"The Friary near Greyfriars Road","properties":{"access":"unknown","bicycle_pa":"","capacity":12,"covered":"","fee":"","operator":"","nameSource":"junction"},"sourceId":"osm"},{"id":"osm:node:13132876399","latitude":51.4943595,"longitude":-3.2126036,"name":"Western Avenue near Mill Lane","properties":{"access":"unknown","bicycle_pa":"","capacity":12,"covered":"","fee":"","operator":"","nameSource":"junction"},"sourceId":"osm"},{"id":"osm:node:13147983289","latitude":51.5009535,"longitude":-3.2125499,"name":"Gabalfa Avenue near Waterston Road","properties":{"access":"unknown","bicycle_pa":"","capacity":6,"covered":"","fee":"","operator":"","nameSource":"junction"},"sourceId":"osm"},{"id":"osm:node:13149108368","latitude":51.5031366,"longitude":-3.2270112,"name":"Station Road near Chamberlain Road","properties":{"access":"unknown","bicycle_pa":"","capacity":20,"covered":"","fee":"","operator":"","nameSource":"junction"},"sourceId":"osm"},{"id":"osm:node:13149378948","latitude":51.5064992,"longitude":-3.2325188,"name":"Radyr Road near Hazelhurst Road","properties":{"access":"unknown","bicycle_pa":"","capacity":16,"covered":"","fee":"","operator":"","nameSource":"junction"},"sourceId":"osm"},{"id":"osm:node:13326299985","latitude":51.4866946,"longitude":-3.1775662,"name":"Park Place near Museum Place","properties":{"access":"unknown","bicycle_pa":"","capacity":12,"covered":"","fee":"","operator":"","nameSource":"junction"},"sourceId":"osm"},{"id":"osm:node:13351630365","latitude":51.4738894,"longitude":-3.2050318,"name":"Ffordd Fred Keenor near Leckwith Road","properties":{"access":"unknown","bicycle_pa":"","capacity":10,"covered":"","fee":"","operator":"","nameSource":"junction"},"sourceId":"osm"},{"id":"osm:node:13351630366","latitude":51.4737198,"longitude":-3.2055307,"name":"Ffordd Fred Keenor near Leckwith Road","properties":{"access":"unknown","bicycle_pa":"","capacity":14,"covered":"","fee":"","operator":"","nameSource":"junction"},"sourceId":"osm"},{"id":"osm:node:13353948393","latitude":51.4732641,"longitude":-3.2063033,"name":"Leckwith Road near Ffordd Fred Keenor","properties":{"access":"unknown","bicycle_pa":"","capacity":28,"covered":"","fee":"","operator":"","nameSource":"junction"},"sourceId":"osm"},{"id":"osm:node:13375997012","latitude":51.4767596,"longitude":-3.2018974,"name":"Leckwith Avenue near Leckwith Road","properties":{"access":"unknown","bicycle_pa":"stands","capacity":20,"covered":"no","fee":"no","operator":"","nameSource":"junction"},"sourceId":"osm"},{"id":"osm:node:13483990643","latitude":51.4814292,"longitude":-3.1985836,"name":"Picton Place near Cowbridge Road East","properties":{"access":"unknown","bicycle_pa":"","capacity":2,"covered":"","fee":"","operator":"","nameSource":"junction"},"sourceId":"osm"},{"id":"osm:node:13484730396","latitude":51.4819354,"longitude":-3.198923,"name":"Severn Road near Cowbridge Road East","properties":{"access":"unknown","bicycle_pa":"","capacity":10,"covered":"","fee":"","operator":"","nameSource":"junction"},"sourceId":"osm"},{"id":"osm:node:13502381937","latitude":51.482612,"longitude":-3.2016678,"name":"Gray Lane near Gray Street","properties":{"access":"unknown","bicycle_pa":"stands","capacity":8,"covered":"no","fee":"","operator":"","nameSource":"junction"},"sourceId":"osm"},{"id":"osm:node:13536661384","latitude":51.4841407,"longitude":-3.2030724,"name":"Llandaff Road near Tair Erw Gain","properties":{"access":"unknown","bicycle_pa":"","capacity":2,"covered":"","fee":"","operator":"","nameSource":"junction"},"sourceId":"osm"},{"id":"osm:node:13536661385","latitude":51.4839617,"longitude":-3.2028774,"name":"Llandaff Road near Tair Erw Gain","properties":{"access":"unknown","bicycle_pa":"","capacity":2,"covered":"","fee":"","operator":"","nameSource":"junction"},"sourceId":"osm"},{"id":"osm:node:13540759936","latitude":51.4814381,"longitude":-3.1956882,"name":"Cowbridge Road East near St Davids Court","properties":{"access":"unknown","bicycle_pa":"","capacity":2,"covered":"","fee":"","operator":"","nameSource":"junction"},"sourceId":"osm"},{"id":"osm:node:13540759937","latitude":51.4814011,"longitude":-3.1959029,"name":"Cowbridge Road East near King's Road","properties":{"access":"unknown","bicycle_pa":"","capacity":2,"covered":"","fee":"","operator":"","nameSource":"junction"},"sourceId":"osm"},{"id":"osm:node:13540759938","latitude":51.4814056,"longitude":-3.195936,"name":"Cowbridge Road East near King's Road","properties":{"access":"unknown","bicycle_pa":"","capacity":2,"covered":"","fee":"","operator":"","nameSource":"junction"},"sourceId":"osm"},{"id":"osm:node:13540759939","latitude":51.4814094,"longitude":-3.1959664,"name":"Cowbridge Road East near King's Road","properties":{"access":"unknown","bicycle_pa":"","capacity":2,"covered":"","fee":"","operator":"","nameSource":"junction"},"sourceId":"osm"},{"id":"osm:node:13540759940","latitude":51.4815085,"longitude":-3.1968002,"name":"Cowbridge Road East near Wyndham Crescent","properties":{"access":"unknown","bicycle_pa":"","capacity":2,"covered":"","fee":"","operator":"","nameSource":"junction"},"sourceId":"osm"},{"id":"osm:node:13540759941","latitude":51.4815081,"longitude":-3.1967693,"name":"Cowbridge Road East near Wyndham Crescent","properties":{"access":"unknown","bicycle_pa":"","capacity":2,"covered":"","fee":"","operator":"","nameSource":"junction"},"sourceId":"osm"},{"id":"osm:node:13540759942","latitude":51.4815071,"longitude":-3.1967378,"name":"Cowbridge Road East near Wyndham Crescent","properties":{"access":"unknown","bicycle_pa":"","capacity":2,"covered":"","fee":"","operator":"","nameSource":"junction"},"sourceId":"osm"},{"id":"osm:node:13540759943","latitude":51.4815043,"longitude":-3.196912,"name":"Cowbridge Road East near Wyndham Crescent","properties":{"access":"unknown","bicycle_pa":"","capacity":2,"covered":"","fee":"","operator":"","nameSource":"junction"},"sourceId":"osm"},{"id":"osm:node:13540759944","latitude":51.481506,"longitude":-3.1969817,"name":"Cowbridge Road East near Wyndham Crescent","properties":{"access":"unknown","bicycle_pa":"","capacity":2,"covered":"","fee":"","operator":"","nameSource":"junction"},"sourceId":"osm"},{"id":"osm:node:13546351405","latitude":51.4822702,"longitude":-3.2030186,"name":"Library Street near Market Place","properties":{"access":"unknown","bicycle_pa":"stands","capacity":4,"covered":"no","fee":"","operator":"","nameSource":"junction"},"sourceId":"osm"},{"id":"osm:node:13546351406","latitude":51.4821936,"longitude":-3.2029942,"name":"Library Street near Cowbridge Road East","properties":{"access":"unknown","bicycle_pa":"stands","capacity":2,"covered":"no","fee":"","operator":"","nameSource":"junction"},"sourceId":"osm"},{"id":"osm:node:13546351440","latitude":51.481794,"longitude":-3.2034907,"name":"Alexandra Road near Cowbridge Road East","properties":{"access":"unknown","bicycle_pa":"","capacity":6,"covered":"","fee":"","operator":"","nameSource":"junction"},"sourceId":"osm"},{"id":"osm:node:13546861890","latitude":51.4822413,"longitude":-3.2051451,"name":"Glamorgan Street near Harvey Street","properties":{"access":"unknown","bicycle_pa":"","capacity":6,"covered":"","fee":"","operator":"","nameSource":"junction"},"sourceId":"osm"},{"id":"osm:node:13546905877","latitude":51.4818892,"longitude":-3.2050621,"name":"Cowbridge Road East near Glamorgan Street","properties":{"access":"unknown","bicycle_pa":"","capacity":4,"covered":"","fee":"","operator":"","nameSource":"junction"},"sourceId":"osm"},{"id":"osm:node:13546905878","latitude":51.4819755,"longitude":-3.205225,"name":"Cowbridge Road East near Glamorgan Street","properties":{"access":"unknown","bicycle_pa":"","capacity":6,"covered":"","fee":"","operator":"","nameSource":"junction"},"sourceId":"osm"},{"id":"osm:node:13565091506","latitude":51.4828447,"longitude":-3.2037394,"name":"Market Road near Market Place","properties":{"access":"unknown","bicycle_pa":"stands","capacity":14,"covered":"yes","fee":"","operator":"","nameSource":"junction"},"sourceId":"osm"},{"id":"osm:node:13811429227","latitude":51.4790454,"longitude":-3.23936,"name":"Cowbridge Road West by Ely & Caerau Hub","properties":{"access":"unknown","bicycle_pa":"stands","capacity":4,"covered":"no","fee":"no","operator":"","nameSource":"landmark"},"sourceId":"osm"},{"id":"osm:node:1496364570","latitude":51.4631817,"longitude":-3.1643609,"name":"Bute Street by PizzaExpress","properties":{"access":"unknown","bicycle_pa":"stands","capacity":4,"covered":"no","fee":"","operator":"","nameSource":"landmark"},"sourceId":"osm"},{"id":"osm:node:1895049303","latitude":51.4613202,"longitude":-3.1675094,"name":"Havannah Street by Natuzzi","properties":{"access":"unknown","bicycle_pa":"","capacity":8,"covered":"no","fee":"","operator":"","nameSource":"landmark"},"sourceId":"osm"},{"id":"osm:node:3018539308","latitude":51.5050715,"longitude":-3.1656384,"name":"Birchwood Lane near Tŷ-Gwyn Road","properties":{"access":"unknown","bicycle_pa":"stands","capacity":0,"covered":"","fee":"","operator":"","nameSource":"junction"},"sourceId":"osm"},{"id":"osm:node:3900664614","latitude":51.4887478,"longitude":-3.2005208,"name":"Mortimer Road near Cathedral Road","properties":{"access":"unknown","bicycle_pa":"rack","capacity":4,"covered":"no","fee":"","operator":"","nameSource":"junction"},"sourceId":"osm"},{"id":"osm:node:3913073855","latitude":51.4886847,"longitude":-3.2002798,"name":"Pontcanna Street near Cathedral Road","properties":{"access":"unknown","bicycle_pa":"rack","capacity":4,"covered":"","fee":"","operator":"","nameSource":"junction"},"sourceId":"osm"},{"id":"osm:node:3913074333","latitude":51.488619,"longitude":-3.2000123,"name":"Cathedral Road near Teilo Street","properties":{"access":"unknown","bicycle_pa":"stands","capacity":6,"covered":"","fee":"","operator":"","nameSource":"junction"},"sourceId":"osm"},{"id":"osm:node:3917413906","latitude":51.4889878,"longitude":-3.2020776,"name":"William Street near Cathedral Road","properties":{"access":"unknown","bicycle_pa":"stands","capacity":4,"covered":"no","fee":"","operator":"","nameSource":"junction"},"sourceId":"osm"},{"id":"osm:node:3981891942","latitude":51.4814596,"longitude":-3.1792292,"name":"Kingsway near Queen Street","properties":{"access":"unknown","bicycle_pa":"stands","capacity":8,"covered":"no","fee":"","operator":"Cardiff County Council","nameSource":"junction"},"sourceId":"osm"},{"id":"osm:node:3981891944","latitude":51.4815808,"longitude":-3.1788485,"name":"Queen Street near St. John Street","properties":{"access":"unknown","bicycle_pa":"stands","capacity":10,"covered":"no","fee":"","operator":"Cardiff County Council","nameSource":"junction"},"sourceId":"osm"},{"id":"osm:node:3981896604","latitude":51.4830015,"longitude":-3.1782692,"name":"The Friary near Greyfriars Road","properties":{"access":"unknown","bicycle_pa":"stands","capacity":10,"covered":"no","fee":"","operator":"Cardiff County Council","nameSource":"junction"},"sourceId":"osm"},{"id":"osm:node:3981998050","latitude":51.471845,"longitude":-3.2060637,"name":"Brian Clark Way cycle parking","properties":{"access":"unknown","bicycle_pa":"stands","capacity":22,"covered":"no","fee":"","operator":"","nameSource":"street"},"sourceId":"osm"},{"id":"osm:node:3981998051","latitude":51.4719337,"longitude":-3.2051596,"name":"Brian Clark Way by Ladbrokes","properties":{"access":"unknown","bicycle_pa":"stands","capacity":22,"covered":"","fee":"","operator":"","nameSource":"landmark"},"sourceId":"osm"},{"id":"osm:node:3981998052","latitude":51.4716701,"longitude":-3.2046461,"name":"Brian Clark Way by Starbucks","properties":{"access":"yes","bicycle_pa":"stands","capacity":24,"covered":"no","fee":"no","operator":"","nameSource":"landmark"},"sourceId":"osm"},{"id":"osm:node:3981998053","latitude":51.4704744,"longitude":-3.2041418,"name":"Sports Direct cycle parking","properties":{"access":"unknown","bicycle_pa":"stands","capacity":18,"covered":"","fee":"","operator":"","nameSource":"landmark"},"sourceId":"osm"},{"id":"osm:node:3982768568","latitude":51.4579593,"longitude":-3.1862883,"name":"Ferry Road by Costa","properties":{"access":"unknown","bicycle_pa":"stands","capacity":4,"covered":"","fee":"","operator":"","nameSource":"landmark"},"sourceId":"osm"},{"id":"osm:node:3982768569","latitude":51.4575657,"longitude":-3.1860415,"name":"Ferry Road by Pets at Home","properties":{"access":"unknown","bicycle_pa":"stands","capacity":4,"covered":"","fee":"","operator":"","nameSource":"landmark"},"sourceId":"osm"},{"id":"osm:node:3982768571","latitude":51.4843141,"longitude":-3.1875972,"name":"Millennium Bridge by Summerhouse","properties":{"access":"unknown","bicycle_pa":"stands","capacity":7,"covered":"no","fee":"","operator":"","nameSource":"landmark"},"sourceId":"osm"},{"id":"osm:node:3982768572","latitude":51.4887592,"longitude":-3.1784307,"name":"Cardiff Cycleway 1 by Amazon Locker","properties":{"access":"unknown","bicycle_pa":"stands","capacity":0,"covered":"no","fee":"","operator":"","nameSource":"landmark"},"sourceId":"osm"},{"id":"osm:node:3982768573","latitude":51.4939514,"longitude":-3.165912,"name":"Cottrell Road near Strathnairn Street","properties":{"access":"unknown","bicycle_pa":"stands","capacity":6,"covered":"","fee":"","operator":"","nameSource":"junction"},"sourceId":"osm"},{"id":"osm:node:3982923383","latitude":51.4656771,"longitude":-3.1666664,"name":"Mount Stuart Square near West Bute Street","properties":{"access":"unknown","bicycle_pa":"stands","capacity":8,"covered":"no","fee":"","operator":"Cardiff County Council","nameSource":"junction"},"sourceId":"osm"},{"id":"osm:node:3989884057","latitude":51.5062904,"longitude":-3.2285929,"name":"Station Road near Ty Mawr Road","properties":{"access":"unknown","bicycle_pa":"stands","capacity":6,"covered":"no","fee":"","operator":"","nameSource":"junction"},"sourceId":"osm"},{"id":"osm:node:3989884058","latitude":51.5062203,"longitude":-3.2284403,"name":"Station Road near Ty Mawr Road","properties":{"access":"unknown","bicycle_pa":"stands","capacity":4,"covered":"no","fee":"","operator":"","nameSource":"junction"},"sourceId":"osm"},{"id":"osm:node:3989884059","latitude":51.5061153,"longitude":-3.2284535,"name":"Station Road near Ty Mawr Road","properties":{"access":"unknown","bicycle_pa":"stands","capacity":6,"covered":"no","fee":"","operator":"","nameSource":"junction"},"sourceId":"osm"},{"id":"osm:node:3989892975","latitude":51.5073944,"longitude":-3.2281729,"name":"Station Road near Evansfield Road","properties":{"access":"unknown","bicycle_pa":"stands","capacity":6,"covered":"no","fee":"","operator":"","nameSource":"junction"},"sourceId":"osm"},{"id":"osm:node:3991846145","latitude":51.4760491,"longitude":-3.1781647,"name":"Station Approach near Saunders Road","properties":{"access":"unknown","bicycle_pa":"stands","capacity":12,"covered":"no","fee":"no","operator":"","nameSource":"junction"},"sourceId":"osm"},{"id":"osm:node:3991859383","latitude":51.4852543,"longitude":-3.1655239,"name":"City Road near Parade Lane","properties":{"access":"unknown","bicycle_pa":"stands","capacity":6,"covered":"no","fee":"","operator":"Cardiff County Council","nameSource":"junction"},"sourceId":"osm"},{"id":"osm:node:3997366458","latitude":51.4886281,"longitude":-3.17958,"name":"Park Place near College Lane","properties":{"access":"unknown","bicycle_pa":"stands","capacity":20,"covered":"no","fee":"","operator":"","nameSource":"junction"},"sourceId":"osm"},{"id":"osm:node:3997408495","latitude":51.4852875,"longitude":-3.1775051,"name":"Museum Avenue near Gorsedd Gardens Road","properties":{"access":"unknown","bicycle_pa":"stands","capacity":8,"covered":"no","fee":"","operator":"","nameSource":"junction"},"sourceId":"osm"},{"id":"osm:node:3997408496","latitude":51.4807165,"longitude":-3.1786638,"name":"Church Street near Trinity Street","properties":{"access":"unknown","bicycle_pa":"stands","capacity":0,"covered":"no","fee":"","operator":"Cardiff County Council","nameSource":"junction"},"sourceId":"osm"},{"id":"osm:node:3997660515","latitude":51.4654421,"longitude":-3.1660973,"name":"Ship Lane near West Bute Street","properties":{"access":"unknown","bicycle_pa":"stands","capacity":2,"covered":"no","fee":"","operator":"","nameSource":"junction"},"sourceId":"osm"},{"id":"osm:node:3997660516","latitude":51.4640269,"longitude":-3.1647775,"name":"Bute Crescent by Eli Jenkins","properties":{"access":"unknown","bicycle_pa":"stands","capacity":4,"covered":"no","fee":"","operator":"","nameSource":"landmark"},"sourceId":"osm"},{"id":"osm:node:3997660517","latitude":51.4641824,"longitude":-3.1661937,"name":"New George Street near Bute Street","properties":{"access":"unknown","bicycle_pa":"stands","capacity":20,"covered":"no","fee":"","operator":"","nameSource":"junction"},"sourceId":"osm"},{"id":"osm:node:3997660518","latitude":51.4647383,"longitude":-3.1644205,"name":"Bute Place near Millennium Centre","properties":{"access":"unknown","bicycle_pa":"stands","capacity":6,"covered":"no","fee":"","operator":"","nameSource":"junction"},"sourceId":"osm"},{"id":"osm:node:3997660521","latitude":51.4646889,"longitude":-3.1644181,"name":"Bute Place near Millennium Centre","properties":{"access":"unknown","bicycle_pa":"stands","capacity":6,"covered":"no","fee":"","operator":"","nameSource":"junction"},"sourceId":"osm"},{"id":"osm:node:3997660522","latitude":51.4631529,"longitude":-3.1648542,"name":"Bute Street near Stuart Street","properties":{"access":"unknown","bicycle_pa":"stands","capacity":10,"covered":"no","fee":"","operator":"","nameSource":"junction"},"sourceId":"osm"},{"id":"osm:node:4009408864","latitude":51.5068085,"longitude":-3.1923225,"name":"Academic Avenue near Dental Drive","properties":{"access":"unknown","bicycle_pa":"stands","capacity":0,"covered":"","fee":"","operator":"","nameSource":"junction"},"sourceId":"osm"},{"id":"osm:node:4009408866","latitude":51.5071736,"longitude":-3.1920675,"name":"Dental Drive near Academic Avenue","properties":{"access":"unknown","bicycle_pa":"stands","capacity":42,"covered":"","fee":"","operator":"","nameSource":"junction"},"sourceId":"osm"},{"id":"osm:node:4009408867","latitude":51.5066849,"longitude":-3.1885152,"name":"Dame Shirley Bassey Way by University Hospital of Wales Taxi Rank","properties":{"access":"unknown","bicycle_pa":"stands","capacity":0,"covered":"","fee":"","operator":"","nameSource":"landmark"},"sourceId":"osm"},{"id":"osm:node:4010730052","latitude":51.4926381,"longitude":-3.1815035,"name":"Minister Street near Cardiff Cycleway 1","properties":{"access":"unknown","bicycle_pa":"stands","capacity":4,"covered":"no","fee":"","operator":"Cardiff Council","nameSource":"junction"},"sourceId":"osm"},{"id":"osm:node:4011371116","latitude":51.4830629,"longitude":-3.1728959,"name":"Windsor Place near Queen Street","properties":{"access":"unknown","bicycle_pa":"stands","capacity":18,"covered":"no","fee":"","operator":"Cardiff County Council","nameSource":"junction"},"sourceId":"osm"},{"id":"osm:node:4041564431","latitude":51.4879875,"longitude":-3.2001357,"name":"Iestyn Street near Pontcanna Street","properties":{"access":"unknown","bicycle_pa":"stands","capacity":2,"covered":"no","fee":"","operator":"","nameSource":"junction"},"sourceId":"osm"},{"id":"osm:node:4041564432","latitude":51.4879045,"longitude":-3.2001237,"name":"Iestyn Street near Pontcanna Street","properties":{"access":"unknown","bicycle_pa":"stands","capacity":2,"covered":"no","fee":"","operator":"","nameSource":"junction"},"sourceId":"osm"},{"id":"osm:node:4052506059","latitude":51.469883,"longitude":-3.1859869,"name":"Corporation Road near Clare Road","properties":{"access":"unknown","bicycle_pa":"stands","capacity":4,"covered":"no","fee":"","operator":"","nameSource":"junction"},"sourceId":"osm"},{"id":"osm:node:4052506061","latitude":51.4698266,"longitude":-3.18607,"name":"Paget Street near Clare Road","properties":{"access":"unknown","bicycle_pa":"stands","capacity":4,"covered":"no","fee":"","operator":"","nameSource":"junction"},"sourceId":"osm"},{"id":"osm:node:4052506062","latitude":51.4708034,"longitude":-3.18654,"name":"Durham Street near Clare Road","properties":{"access":"unknown","bicycle_pa":"stands","capacity":4,"covered":"no","fee":"","operator":"","nameSource":"junction"},"sourceId":"osm"},{"id":"osm:node:4052506063","latitude":51.4702115,"longitude":-3.1863765,"name":"Clare Road near Corporation Road","properties":{"access":"unknown","bicycle_pa":"stands","capacity":4,"covered":"no","fee":"","operator":"","nameSource":"junction"},"sourceId":"osm"},{"id":"osm:node:4087263035","latitude":51.4808886,"longitude":-3.1951434,"name":"Cowbridge Road East near St Davids Court","properties":{"access":"unknown","bicycle_pa":"","capacity":4,"covered":"","fee":"","operator":"","nameSource":"junction"},"sourceId":"osm"},{"id":"osm:node:4105327743","latitude":51.4751295,"longitude":-3.1785,"name":"East Subway cycle parking","properties":{"access":"unknown","bicycle_pa":"stands","capacity":8,"covered":"","fee":"","operator":"","nameSource":"street"},"sourceId":"osm"},{"id":"osm:node:4138776448","latitude":51.4789432,"longitude":-3.1855283,"name":"Despenser Street near Fitzhamon Embankment","properties":{"access":"unknown","bicycle_pa":"stands","capacity":4,"covered":"no","fee":"","operator":"","nameSource":"junction"},"sourceId":"osm"},{"id":"osm:node:4169073794","latitude":51.5030382,"longitude":-3.1972776,"name":"North Road near Laytonia Avenue","properties":{"access":"unknown","bicycle_pa":"stands","capacity":4,"covered":"no","fee":"","operator":"","nameSource":"junction"},"sourceId":"osm"},{"id":"osm:node:4185468416","latitude":51.5042639,"longitude":-3.2281225,"name":"Station Road near Maplewood Avenue","properties":{"access":"unknown","bicycle_pa":"stands","capacity":4,"covered":"no","fee":"","operator":"","nameSource":"junction"},"sourceId":"osm"},{"id":"osm:node:4185733386","latitude":51.4891213,"longitude":-3.1821522,"name":"Museum Avenue cycle parking","properties":{"access":"unknown","bicycle_pa":"stands","capacity":16,"covered":"no","fee":"","operator":"","nameSource":"street"},"sourceId":"osm"},{"id":"osm:node:4210859249","latitude":51.4945963,"longitude":-3.1766403,"name":"Crwys Road near Woodville Road","properties":{"access":"unknown","bicycle_pa":"stands","capacity":10,"covered":"no","fee":"","operator":"","nameSource":"junction"},"sourceId":"osm"},{"id":"osm:node:4210967275","latitude":51.4954265,"longitude":-3.1781898,"name":"Crwys Road near Gower Street","properties":{"access":"unknown","bicycle_pa":"stands","capacity":8,"covered":"","fee":"","operator":"","nameSource":"junction"},"sourceId":"osm"},{"id":"osm:node:4211094005","latitude":51.4930214,"longitude":-3.1777274,"name":"Basil Place near Minny Street","properties":{"access":"unknown","bicycle_pa":"stands","capacity":6,"covered":"no","fee":"","operator":"","nameSource":"junction"},"sourceId":"osm"},{"id":"osm:node:4211094006","latitude":51.4927969,"longitude":-3.1779536,"name":"Flora Street near Woodville Road","properties":{"access":"unknown","bicycle_pa":"stands","capacity":6,"covered":"no","fee":"","operator":"","nameSource":"junction"},"sourceId":"osm"},{"id":"osm:node:4223752902","latitude":51.4972179,"longitude":-3.1819926,"name":"Fairoak Road near Cathays Terrace","properties":{"access":"permissive","bicycle_pa":"stands","capacity":0,"covered":"no","fee":"","operator":"","nameSource":"junction"},"sourceId":"osm"},{"id":"osm:node:4223782197","latitude":51.4798681,"longitude":-3.1759527,"name":"Hills Street near Town Wall South","properties":{"access":"permissive","bicycle_pa":"stands","capacity":38,"covered":"no","fee":"","operator":"","nameSource":"junction"},"sourceId":"osm"},{"id":"osm:node:4223782199","latitude":51.4785892,"longitude":-3.1757601,"name":"The Hayes","properties":{"access":"unknown","bicycle_pa":"stands","capacity":6,"covered":"no","fee":"","operator":"","nameSource":"source"},"sourceId":"osm"},{"id":"osm:node:4223782200","latitude":51.4860227,"longitude":-3.1747612,"name":"Pen and Wig","properties":{"access":"unknown","bicycle_pa":"informal","capacity":0,"covered":"","fee":"","operator":"","nameSource":"source"},"sourceId":"osm"},{"id":"osm:node:4223784815","latitude":51.4887909,"longitude":-3.1777788,"name":"Cardiff University Student's Union","properties":{"access":"unknown","bicycle_pa":"stands","capacity":8,"covered":"no","fee":"","operator":"","nameSource":"source"},"sourceId":"osm"},{"id":"osm:node:4241513584","latitude":51.4858797,"longitude":-3.1908809,"name":"Cardiff Cycleway 4 near Sophia Gardens Access Road","properties":{"access":"unknown","bicycle_pa":"stands","capacity":14,"covered":"no","fee":"","operator":"","nameSource":"junction"},"sourceId":"osm"},{"id":"osm:node:4241513585","latitude":51.4857574,"longitude":-3.1906947,"name":"Cardiff Cycleway 4 near Sophia Gardens Access Road","properties":{"access":"unknown","bicycle_pa":"stands","capacity":14,"covered":"","fee":"","operator":"","nameSource":"junction"},"sourceId":"osm"},{"id":"osm:node:4244651172","latitude":51.5066135,"longitude":-3.1739181,"name":"The Promenade cycle parking","properties":{"access":"unknown","bicycle_pa":"stands","capacity":6,"covered":"no","fee":"","operator":"Cardiff Council","nameSource":"street"},"sourceId":"osm"},{"id":"osm:node:4244651173","latitude":51.5065268,"longitude":-3.1763704,"name":"The Promenade by Roath Park Ice Cream Kiosk","properties":{"access":"unknown","bicycle_pa":"stands","capacity":6,"covered":"no","fee":"","operator":"Cardiff Council","nameSource":"landmark"},"sourceId":"osm"},{"id":"osm:node:4246243905","latitude":51.4952683,"longitude":-3.1820944,"name":"Cathays Terrace","properties":{"access":"unknown","bicycle_pa":"stands","capacity":4,"covered":"no","fee":"","operator":"","nameSource":"source"},"sourceId":"osm"},{"id":"osm:node:4246247300","latitude":51.4968391,"longitude":-3.1822577,"name":"Cardiff Cycleway 1 by St. Monica's Church in Wales Primary School","properties":{"access":"unknown","bicycle_pa":"stands","capacity":6,"covered":"no","fee":"","operator":"","nameSource":"landmark"},"sourceId":"osm"},{"id":"osm:node:4246256471","latitude":51.4941628,"longitude":-3.1816375,"name":"The Flora","properties":{"access":"unknown","bicycle_pa":"stands","capacity":6,"covered":"no","fee":"","operator":"","nameSource":"source"},"sourceId":"osm"},{"id":"osm:node:4246256472","latitude":51.4948972,"longitude":-3.1818366,"name":"Cathays Liberal Club","properties":{"access":"unknown","bicycle_pa":"stands","capacity":4,"covered":"","fee":"","operator":"","nameSource":"source"},"sourceId":"osm"},{"id":"osm:node:4246284883","latitude":51.4917272,"longitude":-3.1808804,"name":"Cathays Youth and Community Centre","properties":{"access":"unknown","bicycle_pa":"stands","capacity":6,"covered":"","fee":"","operator":"","nameSource":"source"},"sourceId":"osm"},{"id":"osm:node:4246284884","latitude":51.4904557,"longitude":-3.1805981,"name":"Woodville Road near Senghennydd Road","properties":{"access":"unknown","bicycle_pa":"stands","capacity":6,"covered":"no","fee":"","operator":"","nameSource":"junction"},"sourceId":"osm"},{"id":"osm:node:4248414327","latitude":51.465087,"longitude":-3.1682547,"name":"Mount Stuart Square near James Street","properties":{"access":"unknown","bicycle_pa":"","capacity":0,"covered":"","fee":"","operator":"","nameSource":"junction"},"sourceId":"osm"},{"id":"osm:node:4253328315","latitude":51.4989981,"longitude":-3.249176,"name":"Ashcroft Crescent by Fairwater Leisure Centre","properties":{"access":"unknown","bicycle_pa":"stands","capacity":0,"covered":"yes;no","fee":"","operator":"Fairwater Leisure Centre","nameSource":"landmark"},"sourceId":"osm"},{"id":"osm:node:4254545170","latitude":51.4861779,"longitude":-3.1815593,"name":"King Edward VII Avenue cycle parking","properties":{"access":"unknown","bicycle_pa":"stands","capacity":12,"covered":"no","fee":"","operator":"","nameSource":"street"},"sourceId":"osm"},{"id":"osm:node:4254545171","latitude":51.4854034,"longitude":-3.1805193,"name":"Cardiff Central Police Station","properties":{"access":"unknown","bicycle_pa":"stands","capacity":10,"covered":"no","fee":"","operator":"","nameSource":"source"},"sourceId":"osm"},{"id":"osm:node:4254570792","latitude":51.4812774,"longitude":-3.1801932,"name":"Duke Street","properties":{"access":"unknown","bicycle_pa":"stands","capacity":10,"covered":"no","fee":"","operator":"","nameSource":"source"},"sourceId":"osm"},{"id":"osm:node:4254570793","latitude":51.4811768,"longitude":-3.1807822,"name":"Castle Street","properties":{"access":"unknown","bicycle_pa":"stands","capacity":8,"covered":"no","fee":"","operator":"","nameSource":"source"},"sourceId":"osm"},{"id":"osm:node:4254606517","latitude":51.4799312,"longitude":-3.1770672,"name":"The Old Library","properties":{"access":"unknown","bicycle_pa":"stands","capacity":10,"covered":"no","fee":"","operator":"","nameSource":"source"},"sourceId":"osm"},{"id":"osm:node:4254612092","latitude":51.4778889,"longitude":-3.1777956,"name":"High Street","properties":{"access":"unknown","bicycle_pa":"stands","capacity":0,"covered":"no","fee":"","operator":"","nameSource":"source"},"sourceId":"osm"},{"id":"osm:node:4254612093","latitude":51.4767435,"longitude":-3.1769117,"name":"Travelodge","properties":{"access":"unknown","bicycle_pa":"stands","capacity":6,"covered":"no","fee":"","operator":"","nameSource":"source"},"sourceId":"osm"},{"id":"osm:node:4254612094","latitude":51.477647,"longitude":-3.1776605,"name":"Prince of Wales","properties":{"access":"unknown","bicycle_pa":"stands","capacity":6,"covered":"no","fee":"","operator":"","nameSource":"source"},"sourceId":"osm"},{"id":"osm:node:4255840074","latitude":51.4831946,"longitude":-3.1779354,"name":"Greyfriars Road near The Friary","properties":{"access":"unknown","bicycle_pa":"stands","capacity":4,"covered":"no","fee":"","operator":"","nameSource":"junction"},"sourceId":"osm"},{"id":"osm:node:4255851079","latitude":51.481319,"longitude":-3.1810508,"name":"Cardiff Castle","properties":{"access":"unknown","bicycle_pa":"stands","capacity":8,"covered":"no","fee":"","operator":"","nameSource":"source"},"sourceId":"osm"},{"id":"osm:node:4258248694","latitude":51.479121,"longitude":-3.1729405,"name":"Mary Ann Street","properties":{"access":"unknown","bicycle_pa":"stands","capacity":14,"covered":"no","fee":"no","operator":"","nameSource":"source"},"sourceId":"osm"},{"id":"osm:node:4278708555","latitude":51.4717643,"longitude":-3.2077398,"name":"Leckwith Road by Asda","properties":{"access":"unknown","bicycle_pa":"stands","capacity":60,"covered":"yes","fee":"","operator":"Asda","nameSource":"landmark"},"sourceId":"osm"},{"id":"osm:node:4284468660","latitude":51.4937807,"longitude":-3.2192164,"name":"High Street near Chapel Street","properties":{"access":"unknown","bicycle_pa":"stands","capacity":6,"covered":"no","fee":"","operator":"","nameSource":"junction"},"sourceId":"osm"},{"id":"osm:node:4329064874","latitude":51.481756,"longitude":-3.1706219,"name":"Cardiff Queen Street","properties":{"access":"unknown","bicycle_pa":"stands","capacity":16,"covered":"no","fee":"no","operator":"","nameSource":"source"},"sourceId":"osm"},{"id":"osm:node:4329203976","latitude":51.4796827,"longitude":-3.1730973,"name":"Mary Ann Street near Eastside Arcade","properties":{"access":"unknown","bicycle_pa":"stands","capacity":8,"covered":"no","fee":"","operator":"","nameSource":"junction"},"sourceId":"osm"},{"id":"osm:node:4329315520","latitude":51.4813165,"longitude":-3.1846591,"name":"Pettigrew Tea Rooms","properties":{"access":"unknown","bicycle_pa":"stands","capacity":12,"covered":"no","fee":"","operator":"","nameSource":"source"},"sourceId":"osm"},{"id":"osm:node:4798689003","latitude":51.4654214,"longitude":-3.1646819,"name":"A4119 near The Flourish","properties":{"access":"unknown","bicycle_pa":"","capacity":4,"covered":"","fee":"","operator":"","nameSource":"junction"},"sourceId":"osm"},{"id":"osm:node:4798689006","latitude":51.4661037,"longitude":-3.1650308,"name":"The Flourish near Lloyd George Avenue","properties":{"access":"unknown","bicycle_pa":"wall_loops","capacity":16,"covered":"no","fee":"","operator":"","nameSource":"junction"},"sourceId":"osm"},{"id":"osm:node:4943670023","latitude":51.483044,"longitude":-3.2195225,"name":"Cowbridge Road East near Lansdowne Road","properties":{"access":"unknown","bicycle_pa":"stands","capacity":8,"covered":"","fee":"","operator":"","nameSource":"junction"},"sourceId":"osm"},{"id":"osm:node:4943677401","latitude":51.4819978,"longitude":-3.2029181,"name":"Library Street near Cowbridge Road East","properties":{"access":"unknown","bicycle_pa":"stands","capacity":4,"covered":"no","fee":"","operator":"","nameSource":"junction"},"sourceId":"osm"},{"id":"osm:node:4943684744","latitude":51.4827065,"longitude":-3.2141514,"name":"Cowbridge Road East near Turner Road","properties":{"access":"unknown","bicycle_pa":"stands","capacity":1,"covered":"","fee":"","operator":"","nameSource":"junction"},"sourceId":"osm"},{"id":"osm:node:5225042878","latitude":51.4844503,"longitude":-3.1699577,"name":"The Parade near West Grove","properties":{"access":"customers","bicycle_pa":"stands","capacity":44,"covered":"no","fee":"","operator":"","nameSource":"junction"},"sourceId":"osm"},{"id":"osm:node:5225042879","latitude":51.4842226,"longitude":-3.1697861,"name":"The Parade cycle parking","properties":{"access":"customers","bicycle_pa":"stands","capacity":0,"covered":"no","fee":"","operator":"","nameSource":"street"},"sourceId":"osm"},{"id":"osm:node:5225042880","latitude":51.4840701,"longitude":-3.1702473,"name":"The Parade by Trevithick Building","properties":{"access":"customers","bicycle_pa":"stands","capacity":0,"covered":"no","fee":"","operator":"","nameSource":"landmark"},"sourceId":"osm"},{"id":"osm:node:5225042881","latitude":51.4853738,"longitude":-3.1674608,"name":"East Grove near The Parade","properties":{"access":"yes","bicycle_pa":"stands","capacity":4,"covered":"no","fee":"","operator":"","nameSource":"junction"},"sourceId":"osm"},{"id":"osm:node:5350798695","latitude":51.495447,"longitude":-3.1953077,"name":"Blackweir Bridge cycle parking","properties":{"access":"unknown","bicycle_pa":"stands","capacity":10,"covered":"no","fee":"","operator":"","nameSource":"street"},"sourceId":"osm"},{"id":"osm:node:5466538244","latitude":51.4882303,"longitude":-3.1798719,"name":"College Lane near Park Place","properties":{"access":"yes","bicycle_pa":"stands","capacity":20,"covered":"no","fee":"","operator":"","nameSource":"junction"},"sourceId":"osm"},{"id":"osm:node:6453035632","latitude":51.4596547,"longitude":-3.1726329,"name":"Windsor Esplanade cycle parking","properties":{"access":"unknown","bicycle_pa":"","capacity":12,"covered":"no","fee":"no","operator":"","nameSource":"street"},"sourceId":"osm"},{"id":"osm:node:6543153967","latitude":51.4815573,"longitude":-3.1723148,"name":"North Edward Street near Churchill Way","properties":{"access":"unknown","bicycle_pa":"stands","capacity":10,"covered":"no","fee":"","operator":"","nameSource":"junction"},"sourceId":"osm"},{"id":"osm:node:6835268295","latitude":51.4946474,"longitude":-3.1917906,"name":"North Road Cycleway cycle parking","properties":{"access":"unknown","bicycle_pa":"","capacity":0,"covered":"","fee":"","operator":"","nameSource":"street"},"sourceId":"osm"},{"id":"osm:node:6835268296","latitude":51.4948484,"longitude":-3.192017,"name":"North Road Cycleway cycle parking","properties":{"access":"unknown","bicycle_pa":"","capacity":0,"covered":"","fee":"","operator":"","nameSource":"street"},"sourceId":"osm"},{"id":"osm:node:6901174746","latitude":51.4943244,"longitude":-3.1914227,"name":"North Road Cycleway cycle parking","properties":{"access":"unknown","bicycle_pa":"","capacity":0,"covered":"","fee":"","operator":"","nameSource":"street"},"sourceId":"osm"},{"id":"osm:node:7013074272","latitude":51.4988813,"longitude":-3.1741519,"name":"Mackintosh Place near Pen-Y-Wain Road","properties":{"access":"unknown","bicycle_pa":"","capacity":4,"covered":"","fee":"","operator":"","nameSource":"junction"},"sourceId":"osm"},{"id":"osm:node:7013074277","latitude":51.4991997,"longitude":-3.1752922,"name":"Monthermer Road near Pen-Y-Wain Road","properties":{"access":"unknown","bicycle_pa":"","capacity":4,"covered":"","fee":"","operator":"","nameSource":"junction"},"sourceId":"osm"},{"id":"osm:node:7013311389","latitude":51.4966696,"longitude":-3.1650119,"name":"Bangor Street near Ninian Road","properties":{"access":"unknown","bicycle_pa":"stands","capacity":30,"covered":"no","fee":"","operator":"","nameSource":"junction"},"sourceId":"osm"},{"id":"osm:node:7061729398","latitude":51.4902862,"longitude":-3.1806533,"name":"Cardiff Cycleway 1 by The Woodville","properties":{"access":"unknown","bicycle_pa":"stands","capacity":10,"covered":"no","fee":"","operator":"","nameSource":"landmark"},"sourceId":"osm"},{"id":"osm:node:7273444238","latitude":51.4959636,"longitude":-3.2134685,"name":"Learning Centre cycle parking","properties":{"access":"permissive","bicycle_pa":"stands","capacity":36,"covered":"no","fee":"","operator":"","nameSource":"landmark"},"sourceId":"osm"},{"id":"osm:node:7287003421","latitude":51.4993323,"longitude":-3.1752771,"name":"Shirley Road near Monthermer Road","properties":{"access":"unknown","bicycle_pa":"","capacity":4,"covered":"","fee":"","operator":"","nameSource":"junction"},"sourceId":"osm"},{"id":"osm:node:7287105093","latitude":51.4957898,"longitude":-3.17903,"name":"Crwys Road near Gower Street","properties":{"access":"unknown","bicycle_pa":"","capacity":0,"covered":"","fee":"","operator":"","nameSource":"junction"},"sourceId":"osm"},{"id":"osm:node:7287105094","latitude":51.4962271,"longitude":-3.1800349,"name":"Crwys Road near Tewkesbury Street","properties":{"access":"unknown","bicycle_pa":"stands","capacity":4,"covered":"no","fee":"","operator":"","nameSource":"junction"},"sourceId":"osm"},{"id":"osm:node:7287105095","latitude":51.4964225,"longitude":-3.1804837,"name":"Tewkesbury Street near Crwys Road","properties":{"access":"unknown","bicycle_pa":"stands","capacity":0,"covered":"no","fee":"","operator":"","nameSource":"junction"},"sourceId":"osm"},{"id":"osm:node:7287105096","latitude":51.4964905,"longitude":-3.1806381,"name":"Tewkesbury Street near Crwys Road","properties":{"access":"unknown","bicycle_pa":"stands","capacity":0,"covered":"no","fee":"","operator":"","nameSource":"junction"},"sourceId":"osm"},{"id":"osm:node:7287105098","latitude":51.4946884,"longitude":-3.1769043,"name":"Crwys Mews near Crwys Road","properties":{"access":"unknown","bicycle_pa":"","capacity":10,"covered":"","fee":"","operator":"","nameSource":"junction"},"sourceId":"osm"},{"id":"osm:node:7287105099","latitude":51.4941373,"longitude":-3.1767714,"name":"Rhymney Terrace near Woodville Road","properties":{"access":"unknown","bicycle_pa":"","capacity":4,"covered":"","fee":"","operator":"","nameSource":"junction"},"sourceId":"osm"},{"id":"osm:node:7287105100","latitude":51.4939901,"longitude":-3.1767558,"name":"May Street near Woodville Road","properties":{"access":"unknown","bicycle_pa":"","capacity":2,"covered":"","fee":"","operator":"","nameSource":"junction"},"sourceId":"osm"},{"id":"osm:node:7287149480","latitude":51.4971961,"longitude":-3.1821193,"name":"Whitchurch Road near Cathays Terrace","properties":{"access":"permissive","bicycle_pa":"stands","capacity":0,"covered":"no","fee":"","operator":"","nameSource":"junction"},"sourceId":"osm"},{"id":"osm:node:7508368418","latitude":51.4542947,"longitude":-3.1846956,"name":"Ferry Road by Cedar Tree Farm","properties":{"access":"unknown","bicycle_pa":"","capacity":0,"covered":"","fee":"","operator":"","nameSource":"landmark"},"sourceId":"osm"},{"id":"osm:node:7508476204","latitude":51.4541505,"longitude":-3.1877792,"name":"Dunleavy Drive by Starbucks","properties":{"access":"unknown","bicycle_pa":"stands","capacity":10,"covered":"no","fee":"","operator":"","nameSource":"landmark"},"sourceId":"osm"},{"id":"osm:node:7515687948","latitude":51.4623221,"longitude":-3.1879816,"name":"Ffordd Yr Haearn cycle parking","properties":{"access":"unknown","bicycle_pa":"","capacity":0,"covered":"","fee":"","operator":"","nameSource":"street"},"sourceId":"osm"},{"id":"osm:node:7516109752","latitude":51.4601975,"longitude":-3.1874783,"name":"Ferry Road by TUI","properties":{"access":"unknown","bicycle_pa":"","capacity":0,"covered":"","fee":"","operator":"","nameSource":"landmark"},"sourceId":"osm"},{"id":"osm:node:7566994475","latitude":51.4862665,"longitude":-3.1823277,"name":"King Edward VII Avenue cycle parking","properties":{"access":"unknown","bicycle_pa":"stands","capacity":0,"covered":"no","fee":"","operator":"","nameSource":"street"},"sourceId":"osm"},{"id":"osm:node:7567681907","latitude":51.4869403,"longitude":-3.1846989,"name":"North Road Cycleway by North Road","properties":{"access":"unknown","bicycle_pa":"stands","capacity":10,"covered":"no","fee":"","operator":"","nameSource":"landmark"},"sourceId":"osm"},{"id":"osm:node:7636260839","latitude":51.4880759,"longitude":-3.1789033,"name":"Park Place near College Lane","properties":{"access":"unknown","bicycle_pa":"stands","capacity":0,"covered":"yes","fee":"","operator":"","nameSource":"junction"},"sourceId":"osm"},{"id":"osm:node:7636260840","latitude":51.4880858,"longitude":-3.1792104,"name":"College Lane near Park Place","properties":{"access":"unknown","bicycle_pa":"stands","capacity":0,"covered":"yes","fee":"","operator":"","nameSource":"junction"},"sourceId":"osm"},{"id":"osm:node:7636260841","latitude":51.4880443,"longitude":-3.1793086,"name":"College Lane near Park Place","properties":{"access":"unknown","bicycle_pa":"stands","capacity":0,"covered":"yes","fee":"","operator":"","nameSource":"junction"},"sourceId":"osm"},{"id":"osm:node:7872693759","latitude":51.4814107,"longitude":-3.1988264,"name":"Cowbridge Road East near Severn Road","properties":{"access":"unknown","bicycle_pa":"stands","capacity":6,"covered":"no","fee":"","operator":"","nameSource":"junction"},"sourceId":"osm"},{"id":"osm:node:7964450196","latitude":51.4964392,"longitude":-3.2134643,"name":"The Quad cycle parking","properties":{"access":"unknown","bicycle_pa":"","capacity":12,"covered":"","fee":"","operator":"","nameSource":"landmark"},"sourceId":"osm"},{"id":"osm:node:8600175270","latitude":51.4812756,"longitude":-3.1720237,"name":"Churchill Way near North Edward Street","properties":{"access":"unknown","bicycle_pa":"","capacity":0,"covered":"","fee":"","operator":"","nameSource":"junction"},"sourceId":"osm"},{"id":"osm:node:8927360297","latitude":51.4892813,"longitude":-3.2028849,"name":"Fields Park Road near Penhill Road","properties":{"access":"unknown","bicycle_pa":"stands","capacity":8,"covered":"no","fee":"","operator":"","nameSource":"junction"},"sourceId":"osm"},{"id":"osm:node:8929018948","latitude":51.4818211,"longitude":-3.2041959,"name":"Cowbridge Road East near Alexandra Road","properties":{"access":"unknown","bicycle_pa":"stands","capacity":2,"covered":"no","fee":"","operator":"","nameSource":"junction"},"sourceId":"osm"},{"id":"osm:node:8929658010","latitude":51.5085732,"longitude":-3.1909807,"name":"Heath Park Way near Academic Avenue","properties":{"access":"unknown","bicycle_pa":"","capacity":14,"covered":"","fee":"","operator":"","nameSource":"junction"},"sourceId":"osm"},{"id":"osm:node:8930315512","latitude":51.4814263,"longitude":-3.2005645,"name":"Cowbridge Road East near Delta Street","properties":{"access":"unknown","bicycle_pa":"stands","capacity":6,"covered":"no","fee":"","operator":"","nameSource":"junction"},"sourceId":"osm"},{"id":"osm:node:8964633817","latitude":51.4870579,"longitude":-3.166774,"name":"Saint Peter's Street near City Road","properties":{"access":"unknown","bicycle_pa":"stands","capacity":4,"covered":"no","fee":"","operator":"","nameSource":"junction"},"sourceId":"osm"},{"id":"osm:node:8978205521","latitude":51.484606,"longitude":-3.1663647,"name":"Newport Road near East Grove","properties":{"access":"unknown","bicycle_pa":"stands","capacity":6,"covered":"no","fee":"","operator":"","nameSource":"junction"},"sourceId":"osm"},{"id":"osm:node:8978472393","latitude":51.4904213,"longitude":-3.170217,"name":"City Road near Kincraig Street","properties":{"access":"unknown","bicycle_pa":"stands","capacity":6,"covered":"no","fee":"","operator":"","nameSource":"junction"},"sourceId":"osm"},{"id":"osm:node:8978472394","latitude":51.4909752,"longitude":-3.1704476,"name":"Keppoch Street near City Road","properties":{"access":"unknown","bicycle_pa":"stands","capacity":4,"covered":"no","fee":"","operator":"","nameSource":"junction"},"sourceId":"osm"},{"id":"osm:node:8978472395","latitude":51.4919434,"longitude":-3.1711755,"name":"Strathnairn Street near City Road","properties":{"access":"unknown","bicycle_pa":"stands","capacity":4,"covered":"no","fee":"","operator":"","nameSource":"junction"},"sourceId":"osm"},{"id":"osm:node:8978472396","latitude":51.4921103,"longitude":-3.1714668,"name":"City Road near Strathnairn Street","properties":{"access":"unknown","bicycle_pa":"stands","capacity":4,"covered":"no","fee":"","operator":"","nameSource":"junction"},"sourceId":"osm"},{"id":"osm:node:8978472397","latitude":51.491562,"longitude":-3.1708074,"name":"Glenroy Street near City Road","properties":{"access":"unknown","bicycle_pa":"stands","capacity":4,"covered":"no","fee":"","operator":"","nameSource":"junction"},"sourceId":"osm"},{"id":"osm:node:8978472398","latitude":51.4943603,"longitude":-3.1661623,"name":"Bangor Street near Wellfield Road","properties":{"access":"unknown","bicycle_pa":"","capacity":6,"covered":"","fee":"","operator":"","nameSource":"junction"},"sourceId":"osm"},{"id":"osm:node:8978472399","latitude":51.4959217,"longitude":-3.1649076,"name":"Pen-y-lan Road near Wellfield Road","properties":{"access":"unknown","bicycle_pa":"","capacity":4,"covered":"","fee":"","operator":"","nameSource":"junction"},"sourceId":"osm"},{"id":"osm:node:8989153332","latitude":51.4831427,"longitude":-3.2193886,"name":"Victoria Park Road West by Pig & Swill","properties":{"access":"unknown","bicycle_pa":"","capacity":4,"covered":"","fee":"","operator":"","nameSource":"landmark"},"sourceId":"osm"},{"id":"osm:node:8997147725","latitude":51.486006,"longitude":-3.2006494,"name":"Pontcanna Mews by Co-op Food","properties":{"access":"unknown","bicycle_pa":"","capacity":5,"covered":"no","fee":"","operator":"","nameSource":"landmark"},"sourceId":"osm"},{"id":"osm:node:8997178636","latitude":51.4845567,"longitude":-3.2003547,"name":"Wyndham Crescent near Romilly Crescent","properties":{"access":"unknown","bicycle_pa":"stands","capacity":4,"covered":"no","fee":"","operator":"","nameSource":"junction"},"sourceId":"osm"},{"id":"osm:node:9004556679","latitude":51.4843826,"longitude":-3.1660802,"name":"Newport Road near East Grove","properties":{"access":"yes","bicycle_pa":"stands","capacity":26,"covered":"no","fee":"","operator":"Cardiff University","nameSource":"junction"},"sourceId":"osm"},{"id":"osm:node:9005500625","latitude":51.4816952,"longitude":-3.1896864,"name":"Cycleway 5 near Cathedral Road","properties":{"access":"unknown","bicycle_pa":"stands","capacity":6,"covered":"no","fee":"","operator":"","nameSource":"junction"},"sourceId":"osm"},{"id":"osm:node:9005858125","latitude":51.4813243,"longitude":-3.2000327,"name":"Albert Street near Cowbridge Road East","properties":{"access":"unknown","bicycle_pa":"stands","capacity":6,"covered":"no","fee":"","operator":"","nameSource":"junction"},"sourceId":"osm"},{"id":"osm:node:9005858126","latitude":51.4813118,"longitude":-3.2007003,"name":"Delta Street near Cowbridge Road East","properties":{"access":"unknown","bicycle_pa":"stands","capacity":6,"covered":"no","fee":"","operator":"","nameSource":"junction"},"sourceId":"osm"},{"id":"osm:node:9006606582","latitude":51.4814793,"longitude":-3.1978874,"name":"Cowbridge Road East near Picton Place","properties":{"access":"unknown","bicycle_pa":"stands","capacity":4,"covered":"no","fee":"","operator":"","nameSource":"junction"},"sourceId":"osm"},{"id":"osm:node:9007352934","latitude":51.4762414,"longitude":-3.1830824,"name":"Fitzhamon Embankment near Tudor Street","properties":{"access":"unknown","bicycle_pa":"stands","capacity":6,"covered":"no","fee":"","operator":"","nameSource":"junction"},"sourceId":"osm"},{"id":"osm:node:9007352954","latitude":51.4788324,"longitude":-3.185421,"name":"Fitzhamon Embankment near Despenser Street","properties":{"access":"unknown","bicycle_pa":"stands","capacity":4,"covered":"no","fee":"","operator":"","nameSource":"junction"},"sourceId":"osm"},{"id":"osm:node:9007391969","latitude":51.4666125,"longitude":-3.178219,"name":"Abercynon Street near Corporation Road","properties":{"access":"unknown","bicycle_pa":"","capacity":6,"covered":"","fee":"","operator":"","nameSource":"junction"},"sourceId":"osm"},{"id":"osm:node:9007391970","latitude":51.4670446,"longitude":-3.1793493,"name":"Ystrad Street near Cambridge Street","properties":{"access":"unknown","bicycle_pa":"","capacity":6,"covered":"","fee":"","operator":"","nameSource":"junction"},"sourceId":"osm"},{"id":"osm:node:9007391972","latitude":51.467917,"longitude":-3.1815071,"name":"Bargoed Street near Corporation Road","properties":{"access":"unknown","bicycle_pa":"stands","capacity":6,"covered":"no","fee":"no","operator":"Cardiff Council","nameSource":"junction"},"sourceId":"osm"},{"id":"osm:node:9007391973","latitude":51.4682805,"longitude":-3.1823785,"name":"Clydach Street near Corporation Road","properties":{"access":"unknown","bicycle_pa":"stands","capacity":6,"covered":"no","fee":"","operator":"","nameSource":"junction"},"sourceId":"osm"},{"id":"osm:node:9007391974","latitude":51.4689549,"longitude":-3.1836498,"name":"Cymmer Street near Corporation Road","properties":{"access":"unknown","bicycle_pa":"","capacity":6,"covered":"","fee":"","operator":"","nameSource":"junction"},"sourceId":"osm"},{"id":"osm:node:9007391975","latitude":51.4693118,"longitude":-3.1843257,"name":"Coedcae Street near Corporation Road","properties":{"access":"unknown","bicycle_pa":"","capacity":6,"covered":"","fee":"","operator":"","nameSource":"junction"},"sourceId":"osm"},{"id":"osm:node:9007391976","latitude":51.4697234,"longitude":-3.1852154,"name":"Corporation Road near Ferndale Street","properties":{"access":"unknown","bicycle_pa":"","capacity":6,"covered":"","fee":"","operator":"","nameSource":"junction"},"sourceId":"osm"},{"id":"osm:node:9007393039","latitude":51.4764997,"longitude":-3.1853513,"name":"Plantagenet Street near Tudor Street","properties":{"access":"unknown","bicycle_pa":"","capacity":2,"covered":"","fee":"","operator":"","nameSource":"junction"},"sourceId":"osm"},{"id":"osm:node:9008192478","latitude":51.4715854,"longitude":-3.1839883,"name":"Dinas Place near Pentre Street","properties":{"access":"unknown","bicycle_pa":"","capacity":6,"covered":"","fee":"","operator":"","nameSource":"junction"},"sourceId":"osm"},{"id":"osm:node:9010088671","latitude":51.4773665,"longitude":-3.1795518,"name":"Wood Street near Marland Street","properties":{"access":"unknown","bicycle_pa":"stands","capacity":32,"covered":"no","fee":"","operator":"","nameSource":"junction"},"sourceId":"osm"},{"id":"osm:node:9025117986","latitude":51.4713217,"longitude":-3.186658,"name":"Dorset Street by Paula Hair Design","properties":{"access":"unknown","bicycle_pa":"","capacity":4,"covered":"","fee":"","operator":"","nameSource":"landmark"},"sourceId":"osm"},{"id":"osm:node:9025117991","latitude":51.4726487,"longitude":-3.1866001,"name":"Universal Street near Mardy Street","properties":{"access":"unknown","bicycle_pa":"","capacity":6,"covered":"","fee":"","operator":"","nameSource":"junction"},"sourceId":"osm"},{"id":"osm:node:9025118002","latitude":51.4750975,"longitude":-3.1850796,"name":"Pendyris Street cycle parking","properties":{"access":"unknown","bicycle_pa":"","capacity":4,"covered":"","fee":"","operator":"","nameSource":"street"},"sourceId":"osm"},{"id":"osm:node:9025118003","latitude":51.4750859,"longitude":-3.1847626,"name":"Pendyris Street cycle parking","properties":{"access":"unknown","bicycle_pa":"","capacity":4,"covered":"","fee":"","operator":"","nameSource":"street"},"sourceId":"osm"},{"id":"osm:node:9025118004","latitude":51.4750765,"longitude":-3.1844635,"name":"Pendyris Street cycle parking","properties":{"access":"unknown","bicycle_pa":"","capacity":4,"covered":"","fee":"","operator":"","nameSource":"street"},"sourceId":"osm"},{"id":"osm:node:9025118005","latitude":51.4750677,"longitude":-3.1841547,"name":"Pendyris Street cycle parking","properties":{"access":"unknown","bicycle_pa":"","capacity":4,"covered":"","fee":"","operator":"","nameSource":"street"},"sourceId":"osm"},{"id":"osm:node:9025118006","latitude":51.4750587,"longitude":-3.1838552,"name":"Pendyris Street near Taffs Mead Embankment","properties":{"access":"unknown","bicycle_pa":"","capacity":4,"covered":"","fee":"","operator":"","nameSource":"junction"},"sourceId":"osm"},{"id":"osm:node:9025118007","latitude":51.4750481,"longitude":-3.1835616,"name":"Pendyris Street near Taffs Mead Embankment","properties":{"access":"unknown","bicycle_pa":"","capacity":4,"covered":"","fee":"","operator":"","nameSource":"junction"},"sourceId":"osm"},{"id":"osm:node:9025118008","latitude":51.4751863,"longitude":-3.1872199,"name":"Clare Road near Court Road","properties":{"access":"unknown","bicycle_pa":"","capacity":6,"covered":"","fee":"","operator":"","nameSource":"junction"},"sourceId":"osm"},{"id":"osm:node:9025118009","latitude":51.4751816,"longitude":-3.1871254,"name":"Pendyris Street near Clare Road","properties":{"access":"unknown","bicycle_pa":"","capacity":6,"covered":"","fee":"","operator":"","nameSource":"junction"},"sourceId":"osm"},{"id":"osm:node:9027534990","latitude":51.4869276,"longitude":-3.1678022,"name":"Bedford Street near Bedford Place","properties":{"access":"unknown","bicycle_pa":"","capacity":6,"covered":"","fee":"","operator":"","nameSource":"junction"},"sourceId":"osm"},{"id":"osm:node:9033382795","latitude":51.4751018,"longitude":-3.1852033,"name":"Pendyris Street near Mardy Street","properties":{"access":"unknown","bicycle_pa":"","capacity":6,"covered":"","fee":"","operator":"","nameSource":"junction"},"sourceId":"osm"},{"id":"osm:node:9068941324","latitude":51.4751698,"longitude":-3.178819,"name":"East Subway cycle parking","properties":{"access":"yes","bicycle_pa":"rack","capacity":10,"covered":"yes","fee":"no","operator":"Transport For Wales","nameSource":"street"},"sourceId":"osm"},{"id":"osm:node:9103158428","latitude":51.4706425,"longitude":-3.2040115,"name":"Sports Direct cycle parking","properties":{"access":"unknown","bicycle_pa":"stands","capacity":18,"covered":"","fee":"","operator":"","nameSource":"landmark"},"sourceId":"osm"},{"id":"osm:node:9103158429","latitude":51.4705265,"longitude":-3.2044152,"name":"Sports Direct cycle parking","properties":{"access":"unknown","bicycle_pa":"","capacity":8,"covered":"","fee":"","operator":"","nameSource":"landmark"},"sourceId":"osm"},{"id":"osm:node:9103158430","latitude":51.4706344,"longitude":-3.2048741,"name":"Good World Chinese Restaurant cycle parking","properties":{"access":"unknown","bicycle_pa":"","capacity":8,"covered":"","fee":"","operator":"","nameSource":"landmark"},"sourceId":"osm"},{"id":"osm:node:9103158431","latitude":51.4707271,"longitude":-3.2052476,"name":"Hobbycraft cycle parking","properties":{"access":"unknown","bicycle_pa":"","capacity":8,"covered":"","fee":"","operator":"","nameSource":"landmark"},"sourceId":"osm"},{"id":"osm:node:9103158432","latitude":51.4708483,"longitude":-3.2056227,"name":"Smyths cycle parking","properties":{"access":"unknown","bicycle_pa":"","capacity":8,"covered":"","fee":"","operator":"","nameSource":"landmark"},"sourceId":"osm"},{"id":"osm:node:9103158433","latitude":51.4709547,"longitude":-3.2058663,"name":"Next cycle parking","properties":{"access":"unknown","bicycle_pa":"","capacity":8,"covered":"","fee":"","operator":"","nameSource":"landmark"},"sourceId":"osm"},{"id":"osm:node:9103158434","latitude":51.4710558,"longitude":-3.2060995,"name":"Next cycle parking","properties":{"access":"unknown","bicycle_pa":"","capacity":8,"covered":"","fee":"","operator":"","nameSource":"landmark"},"sourceId":"osm"},{"id":"osm:node:9123339040","latitude":51.4649237,"longitude":-3.1659326,"name":"Bute Street near Bute Place","properties":{"access":"unknown","bicycle_pa":"","capacity":8,"covered":"","fee":"","operator":"","nameSource":"junction"},"sourceId":"osm"},{"id":"osm:node:9133255652","latitude":51.4627959,"longitude":-3.1663907,"name":"Stuart Place near Stuart Street","properties":{"access":"unknown","bicycle_pa":"","capacity":8,"covered":"","fee":"","operator":"","nameSource":"junction"},"sourceId":"osm"},{"id":"osm:node:9133782971","latitude":51.4628253,"longitude":-3.1675343,"name":"Stuart Street near Adelaide Street","properties":{"access":"unknown","bicycle_pa":"","capacity":20,"covered":"","fee":"","operator":"","nameSource":"junction"},"sourceId":"osm"},{"id":"osm:node:9310552349","latitude":51.4855645,"longitude":-3.1744499,"name":"Park Grove near St Andrew's Place","properties":{"access":"unknown","bicycle_pa":"stands","capacity":10,"covered":"","fee":"","operator":"","nameSource":"junction"},"sourceId":"osm"},{"id":"osm:node:9442599960","latitude":51.476264,"longitude":-3.2034259,"name":"Leckwith Road near Broad Street","properties":{"access":"unknown","bicycle_pa":"wall_loops","capacity":5,"covered":"","fee":"","operator":"","nameSource":"junction"},"sourceId":"osm"},{"id":"osm:node:9454464231","latitude":51.4983823,"longitude":-3.1933776,"name":"North Road near New Zealand Road","properties":{"access":"unknown","bicycle_pa":"","capacity":12,"covered":"","fee":"","operator":"","nameSource":"junction"},"sourceId":"osm"},{"id":"osm:node:9668615318","latitude":51.5018817,"longitude":-3.1890205,"name":"Llanishen Street near Edington Avenue","properties":{"access":"unknown","bicycle_pa":"stands","capacity":6,"covered":"no","fee":"","operator":"","nameSource":"junction"},"sourceId":"osm"},{"id":"osm:node:9692204016","latitude":51.4811302,"longitude":-3.1740044,"name":"Cathedral Walk near Charles Street","properties":{"access":"unknown","bicycle_pa":"stands","capacity":12,"covered":"no","fee":"","operator":"","nameSource":"junction"},"sourceId":"osm"},{"id":"osm:node:9756980667","latitude":51.4701315,"longitude":-3.1876333,"name":"Havelock Place near Durham Street","properties":{"access":"yes","bicycle_pa":"stands","capacity":4,"covered":"no","fee":"no","operator":"","nameSource":"junction"},"sourceId":"osm"},{"id":"osm:node:9795510443","latitude":51.4778902,"longitude":-3.1751859,"name":"Tredegar Street by Cardiff Central Library","properties":{"access":"yes","bicycle_pa":"stands","capacity":12,"covered":"no","fee":"no","operator":"","nameSource":"landmark"},"sourceId":"osm"},{"id":"osm:node:9865568018","latitude":51.4807685,"longitude":-3.1934293,"name":"Wellington Street near Cowbridge Road East","properties":{"access":"unknown","bicycle_pa":"stands","capacity":12,"covered":"no","fee":"","operator":"","nameSource":"junction"},"sourceId":"osm"},{"id":"osm:node:9873109199","latitude":51.493639,"longitude":-3.2193944,"name":"High Street near Cardiff Road","properties":{"access":"unknown","bicycle_pa":"stands","capacity":2,"covered":"no","fee":"","operator":"","nameSource":"junction"},"sourceId":"osm"},{"id":"osm:node:9992946907","latitude":51.493658,"longitude":-3.181791,"name":"Cardiff Cycleway 1 by Coffee Tree","properties":{"access":"unknown","bicycle_pa":"","capacity":4,"covered":"","fee":"","operator":"","nameSource":"landmark"},"sourceId":"osm"},{"id":"osm:node:9992946908","latitude":51.4931126,"longitude":-3.1815474,"name":"Cardiff Cycleway 1 near Minister Street","properties":{"access":"unknown","bicycle_pa":"","capacity":2,"covered":"","fee":"","operator":"","nameSource":"junction"},"sourceId":"osm"},{"id":"osm:way:1010802352","latitude":51.49424894999999,"longitude":-3.1911226999999998,"name":"North Road near Blackweir Terrace","properties":{"access":"private","bicycle_pa":"","capacity":0,"covered":"yes","fee":"","operator":"","nameSource":"junction"},"sourceId":"osm"},{"id":"osm:way:1214074646","latitude":51.474636999999994,"longitude":-3.2127947,"name":"Canton cycle parking","properties":{"access":"unknown","bicycle_pa":"stands","capacity":0,"covered":"yes","fee":"","operator":"","nameSource":"place"},"sourceId":"osm"},{"id":"osm:way:1214074652","latitude":51.47371256,"longitude":-3.2131207,"name":"Leckwith cycle parking","properties":{"access":"unknown","bicycle_pa":"stands","capacity":0,"covered":"yes","fee":"","operator":"","nameSource":"place"},"sourceId":"osm"},{"id":"osm:way:1218048101","latitude":51.49034356,"longitude":-3.1827156800000003,"name":"Colum Drive cycle parking","properties":{"access":"unknown","bicycle_pa":"covered","capacity":40,"covered":"yes","fee":"no","operator":"","nameSource":"street"},"sourceId":"osm"},{"id":"osm:way:1264645647","latitude":51.49126915999999,"longitude":-3.1837257400000003,"name":"Colum Drive cycle parking","properties":{"access":"unknown","bicycle_pa":"covered","capacity":0,"covered":"yes","fee":"no","operator":"","nameSource":"street"},"sourceId":"osm"},{"id":"osm:way:1264645667","latitude":51.48986506666666,"longitude":-3.1819145,"name":"Cathays Terrace near Colum Road","properties":{"access":"unknown","bicycle_pa":"stands","capacity":0,"covered":"no","fee":"","operator":"","nameSource":"junction"},"sourceId":"osm"},{"id":"osm:way:1264645668","latitude":51.4898246,"longitude":-3.1819969333333327,"name":"Cathays Terrace near Colum Road","properties":{"access":"unknown","bicycle_pa":"stands","capacity":0,"covered":"no","fee":"","operator":"","nameSource":"junction"},"sourceId":"osm"},{"id":"osm:way:1264798797","latitude":51.49897028,"longitude":-3.2011266,"name":"North Road Cycleway cycle parking","properties":{"access":"unknown","bicycle_pa":"shed","capacity":0,"covered":"","fee":"","operator":"","nameSource":"street"},"sourceId":"osm"},{"id":"osm:way:1264798798","latitude":51.499137119999986,"longitude":-3.2012752399999997,"name":"North Road Cycleway cycle parking","properties":{"access":"unknown","bicycle_pa":"shed","capacity":0,"covered":"","fee":"","operator":"","nameSource":"street"},"sourceId":"osm"},{"id":"osm:way:1277674078","latitude":51.50281113999999,"longitude":-3.1961108400000002,"name":"Rhodfa Briardene near North Road","properties":{"access":"private","bicycle_pa":"shed","capacity":10,"covered":"","fee":"","operator":"","nameSource":"junction"},"sourceId":"osm"},{"id":"osm:way:1277674079","latitude":51.5028312,"longitude":-3.1961164,"name":"Rhodfa Briardene near North Road","properties":{"access":"private","bicycle_pa":"shed","capacity":10,"covered":"","fee":"","operator":"","nameSource":"junction"},"sourceId":"osm"},{"id":"osm:way:1277674080","latitude":51.50263982,"longitude":-3.1961024599999996,"name":"Rhodfa Briardene near North Road","properties":{"access":"private","bicycle_pa":"shed","capacity":12,"covered":"","fee":"","operator":"","nameSource":"junction"},"sourceId":"osm"},{"id":"osm:way:1279258032","latitude":51.50833768,"longitude":-3.18853954,"name":"Dame Shirley Bassey Way near Heath Park Way","properties":{"access":"unknown","bicycle_pa":"shed","capacity":10,"covered":"","fee":"","operator":"","nameSource":"junction"},"sourceId":"osm"},{"id":"osm:way:1281864380","latitude":51.492376716666676,"longitude":-3.184040283333333,"name":"Maindy Road near Minister Street","properties":{"access":"private","bicycle_pa":"shed","capacity":0,"covered":"","fee":"","operator":"","nameSource":"junction"},"sourceId":"osm"},{"id":"osm:way:1285815735","latitude":51.4759964,"longitude":-3.1799074000000003,"name":"Central Square near Central Street","properties":{"access":"unknown","bicycle_pa":"shed","capacity":0,"covered":"","fee":"","operator":"","nameSource":"junction"},"sourceId":"osm"},{"id":"osm:way:1306889464","latitude":51.483654019999996,"longitude":-3.22537168,"name":"The Boulevard near Clos Pwll Coch","properties":{"access":"private","bicycle_pa":"","capacity":0,"covered":"","fee":"","operator":"","nameSource":"junction"},"sourceId":"osm"},{"id":"osm:way:1312643887","latitude":51.49290356,"longitude":-3.1849784199999998,"name":"Maindy Road cycle parking","properties":{"access":"private","bicycle_pa":"shed","capacity":0,"covered":"yes","fee":"","operator":"","nameSource":"street"},"sourceId":"osm"},{"id":"osm:way:1323290702","latitude":51.50142062,"longitude":-3.22626438,"name":"Bridge Road near Andrew's Road","properties":{"access":"unknown","bicycle_pa":"shed","capacity":0,"covered":"","fee":"","operator":"","nameSource":"junction"},"sourceId":"osm"},{"id":"osm:way:1323290703","latitude":51.50150501999999,"longitude":-3.22605138,"name":"Gabalfa Road near Gabalfa Avenue","properties":{"access":"unknown","bicycle_pa":"shed","capacity":0,"covered":"","fee":"","operator":"","nameSource":"junction"},"sourceId":"osm"},{"id":"osm:way:1335714912","latitude":51.46590134,"longitude":-3.18270188,"name":"Holmesdale Street near Bromsgrove Street","properties":{"access":"private","bicycle_pa":"shed","capacity":0,"covered":"yes","fee":"no","operator":"","nameSource":"junction"},"sourceId":"osm"},{"id":"osm:way:1343145636","latitude":51.47022566666667,"longitude":-3.1893326666666666,"name":"Lucknow Street near North Clive Street","properties":{"access":"unknown","bicycle_pa":"shed","capacity":0,"covered":"","fee":"","operator":"","nameSource":"junction"},"sourceId":"osm"},{"id":"osm:way:1418890000","latitude":51.4932582,"longitude":-3.18563434,"name":"Maindy Road cycle parking","properties":{"access":"private","bicycle_pa":"shed","capacity":0,"covered":"yes","fee":"no","operator":"Cardiff University","nameSource":"street"},"sourceId":"osm"},{"id":"osm:way:1428533139","latitude":51.49692668,"longitude":-3.2128277399999994,"name":"The Box Cafe cycle parking","properties":{"access":"unknown","bicycle_pa":"shed","capacity":0,"covered":"","fee":"","operator":"","nameSource":"landmark"},"sourceId":"osm"},{"id":"osm:way:1428533140","latitude":51.49697098,"longitude":-3.2127703200000006,"name":"The Box Cafe cycle parking","properties":{"access":"unknown","bicycle_pa":"shed","capacity":0,"covered":"","fee":"","operator":"","nameSource":"landmark"},"sourceId":"osm"},{"id":"osm:way:1428533141","latitude":51.49691925999999,"longitude":-3.2126373,"name":"The Box Cafe cycle parking","properties":{"access":"unknown","bicycle_pa":"shed","capacity":0,"covered":"","fee":"","operator":"","nameSource":"landmark"},"sourceId":"osm"},{"id":"osm:way:1459421876","latitude":51.47519941666667,"longitude":-3.2111895,"name":"Lawrenny Avenue by Ysgol Gymraeg Pwll Coch","properties":{"access":"unknown","bicycle_pa":"shed","capacity":0,"covered":"","fee":"","operator":"","nameSource":"landmark"},"sourceId":"osm"},{"id":"osm:way:1470039993","latitude":51.481804479999994,"longitude":-3.1931997999999995,"name":"Patient Drop-Off by Saint David's Hospital","properties":{"access":"unknown","bicycle_pa":"shed","capacity":8,"covered":"","fee":"","operator":"","nameSource":"landmark"},"sourceId":"osm"},{"id":"osm:way:1470421707","latitude":51.48081971666667,"longitude":-3.199383333333333,"name":"Picton Place near Albert Street","properties":{"access":"private","bicycle_pa":"shed","capacity":0,"covered":"","fee":"","operator":"","nameSource":"junction"},"sourceId":"osm"},{"id":"osm:way:1472223286","latitude":51.481883266666664,"longitude":-3.1927607333333334,"name":"Patient Drop-Off cycle parking","properties":{"access":"unknown","bicycle_pa":"shed","capacity":8,"covered":"","fee":"","operator":"","nameSource":"street"},"sourceId":"osm"},{"id":"osm:way:1472223306","latitude":51.48186973333333,"longitude":-3.1944921833333333,"name":"Patient Drop-Off cycle parking","properties":{"access":"unknown","bicycle_pa":"shed","capacity":8,"covered":"","fee":"","operator":"","nameSource":"street"},"sourceId":"osm"},{"id":"osm:way:1478670316","latitude":51.48277466,"longitude":-3.2036788,"name":"Market Place near Market Road","properties":{"access":"yes","bicycle_pa":"shed","capacity":20,"covered":"","fee":"no","operator":"","nameSource":"junction"},"sourceId":"osm"},{"id":"osm:way:1490579750","latitude":51.50673026,"longitude":-3.19166268,"name":"Academic Avenue near Dental Drive","properties":{"access":"unknown","bicycle_pa":"shed","capacity":0,"covered":"","fee":"","operator":"","nameSource":"junction"},"sourceId":"osm"},{"id":"osm:way:1490579757","latitude":51.506828260000006,"longitude":-3.19164038,"name":"Academic Avenue near Dental Drive","properties":{"access":"unknown","bicycle_pa":"shed","capacity":0,"covered":"","fee":"","operator":"","nameSource":"junction"},"sourceId":"osm"},{"id":"osm:way:737148893","latitude":51.4966499,"longitude":-3.1954254714285715,"name":"North Road Cycleway cycle parking","properties":{"access":"unknown","bicycle_pa":"","capacity":0,"covered":"","fee":"","operator":"","nameSource":"street"},"sourceId":"osm"},{"id":"osm:way:737148894","latitude":51.49636185,"longitude":-3.194050516666666,"name":"North Road Cycleway by Amazon Locker","properties":{"access":"unknown","bicycle_pa":"","capacity":0,"covered":"","fee":"","operator":"","nameSource":"landmark"},"sourceId":"osm"},{"id":"osm:way:737337918","latitude":51.49718608333333,"longitude":-3.19508315,"name":"Trotman Dickenson Place near Bevan Place","properties":{"access":"unknown","bicycle_pa":"","capacity":0,"covered":"","fee":"","operator":"","nameSource":"junction"},"sourceId":"osm"},{"id":"osm:way:802684853","latitude":51.45615730000001,"longitude":-3.1854237428571426,"name":"Max Spielmann cycle parking","properties":{"access":"unknown","bicycle_pa":"","capacity":0,"covered":"","fee":"","operator":"","nameSource":"landmark"},"sourceId":"osm"},{"id":"osm:way:803513127","latitude":51.460850099999995,"longitude":-3.1871541999999997,"name":"Ferry Road cycle parking","properties":{"access":"unknown","bicycle_pa":"shed","capacity":0,"covered":"","fee":"","operator":"","nameSource":"street"},"sourceId":"osm"},{"id":"osm:way:853558721","latitude":51.496886416666676,"longitude":-3.2128899333333334,"name":"The Box Cafe cycle parking","properties":{"access":"unknown","bicycle_pa":"shed","capacity":0,"covered":"","fee":"","operator":"","nameSource":"landmark"},"sourceId":"osm"},{"id":"osm:way:853981439","latitude":51.496163100000004,"longitude":-3.21437112,"name":"Print Studio cycle parking","properties":{"access":"unknown","bicycle_pa":"shed","capacity":0,"covered":"","fee":"","operator":"","nameSource":"landmark"},"sourceId":"osm"},