{"key":"12/1995/1276","points":[{"id":"osm:node:11033272349","latitude":55.9404129,"longitude":-4.5753715,"name":"Pavillion Cafe cycle parking","properties":{"access":"unknown","bicycle_pa":"stands","capacity":6,"covered":"","fee":"","operator":"","nameSource":"landmark"},"sourceId":"osm"},{"id":"osm:node:11383352009","latitude":55.9473702,"longitude":-4.5780221,"name":"Glasgow Road near West Bridgend","properties":{"access":"unknown","bicycle_pa":"stands","capacity":0,"covered":"","fee":"","operator":"","nameSource":"junction"},"sourceId":"osm"},{"id":"osm:node:11951783275","latitude":55.9491505,"longitude":-4.5745302,"name":"Dalreoch cycle parking","properties":{"access":"unknown","bicycle_pa":"","capacity":4,"covered":"no","fee":"no","operator":"","nameSource":"place"},"sourceId":"osm"},{"id":"osm:node:11951783276","latitude":55.9523713,"longitude":-4.5801979,"name":"Castlehill cycle parking","properties":{"access":"unknown","bicycle_pa":"","capacity":2,"covered":"no","fee":"no","operator":"","nameSource":"place"},"sourceId":"osm"},{"id":"osm:node:1469186507","latitude":55.9604707,"longitude":-4.6532605,"name":"Station Road near Geilston Park","properties":{"access":"unknown","bicycle_pa":"stands","capacity":2,"covered":"no","fee":"","operator":"","nameSource":"junction"},"sourceId":"osm"},{"id":"osm:node:1469224562","latitude":55.9702675,"longitude":-4.5862948,"name":"Back Street near Station Street","properties":{"access":"unknown","bicycle_pa":"stands","capacity":6,"covered":"no","fee":"","operator":"","nameSource":"junction"},"sourceId":"osm"},{"id":"osm:node:3491218323","latitude":55.9602754,"longitude":-4.653349,"name":"Station Road by Cardross","properties":{"access":"unknown","bicycle_pa":"stands","capacity":10,"covered":"yes","fee":"","operator":"","nameSource":"landmark"},"sourceId":"osm"},{"id":"osm:node:5139875923","latitude":55.9466314,"longitude":-4.5761072,"name":"Glasgow Road cycle parking","properties":{"access":"unknown","bicycle_pa":"","capacity":0,"covered":"","fee":"","operator":"","nameSource":"street"},"sourceId":"osm"}],"schemaVersion":2}
