{"key":"12/1995/1285","points":[{"id":"osm:node:3942321296","latitude":55.5011674,"longitude":-4.6142767,"name":"Links Road near Queens Terrace","properties":{"access":"unknown","bicycle_pa":"stands","capacity":6,"covered":"no","fee":"","operator":"","nameSource":"junction"},"sourceId":"osm"},{"id":"osm:node:3945031372","latitude":55.5015546,"longitude":-4.6108838,"name":"The Cross near Crofthead Road","properties":{"access":"unknown","bicycle_pa":"stands","capacity":2,"covered":"no","fee":"","operator":"","nameSource":"junction"},"sourceId":"osm"},{"id":"osm:node:3949094569","latitude":55.4857064,"longitude":-4.617222,"name":"Ayr Road near Lilybank Road","properties":{"access":"unknown","bicycle_pa":"stands","capacity":6,"covered":"yes","fee":"","operator":"","nameSource":"junction"},"sourceId":"osm"},{"id":"osm:node:3949094573","latitude":55.487527,"longitude":-4.6155617,"name":"Kirkhill Crescent near Nursery Avenue","properties":{"access":"unknown","bicycle_pa":"stands","capacity":20,"covered":"yes","fee":"","operator":"","nameSource":"junction"},"sourceId":"osm"},{"id":"osm:node:3952561413","latitude":55.479802,"longitude":-4.5930546,"name":"Halfords cycle parking","properties":{"access":"unknown","bicycle_pa":"stands","capacity":6,"covered":"yes","fee":"","operator":"","nameSource":"landmark"},"sourceId":"osm"},{"id":"osm:way:391299658","latitude":55.51614382,"longitude":-4.604616500000001,"name":"Station Road by Monkton Primary School","properties":{"access":"unknown","bicycle_pa":"shed","capacity":0,"covered":"yes","fee":"","operator":"","nameSource":"landmark"},"sourceId":"osm"}],"schemaVersion":2}
