{"key":"12/2024/1344","points":[{"categories":["repair"],"id":"osm:node:12339724982","latitude":52.4773459,"longitude":-2.0314207,"name":"TfWM","properties":{"fee":"no","openingHours":"24/7","operator":"TfWM","servicePump":"yes","serviceRepair":"yes","serviceTools":"yes"},"sourceId":"osm"},{"categories":["shop"],"id":"osm:node:1448338168","latitude":52.4695297,"longitude":-2.0328451,"name":"Sandwell Cycles","properties":{},"sourceId":"osm"},{"categories":["repair"],"id":"osm:node:410996145","latitude":52.4785384,"longitude":-2.1086578,"name":"Halfords","properties":{"brand":"Halfords","serviceRepair":"yes"},"sourceId":"osm"},{"categories":["shop"],"id":"osm:node:556519646","latitude":52.473265,"longitude":-2.065062,"name":"Brotherton Cycles","properties":{},"sourceId":"osm"},{"categories":["shop"],"id":"osm:way:64940026","latitude":52.47037194999999,"longitude":-2.09239291,"name":"Hawk Factory Cycle Stores","properties":{},"sourceId":"osm"}],"schemaVersion":2}
