{"key":"12/2042/1558","points":[{"categories":["hire"],"id":"osm:node:1354923526","latitude":39.4840868,"longitude":-0.4475531,"name":"HortaSudenBici","properties":{"operator":"HortaSudenBici"},"sourceId":"osm"},{"categories":["hire"],"id":"osm:node:1652719876","latitude":39.4578275,"longitude":-0.4508164,"name":"Bicicleta Pública, Horta Sud en Bici","properties":{},"sourceId":"osm"},{"categories":["hire"],"id":"osm:node:1652725269","latitude":39.4530797,"longitude":-0.4630696,"name":"Bicicleta Pública, Horta Sud en Bici","properties":{},"sourceId":"osm"},{"categories":["hire"],"id":"osm:node:1652725276","latitude":39.4582417,"longitude":-0.4565805,"name":"Bicicleta Pública, Horta Sud en Bici","properties":{},"sourceId":"osm"},{"categories":["hire"],"id":"osm:node:1652725285","latitude":39.4566781,"longitude":-0.4607969,"name":"Bicicleta Pública, Horta Sud en Bici","properties":{},"sourceId":"osm"},{"categories":["shop","repair"],"id":"osm:node:1654133401","latitude":39.4535024,"longitude":-0.4585617,"name":"Motos Abel","properties":{"serviceRepair":"yes"},"sourceId":"osm"},{"categories":["hire"],"id":"osm:node:1764573670","latitude":39.4672675,"longitude":-0.4577218,"name":"Mibisi Valencia","properties":{"network":"Mibisi Valencia"},"sourceId":"osm"},{"categories":["hire"],"id":"osm:node:1764573682","latitude":39.4649994,"longitude":-0.4613642,"name":"Mibisi Valencia","properties":{"network":"Mibisi Valencia"},"sourceId":"osm"},{"categories":["hire"],"id":"osm:node:6708118003","latitude":39.4368779,"longitude":-0.4659477,"name":"63.Torrent - Ayuntamiento","properties":{"operator":"TorrentBici"},"sourceId":"osm"},{"categories":["hire"],"id":"osm:node:6708147987","latitude":39.4383244,"longitude":-0.4628062,"name":"65.Torrent - Plaza Maestro Músico Giner","properties":{"operator":"TorrentBici"},"sourceId":"osm"},{"categories":["hire"],"id":"osm:node:6708147988","latitude":39.439611,"longitude":-0.4594812,"name":"52.Torrent - Fray Antoni Panes","properties":{"operator":"TorrentBici"},"sourceId":"osm"},{"categories":["hire"],"id":"osm:node:6708147989","latitude":39.4413248,"longitude":-0.4617234,"name":"64.Torrent - Plaza de la Torrentina","properties":{"operator":"TorrentBici"},"sourceId":"osm"},{"categories":["shop"],"id":"osm:node:7005850138","latitude":39.4637163,"longitude":-0.4570515,"name":"As Bike","properties":{},"sourceId":"osm"},{"categories":["hire"],"id":"osm:node:9053042443","latitude":39.4589183,"longitude":-0.4662293,"name":"Mibisi Valencia","properties":{"network":"Mibisi Valencia"},"sourceId":"osm"}],"schemaVersion":2}
