{"key":"12/2042/1559","points":[{"categories":["shop"],"id":"osm:node:11159171081","latitude":39.4348529,"longitude":-0.4856686,"name":"JC Bike Torrent","properties":{},"sourceId":"osm"},{"categories":["hire"],"id":"osm:node:6708147990","latitude":39.4356763,"longitude":-0.4609667,"name":"51.Torrent - Sant Nicolau","properties":{"operator":"TorrentBici"},"sourceId":"osm"},{"categories":["hire"],"id":"osm:node:6708147991","latitude":39.432867,"longitude":-0.4640328,"name":"56.Torrent - Hort de Trenor","properties":{"operator":"TorrentBici"},"sourceId":"osm"},{"categories":["hire"],"id":"osm:node:6708147992","latitude":39.4333312,"longitude":-0.4685197,"name":"69.Torrent - Av. Padre Mendez II","properties":{"operator":"TorrentBici"},"sourceId":"osm"},{"categories":["hire"],"id":"osm:node:6708147993","latitude":39.4311177,"longitude":-0.4718595,"name":"67.Torrent - FGV Estación Torrent Avinguda","properties":{"operator":"TorrentBici"},"sourceId":"osm"},{"categories":["hire"],"id":"osm:node:6708147994","latitude":39.4282557,"longitude":-0.4754898,"name":"66.Torrent - Av. Padre Méndez I","properties":{"operator":"TorrentBici"},"sourceId":"osm"},{"categories":["hire"],"id":"osm:node:6708147995","latitude":39.4312001,"longitude":-0.474277,"name":"68.Torrent - San Valeriano","properties":{"operator":"TorrentBici"},"sourceId":"osm"},{"categories":["hire"],"id":"osm:node:6708147996","latitude":39.4346718,"longitude":-0.4731167,"name":"54.Torrent - Sedavi","properties":{"operator":"TorrentBici"},"sourceId":"osm"},{"categories":["hire"],"id":"osm:node:6708163157","latitude":39.428814,"longitude":-0.4651358,"name":"57.Torrent - Ciutat de L'Esport","properties":{"operator":"TorrentBici"},"sourceId":"osm"},{"categories":["hire"],"id":"osm:node:6708163158","latitude":39.426512,"longitude":-0.4699981,"name":"53.Torrent - Av. Olimpica","properties":{"operator":"TorrentBici"},"sourceId":"osm"},{"categories":["hire"],"id":"osm:node:6708164478","latitude":39.4281189,"longitude":-0.4781536,"name":"59.Torrent - Comare Pilar Martí","properties":{"operator":"TorrentBici"},"sourceId":"osm"},{"categories":["hire"],"id":"osm:node:6708164479","latitude":39.4259624,"longitude":-0.4822588,"name":"61.Torrent - CC Las Americas","properties":{"operator":"TorrentBici"},"sourceId":"osm"},{"categories":["hire"],"id":"osm:node:6708166012","latitude":39.433921,"longitude":-0.4792484,"name":"55.Torrent - Azorin","properties":{"operator":"TorrentBici"},"sourceId":"osm"},{"categories":["hire"],"id":"osm:node:6708166013","latitude":39.430382,"longitude":-0.4797111,"name":"58.Torrent - Constitució","properties":{"operator":"TorrentBici"},"sourceId":"osm"},{"categories":["hire"],"id":"osm:node:6708169431","latitude":39.424422,"longitude":-0.4783665,"name":"62.Torrent - Av. Reina Sofía","properties":{"operator":"TorrentBici"},"sourceId":"osm"}],"schemaVersion":2}
