{"key":"12/2042/1574","points":[{"categories":["hire"],"id":"osm:node:1026357959","latitude":38.4029999,"longitude":-0.5226881,"name":"Bicisanvi - Ciudad Deportiva","properties":{},"sourceId":"osm"},{"categories":["hire"],"id":"osm:node:1060410672","latitude":38.3433027,"longitude":-0.483401,"name":"Alabici 2 - Explanada","properties":{},"sourceId":"osm"},{"categories":["hire"],"id":"osm:node:1060419904","latitude":38.3433854,"longitude":-0.4884088,"name":"Alabici 5 - Plaza de Calvo Sotelo","properties":{},"sourceId":"osm"},{"categories":["hire"],"id":"osm:node:1060421116","latitude":38.344282,"longitude":-0.494841,"name":"Alabici 6 - Estación Renfe","properties":{},"sourceId":"osm"},{"categories":["hire"],"id":"osm:node:13335941301","latitude":38.3814625,"longitude":-0.5254832,"name":"bicisanvi","properties":{"operator":"bicisanvi"},"sourceId":"osm"},{"categories":["hire"],"id":"osm:node:13336449501","latitude":38.3940984,"longitude":-0.5144433,"name":"bicisanvi","properties":{"operator":"bicisanvi"},"sourceId":"osm"},{"categories":["hire"],"id":"osm:node:13337096001","latitude":38.3821988,"longitude":-0.5059526,"name":"bicisanvi","properties":{"operator":"bicisanvi"},"sourceId":"osm"},{"categories":["hire"],"id":"osm:node:1341026255","latitude":38.3485455,"longitude":-0.4924739,"name":"Alabici 8 - Paseo del General Marvá","properties":{},"sourceId":"osm"},{"categories":["hire"],"id":"osm:node:1341026260","latitude":38.3596233,"longitude":-0.4975598,"name":"Alabici 23 - Mercado Teulada","properties":{},"sourceId":"osm"},{"categories":["hire"],"id":"osm:node:1341026273","latitude":38.3487446,"longitude":-0.473249,"name":"Alabici 12 - Estación de la Marina-Playa del Cocó","properties":{},"sourceId":"osm"},{"categories":["hire"],"id":"osm:node:1341026284","latitude":38.3559991,"longitude":-0.4939074,"name":"Alabici 21 - Pabellón Pitiu Rochel","properties":{},"sourceId":"osm"},{"categories":["hire"],"id":"osm:node:1341026287","latitude":38.3541609,"longitude":-0.4978868,"name":"Alabici 20 - Doctor Rico","properties":{},"sourceId":"osm"},{"categories":["hire"],"id":"osm:node:1341026309","latitude":38.3484673,"longitude":-0.4843636,"name":"Alabici 7 - Jaime II","properties":{},"sourceId":"osm"},{"categories":["hire"],"id":"osm:node:1341026315","latitude":38.3520682,"longitude":-0.476305,"name":"Alabici 10 - MARQ-Benacantil","properties":{},"sourceId":"osm"},{"categories":["hire"],"id":"osm:node:1341026329","latitude":38.3622258,"longitude":-0.4780112,"name":"Alabici 25 - Bulevar del Plá Inicio","properties":{},"sourceId":"osm"},{"categories":["hire"],"id":"osm:node:13612875097","latitude":38.3465674,"longitude":-0.4833203,"name":"Alicante By Bike","properties":{},"sourceId":"osm"},{"categories":["shop","repair"],"id":"osm:node:2281370135","latitude":38.3935055,"longitude":-0.5143454,"name":"Trek San Vicente","properties":{"serviceRepair":"yes"},"sourceId":"osm"},{"categories":["hire"],"id":"osm:node:2451903321","latitude":38.3917983,"longitude":-0.5167235,"name":"Bici Sanvi","properties":{},"sourceId":"osm"},{"categories":["shop","repair"],"id":"osm:node:3833386069","latitude":38.3612832,"longitude":-0.4773404,"name":"Mundo bike reparación bicicletas","properties":{"serviceRepair":"yes"},"sourceId":"osm"},{"categories":["shop"],"id":"osm:node:4139418427","latitude":38.3634596,"longitude":-0.4681039,"name":"Ciclos Boyer - Shimano","properties":{},"sourceId":"osm"},{"categories":["hire"],"id":"osm:node:421636279","latitude":38.3961433,"longitude":-0.5225312,"name":"Bicisanvi - Ajuntament","properties":{},"sourceId":"osm"},{"categories":["shop"],"id":"osm:node:4295212896","latitude":38.3433053,"longitude":-0.496791,"name":"Trek","properties":{"brand":"Trek"},"sourceId":"osm"},{"categories":["shop"],"id":"osm:node:4342981584","latitude":38.3598753,"longitude":-0.5049041,"name":"Bicycle shop","properties":{},"sourceId":"osm"},{"categories":["repair"],"id":"osm:node:6179028447","latitude":38.3479972,"longitude":-0.4923893,"name":"Motos Y Bicicletas Gallego","properties":{"openingHours":"Mo-Fr 10:00-14:00,05:30-20:30; Sa 11:00-14:00","serviceRepair":"yes"},"sourceId":"osm"},{"categories":["shop"],"id":"osm:node:6340361463","latitude":38.3496957,"longitude":-0.4981025,"name":"Urban Bike","properties":{},"sourceId":"osm"},{"categories":["shop"],"id":"osm:node:6488326236","latitude":38.3616856,"longitude":-0.4839718,"name":"Ciclos Alberto","properties":{"brand":"Ghost;Olympia","openingHours":"09:30-14:00,17:00-20:00"},"sourceId":"osm"},{"categories":["hire"],"id":"osm:node:6592940860","latitude":38.3508904,"longitude":-0.4849441,"name":"Bikes&City Alicante - Alquiler, rutas, restauración, reparación y venta de bicicletas","properties":{"openingHours":"Mo-Sa 10:00-13:30; Mo-Fr 17:00-20:30"},"sourceId":"osm"},{"categories":["hire"],"id":"osm:node:840096433","latitude":38.3836702,"longitude":-0.5120361,"name":"Bicisanvi - Biblioteca General","properties":{},"sourceId":"osm"},{"categories":["shop"],"id":"osm:node:840096850","latitude":38.3960262,"longitude":-0.5199335,"name":"Guijarro Tot Sport","properties":{},"sourceId":"osm"},{"categories":["hire"],"id":"osm:node:840096950","latitude":38.3960192,"longitude":-0.5188142,"name":"Bicisanvi - Hort dels Lleons","properties":{},"sourceId":"osm"}],"schemaVersion":2}
