{"key":"12/2006/1515","points":[{"categories":["hire"],"id":"osm:node:10249625692","latitude":42.355127,"longitude":-3.6627228,"name":"Bicibur - Esteban Sáez Alvarado-Vitoria","properties":{"fee":"yes","network":"Bicibur","operator":"Ayuntamiento de Burgos"},"sourceId":"osm"},{"categories":["repair"],"id":"osm:node:10931373951","latitude":42.3445175,"longitude":-3.6757825,"name":"Ayuntamiento de Burgos","properties":{"fee":"no","openingHours":"24/7","operator":"Ayuntamiento de Burgos","servicePump":"no","serviceRepair":"yes","serviceTools":"yes"},"sourceId":"osm"},{"categories":["repair"],"id":"osm:node:10939083022","latitude":42.3491442,"longitude":-3.6629691,"name":"Ayuntamiento de Burgos","properties":{"fee":"no","openingHours":"24/7","operator":"Ayuntamiento de Burgos","servicePump":"yes","serviceRepair":"yes","serviceTools":"yes"},"sourceId":"osm"},{"categories":["shop","repair"],"id":"osm:node:1184275243","latitude":42.3532388,"longitude":-3.6640713,"name":"Ciclos García","properties":{"serviceRepair":"yes"},"sourceId":"osm"},{"categories":["shop","repair"],"id":"osm:node:11989185796","latitude":42.3512443,"longitude":-3.690099,"name":"Riders Gallery Workshop","properties":{"serviceRepair":"yes"},"sourceId":"osm"},{"categories":["shop"],"id":"osm:node:12912822309","latitude":42.3571379,"longitude":-3.671819,"name":"Bikery","properties":{},"sourceId":"osm"},{"categories":["hire"],"id":"osm:node:13989746544","latitude":42.338098,"longitude":-3.6578279,"name":"Cycle hire","properties":{},"sourceId":"osm"},{"categories":["hire"],"id":"osm:node:1725221272","latitude":42.3509288,"longitude":-3.6635991,"name":"Bicibur - Biblioteca Gonzalo Berceo","properties":{"fee":"yes","network":"Bicibur","operator":"Ayuntamiento de Burgos"},"sourceId":"osm"},{"categories":["shop","repair","hire"],"id":"osm:node:1768424020","latitude":42.354853,"longitude":-3.6615742,"name":"BikeXtrem Bike Shop","properties":{"servicePump":"no","serviceRental":"yes","serviceRepair":"yes"},"sourceId":"osm"},{"categories":["shop","repair"],"id":"osm:node:1797925729","latitude":42.3449327,"longitude":-3.6664442,"name":"Al Límite Bicis","properties":{"servicePump":"no","serviceRepair":"yes"},"sourceId":"osm"},{"categories":["shop","repair","hire"],"id":"osm:node:1820846884","latitude":42.3509012,"longitude":-3.6741567,"name":"Ciclos San Bruno","properties":{"serviceRental":"yes","serviceRepair":"yes"},"sourceId":"osm"},{"categories":["hire"],"id":"osm:node:1846763677","latitude":42.350213,"longitude":-3.6755851,"name":"Bicibur - Santa Bárbara - Gamonal","properties":{"fee":"yes","network":"Bicibur","operator":"Ayuntamiento de Burgos"},"sourceId":"osm"},{"categories":["shop","repair","hire"],"id":"osm:node:3659198177","latitude":42.3551661,"longitude":-3.6680852,"name":"Recicleta","properties":{"serviceRental":"yes","serviceRepair":"yes"},"sourceId":"osm"},{"categories":["shop"],"id":"osm:node:4429808789","latitude":42.3584501,"longitude":-3.6658346,"name":"Ruedas Custom","properties":{},"sourceId":"osm"},{"categories":["shop","repair"],"id":"osm:node:4746018435","latitude":42.3430819,"longitude":-3.6912225,"name":"La Bicicleta Azul","properties":{"serviceRepair":"yes"},"sourceId":"osm"},{"categories":["hire"],"id":"osm:node:517851777","latitude":42.3520653,"longitude":-3.6840818,"name":"Bicibur - Centro Cívico Río Vena","properties":{"fee":"yes","network":"Bicibur","operator":"Ayuntamiento de Burgos"},"sourceId":"osm"},{"categories":["hire"],"id":"osm:node:524199799","latitude":42.3497872,"longitude":-3.6906671,"name":"Bicibur - Juzgados - Reyes Católicos","properties":{"fee":"yes","network":"Bicibur","operator":"Ayuntamiento de Burgos"},"sourceId":"osm"},{"categories":["shop","repair"],"id":"osm:node:6050562688","latitude":42.3495398,"longitude":-3.6735201,"name":"Vikings","properties":{"serviceRepair":"yes"},"sourceId":"osm"},{"categories":["hire"],"id":"osm:node:715566602","latitude":42.3469016,"longitude":-3.6863649,"name":"Bicibur - Junta de Castilla y León","properties":{"fee":"yes","network":"Bicibur","operator":"Ayuntamiento de Burgos"},"sourceId":"osm"},{"categories":["hire"],"id":"osm:node:9270242880","latitude":42.3494539,"longitude":-3.6704638,"name":"Bicibur - Centro Cívico Capiscol","properties":{"fee":"yes","network":"Bicibur","operator":"Ayuntamiento de Burgos"},"sourceId":"osm"},{"categories":["hire"],"id":"osm:node:9442051937","latitude":42.3490193,"longitude":-3.6626863,"name":"Bicibur - Piscinas de Capiscol","properties":{"fee":"yes","network":"Bicibur","operator":"Ayuntamiento de Burgos"},"sourceId":"osm"},{"categories":["hire"],"id":"osm:node:9442117788","latitude":42.3529558,"longitude":-3.6686262,"name":"Bicibur - Casa Cultura Gamonal","properties":{"fee":"yes","network":"Bicibur","operator":"Ayuntamiento de Burgos"},"sourceId":"osm"},{"categories":["shop","repair"],"id":"osm:node:9442795220","latitude":42.3433554,"longitude":-3.6866363,"name":"Bicicletas Kafka","properties":{"serviceRepair":"yes"},"sourceId":"osm"},{"categories":["shop","repair"],"id":"osm:node:9554147268","latitude":42.3563723,"longitude":-3.6635532,"name":"Ecomobility Green World Burgos","properties":{"serviceRepair":"yes"},"sourceId":"osm"},{"categories":["shop"],"id":"osm:node:9752753582","latitude":42.3487796,"longitude":-3.6845417,"name":"Oring Suspension Center","properties":{},"sourceId":"osm"}],"schemaVersion":2}
