{"key":"12/1974/1326","points":[{"id":"osm:node:11173404851","latitude":53.3871311,"longitude":-6.4419309,"name":"Station Road by Hansfield","properties":{"access":"yes","bicycle_pa":"stands","capacity":28,"covered":"yes","fee":"no","operator":"","nameSource":"landmark"},"sourceId":"osm"},{"id":"osm:node:11173404852","latitude":53.3869008,"longitude":-6.4413435,"name":"Station Road by Busy Buzzing Bees","properties":{"access":"yes","bicycle_pa":"stands","capacity":10,"covered":"yes","fee":"no","operator":"","nameSource":"landmark"},"sourceId":"osm"},{"id":"osm:node:12214775721","latitude":53.4161688,"longitude":-6.4723158,"name":"Rooske Road near Woodview Heights","properties":{"access":"yes","bicycle_pa":"stands","capacity":16,"covered":"no","fee":"no","operator":"","nameSource":"junction"},"sourceId":"osm"},{"id":"osm:node:12843828939","latitude":53.3881929,"longitude":-6.442115,"name":"Station Street near Barnwell Row","properties":{"access":"unknown","bicycle_pa":"stands","capacity":6,"covered":"","fee":"","operator":"","nameSource":"junction"},"sourceId":"osm"},{"id":"osm:node:2366116870","latitude":53.3869942,"longitude":-6.441454,"name":"Station Road by Busy Buzzing Bees","properties":{"access":"yes","bicycle_pa":"stands","capacity":10,"covered":"yes","fee":"no","operator":"","nameSource":"landmark"},"sourceId":"osm"},{"id":"osm:node:5805480055","latitude":53.4156966,"longitude":-6.4742236,"name":"Gaelscoil Thulach na nÓg cycle parking","properties":{"access":"customers","bicycle_pa":"stands","capacity":32,"covered":"yes","fee":"","operator":"Gaelscoil Thulach na nÓg","nameSource":"landmark"},"sourceId":"osm"},{"id":"osm:node:6344025094","latitude":53.3957603,"longitude":-6.4398542,"name":"Main Street near North Street","properties":{"access":"permissive","bicycle_pa":"stands","capacity":12,"covered":"no","fee":"","operator":"","nameSource":"junction"},"sourceId":"osm"},{"id":"osm:node:6345230204","latitude":53.3959111,"longitude":-6.4397247,"name":"North Street near Main Street","properties":{"access":"permissive","bicycle_pa":"stands","capacity":6,"covered":"no","fee":"","operator":"","nameSource":"junction"},"sourceId":"osm"},{"id":"osm:node:854754728","latitude":53.4163923,"longitude":-6.4644455,"name":"Dunboyne Bridge near L2228","properties":{"access":"unknown","bicycle_pa":"","capacity":10,"covered":"yes","fee":"","operator":"","nameSource":"junction"},"sourceId":"osm"},{"id":"osm:node:854754732","latitude":53.4163344,"longitude":-6.4643517,"name":"Dunboyne Bridge near L2228","properties":{"access":"unknown","bicycle_pa":"","capacity":10,"covered":"yes","fee":"","operator":"","nameSource":"junction"},"sourceId":"osm"},{"id":"osm:node:854754884","latitude":53.4170575,"longitude":-6.4644762,"name":"Elton Grove by Dunboyne","properties":{"access":"unknown","bicycle_pa":"","capacity":40,"covered":"yes","fee":"","operator":"","nameSource":"landmark"},"sourceId":"osm"},{"id":"osm:way:1355210384","latitude":53.4195828,"longitude":-6.446077959999999,"name":"Clonee cycle parking","properties":{"access":"unknown","bicycle_pa":"","capacity":0,"covered":"","fee":"","operator":"","nameSource":"place"},"sourceId":"osm"},{"id":"osm:way:1355219268","latitude":53.4206735,"longitude":-6.4266803800000005,"name":"Clonee cycle parking","properties":{"access":"unknown","bicycle_pa":"","capacity":0,"covered":"","fee":"","operator":"","nameSource":"place"},"sourceId":"osm"},{"id":"osm:way:1374992343","latitude":53.38572165,"longitude":-6.4350703666666655,"name":"Royal Canal Way cycle parking","properties":{"access":"unknown","bicycle_pa":"shed","capacity":0,"covered":"","fee":"","operator":"","nameSource":"street"},"sourceId":"osm"},{"id":"osm:way:75795168","latitude":53.43498546666666,"longitude":-6.4691571,"name":"M3 Parkway cycle parking","properties":{"access":"unknown","bicycle_pa":"stands","capacity":0,"covered":"","fee":"","operator":"","nameSource":"landmark"},"sourceId":"osm"},{"id":"osm:way:76609278","latitude":53.43500445714285,"longitude":-6.4692615571428576,"name":"M3 Parkway cycle parking","properties":{"access":"unknown","bicycle_pa":"","capacity":0,"covered":"","fee":"","operator":"","nameSource":"landmark"},"sourceId":"osm"}],"schemaVersion":2}
