{"key":"12/1976/1601","points":[{"id":"osm:node:11280434657","latitude":36.5110588,"longitude":-6.2779569,"name":"Calle Caracoles near Calle Trille","properties":{"access":"yes","bicycle_pa":"stands","capacity":12,"covered":"no","fee":"no","operator":"","nameSource":"junction"},"sourceId":"osm"},{"id":"osm:node:11280434658","latitude":36.4993518,"longitude":-6.273965,"name":"Paseo Marítimo near Calle Sirenas","properties":{"access":"yes","bicycle_pa":"stands","capacity":20,"covered":"no","fee":"no","operator":"","nameSource":"junction"},"sourceId":"osm"},{"id":"osm:node:11281242902","latitude":36.4988276,"longitude":-6.2592442,"name":"Avenida Periodista Beatriz Cienfuegos cycle parking","properties":{"access":"yes","bicycle_pa":"stands","capacity":20,"covered":"no","fee":"no","operator":"","nameSource":"street"},"sourceId":"osm"},{"id":"osm:node:11281242903","latitude":36.4964712,"longitude":-6.2723796,"name":"Calle Almadraba near Paseo Marítimo","properties":{"access":"yes","bicycle_pa":"stands","capacity":20,"covered":"no","fee":"no","operator":"","nameSource":"junction"},"sourceId":"osm"},{"id":"osm:node:11281242904","latitude":36.4982813,"longitude":-6.2734606,"name":"Paseo Marítimo near Calle Nereidas","properties":{"access":"yes","bicycle_pa":"stands","capacity":12,"covered":"no","fee":"no","operator":"","nameSource":"junction"},"sourceId":"osm"},{"id":"osm:node:11281242905","latitude":36.5009285,"longitude":-6.2750819,"name":"Calle Neptuno near Paseo Marítimo","properties":{"access":"yes","bicycle_pa":"stands","capacity":10,"covered":"no","fee":"no","operator":"","nameSource":"junction"},"sourceId":"osm"},{"id":"osm:node:11281242906","latitude":36.5025467,"longitude":-6.2760169,"name":"Paseo Marítimo near Calle José García Agulló","properties":{"access":"yes","bicycle_pa":"stands","capacity":10,"covered":"no","fee":"no","operator":"","nameSource":"junction"},"sourceId":"osm"},{"id":"osm:node:11281242907","latitude":36.5042214,"longitude":-6.2772142,"name":"Paseo Marítimo near Calle Virgen de las Angustias","properties":{"access":"yes","bicycle_pa":"stands","capacity":10,"covered":"no","fee":"no","operator":"","nameSource":"junction"},"sourceId":"osm"},{"id":"osm:node:11281242908","latitude":36.5072607,"longitude":-6.2793372,"name":"Calle Amílcar Barca near Calle Brasil","properties":{"access":"yes","bicycle_pa":"stands","capacity":42,"covered":"no","fee":"no","operator":"","nameSource":"junction"},"sourceId":"osm"},{"id":"osm:node:11281242909","latitude":36.5083286,"longitude":-6.2800299,"name":"Calle Amílcar Barca near Calle Doctor Fleming","properties":{"access":"yes","bicycle_pa":"stands","capacity":20,"covered":"no","fee":"no","operator":"","nameSource":"junction"},"sourceId":"osm"},{"id":"osm:node:11281242910","latitude":36.5107568,"longitude":-6.2815965,"name":"Calle Amílcar Barca near Calle Raúl Calvo","properties":{"access":"yes","bicycle_pa":"stands","capacity":40,"covered":"no","fee":"no","operator":"","nameSource":"junction"},"sourceId":"osm"},{"id":"osm:node:11281242911","latitude":36.5141345,"longitude":-6.2834673,"name":"Calle Marianista Cubillo near Callejón del Blanco","properties":{"access":"yes","bicycle_pa":"stands","capacity":18,"covered":"no","fee":"no","operator":"","nameSource":"junction"},"sourceId":"osm"},{"id":"osm:node:11281242912","latitude":36.5176852,"longitude":-6.2850853,"name":"Plaza de Asdrúbal near Calle Santa Rafaela María","properties":{"access":"yes","bicycle_pa":"stands","capacity":8,"covered":"no","fee":"no","operator":"","nameSource":"junction"},"sourceId":"osm"},{"id":"osm:node:11281242913","latitude":36.5208904,"longitude":-6.2865216,"name":"Avenida Alcalde Manuel de la Pinta near Calle de la Granja San Ildefonso","properties":{"access":"yes","bicycle_pa":"stands","capacity":12,"covered":"no","fee":"no","operator":"","nameSource":"junction"},"sourceId":"osm"},{"id":"osm:node:11281242914","latitude":36.5211284,"longitude":-6.2866095,"name":"Avenida Alcalde Manuel de la Pinta near Calle de la Granja San Ildefonso","properties":{"access":"yes","bicycle_pa":"stands","capacity":10,"covered":"no","fee":"no","operator":"","nameSource":"junction"},"sourceId":"osm"},{"id":"osm:node:11281242915","latitude":36.5234091,"longitude":-6.2879934,"name":"Avenida Alcalde Manuel de la Pinta near Calle Santa María del Mar","properties":{"access":"yes","bicycle_pa":"stands","capacity":12,"covered":"no","fee":"no","operator":"","nameSource":"junction"},"sourceId":"osm"},{"id":"osm:node:11281476386","latitude":36.5256539,"longitude":-6.2877465,"name":"Plaza de la Constitución near Avenida Bahía Blanca","properties":{"access":"yes","bicycle_pa":"rack","capacity":13,"covered":"no","fee":"no","operator":"","nameSource":"junction"},"sourceId":"osm"},{"id":"osm:node:11283919767","latitude":36.5083569,"longitude":-6.2782665,"name":"Avenida Ana de Viya near Avenida Cayetano del Toro","properties":{"access":"yes","bicycle_pa":"stands","capacity":10,"covered":"no","fee":"no","operator":"","nameSource":"junction"},"sourceId":"osm"},{"id":"osm:node:11283935292","latitude":36.5252397,"longitude":-6.2886133,"name":"Calle Barcelona near Calle Santa María del Mar","properties":{"access":"yes","bicycle_pa":"stands","capacity":8,"covered":"no","fee":"no","operator":"","nameSource":"junction"},"sourceId":"osm"},{"id":"osm:node:11283935293","latitude":36.5238493,"longitude":-6.2870376,"name":"Calle Santa Cruz de Tenerife near Avenida de Andalucía","properties":{"access":"yes","bicycle_pa":"stands","capacity":8,"covered":"no","fee":"no","operator":"","nameSource":"junction"},"sourceId":"osm"},{"id":"osm:node:11283935294","latitude":36.5188998,"longitude":-6.2839923,"name":"Calle Josefa Zapata near Avenida de Andalucía","properties":{"access":"yes","bicycle_pa":"stands","capacity":10,"covered":"no","fee":"no","operator":"","nameSource":"junction"},"sourceId":"osm"},{"id":"osm:node:11283935295","latitude":36.5184625,"longitude":-6.2839843,"name":"Avenida de Andalucía near Calle del Doctor Gómez Plana","properties":{"access":"yes","bicycle_pa":"stands","capacity":10,"covered":"no","fee":"no","operator":"","nameSource":"junction"},"sourceId":"osm"},{"id":"osm:node:11283935296","latitude":36.5176463,"longitude":-6.2813725,"name":"Avenida de la Constitución de 1812 near Calle del Pueblo Gitano","properties":{"access":"yes","bicycle_pa":"stands","capacity":10,"covered":"no","fee":"no","operator":"","nameSource":"junction"},"sourceId":"osm"},{"id":"osm:node:11283935297","latitude":36.51763,"longitude":-6.281449,"name":"Avenida de la Constitución de 1812 near Calle del Pueblo Gitano","properties":{"access":"yes","bicycle_pa":"stands","capacity":10,"covered":"no","fee":"no","operator":"","nameSource":"junction"},"sourceId":"osm"},{"id":"osm:node:11283935298","latitude":36.5163251,"longitude":-6.2828383,"name":"Calle Guillermo Chaminade near Avenida de Andalucía","properties":{"access":"yes","bicycle_pa":"stands","capacity":8,"covered":"no","fee":"no","operator":"","nameSource":"junction"},"sourceId":"osm"},{"id":"osm:node:11283935304","latitude":36.5149872,"longitude":-6.2820932,"name":"Avenida de Andalucía near Calle Parlamento","properties":{"access":"yes","bicycle_pa":"stands","capacity":12,"covered":"no","fee":"no","operator":"","nameSource":"junction"},"sourceId":"osm"},{"id":"osm:node:11283935305","latitude":36.5130224,"longitude":-6.2796894,"name":"Calle Tritón near Avenida María Auxiliadora","properties":{"access":"yes","bicycle_pa":"stands","capacity":8,"covered":"no","fee":"no","operator":"","nameSource":"junction"},"sourceId":"osm"},{"id":"osm:node:11283935306","latitude":36.5126205,"longitude":-6.2791119,"name":"Avenida María Auxiliadora near Calle Tarsis","properties":{"access":"yes","bicycle_pa":"stands","capacity":8,"covered":"no","fee":"no","operator":"","nameSource":"junction"},"sourceId":"osm"},{"id":"osm:node:11283935307","latitude":36.5114772,"longitude":-6.2798068,"name":"Avenida Ana de Viya near Calle Gerión","properties":{"access":"yes","bicycle_pa":"stands","capacity":4,"covered":"no","fee":"no","operator":"","nameSource":"junction"},"sourceId":"osm"},{"id":"osm:node:11283935308","latitude":36.5112762,"longitude":-6.2793974,"name":"Avenida Ana de Viya near Calle Drago","properties":{"access":"yes","bicycle_pa":"stands","capacity":6,"covered":"no","fee":"no","operator":"","nameSource":"junction"},"sourceId":"osm"},{"id":"osm:node:11283935309","latitude":36.5111187,"longitude":-6.2791281,"name":"Calle de los Balbos near Calle Drago","properties":{"access":"yes","bicycle_pa":"stands","capacity":8,"covered":"no","fee":"no","operator":"","nameSource":"junction"},"sourceId":"osm"},{"id":"osm:node:11283935310","latitude":36.509951,"longitude":-6.2791413,"name":"Avenida Ana de Viya near Calle Dr. Juan Bartual Pastor","properties":{"access":"yes","bicycle_pa":"stands","capacity":12,"covered":"no","fee":"no","operator":"","nameSource":"junction"},"sourceId":"osm"},{"id":"osm:node:11283935311","latitude":36.5091907,"longitude":-6.2784366,"name":"Avenida Ana de Viya near Calle Doctor Fleming","properties":{"access":"yes","bicycle_pa":"stands","capacity":2,"covered":"no","fee":"no","operator":"","nameSource":"junction"},"sourceId":"osm"},{"id":"osm:node:11283935312","latitude":36.5091709,"longitude":-6.2784225,"name":"Avenida Ana de Viya near Calle Doctor Fleming","properties":{"access":"yes","bicycle_pa":"rack","capacity":15,"covered":"no","fee":"no","operator":"","nameSource":"junction"},"sourceId":"osm"},{"id":"osm:node:11283935313","latitude":36.5091517,"longitude":-6.2784099,"name":"Avenida Ana de Viya near Calle Doctor Fleming","properties":{"access":"yes","bicycle_pa":"stands","capacity":2,"covered":"no","fee":"no","operator":"","nameSource":"junction"},"sourceId":"osm"},{"id":"osm:node:11284633687","latitude":36.5081492,"longitude":-6.2766548,"name":"Calle Murillo near Calle Pintor Zuloaga","properties":{"access":"yes","bicycle_pa":"stands","capacity":10,"covered":"no","fee":"no","operator":"","nameSource":"junction"},"sourceId":"osm"},{"id":"osm:node:11284633688","latitude":36.5075213,"longitude":-6.2764828,"name":"Calle Madrazo near Calle Pintor Zuloaga","properties":{"access":"yes","bicycle_pa":"stands","capacity":8,"covered":"no","fee":"no","operator":"","nameSource":"junction"},"sourceId":"osm"},{"id":"osm:node:11284633689","latitude":36.5061206,"longitude":-6.2767429,"name":"Avenida Cayetano del Toro near Calle Alonso Cano","properties":{"access":"yes","bicycle_pa":"stands","capacity":8,"covered":"no","fee":"no","operator":"","nameSource":"junction"},"sourceId":"osm"},{"id":"osm:node:11284633690","latitude":36.5060107,"longitude":-6.2770326,"name":"Glorieta Ana Orantes near Calle General Muñoz Arenillas","properties":{"access":"yes","bicycle_pa":"stands","capacity":8,"covered":"no","fee":"no","operator":"","nameSource":"junction"},"sourceId":"osm"},{"id":"osm:node:11285025199","latitude":36.5048488,"longitude":-6.274509,"name":"Calle El Greco near Calle Pintor Zuloaga","properties":{"access":"yes","bicycle_pa":"stands","capacity":10,"covered":"no","fee":"no","operator":"","nameSource":"junction"},"sourceId":"osm"},{"id":"osm:node:11286453153","latitude":36.5129551,"longitude":-6.2774332,"name":"Calle Soleá near Calle Mirabrás","properties":{"access":"yes","bicycle_pa":"rack","capacity":9,"covered":"","fee":"no","operator":"","nameSource":"junction"},"sourceId":"osm"},{"id":"osm:node:11286463110","latitude":36.5243716,"longitude":-6.2870239,"name":"Avenida de Andalucía near Calle de la Virgen del Perpetuo Socorro","properties":{"access":"yes","bicycle_pa":"rack","capacity":10,"covered":"no","fee":"no","operator":"","nameSource":"junction"},"sourceId":"osm"},{"id":"osm:node:11286646254","latitude":36.5031572,"longitude":-6.2741282,"name":"Plaza de Madrid near Calle Pintor Zuloaga","properties":{"access":"yes","bicycle_pa":"stands","capacity":8,"covered":"no","fee":"no","operator":"","nameSource":"junction"},"sourceId":"osm"},{"id":"osm:node:11286646255","latitude":36.5026717,"longitude":-6.2740506,"name":"Plaza de Madrid near Calle Pintor Zuloaga","properties":{"access":"yes","bicycle_pa":"stands","capacity":8,"covered":"no","fee":"no","operator":"","nameSource":"junction"},"sourceId":"osm"},{"id":"osm:node:11286828709","latitude":36.5016054,"longitude":-6.2739882,"name":"Avenida Cayetano del Toro near Glorieta Helios","properties":{"access":"yes","bicycle_pa":"rack","capacity":20,"covered":"no","fee":"no","operator":"","nameSource":"junction"},"sourceId":"osm"},{"id":"osm:node:11286828710","latitude":36.5015764,"longitude":-6.2739734,"name":"Avenida Cayetano del Toro near Glorieta Helios","properties":{"access":"yes","bicycle_pa":"rack","capacity":20,"covered":"no","fee":"no","operator":"","nameSource":"junction"},"sourceId":"osm"},{"id":"osm:node:11286857337","latitude":36.5012339,"longitude":-6.2728841,"name":"Plaza Telegrafía Sin Hilos cycle parking","properties":{"access":"yes","bicycle_pa":"stands","capacity":10,"covered":"no","fee":"no","operator":"","nameSource":"street"},"sourceId":"osm"},{"id":"osm:node:11286857338","latitude":36.500477,"longitude":-6.2724183,"name":"Plaza Telegrafía Sin Hilos by Instituto de Educación Secundaria Bahía de Cádiz","properties":{"access":"yes","bicycle_pa":"stands","capacity":10,"covered":"no","fee":"no","operator":"","nameSource":"landmark"},"sourceId":"osm"},{"id":"osm:node:11286872267","latitude":36.4975527,"longitude":-6.2716028,"name":"Calle Zarza near Avenida Periodista Beatriz Cienfuegos","properties":{"access":"yes","bicycle_pa":"stands","capacity":6,"covered":"no","fee":"no","operator":"","nameSource":"junction"},"sourceId":"osm"},{"id":"osm:node:11286872268","latitude":36.4975579,"longitude":-6.2715771,"name":"Calle Zarza near Avenida Periodista Beatriz Cienfuegos","properties":{"access":"yes","bicycle_pa":"rack","capacity":13,"covered":"yes","fee":"no","operator":"","nameSource":"junction"},"sourceId":"osm"},{"id":"osm:node:11288960820","latitude":36.5142091,"longitude":-6.2778266,"name":"Avenida de Portugal near Plazuela Lisboa","properties":{"access":"yes","bicycle_pa":"stands","capacity":10,"covered":"no","fee":"no","operator":"","nameSource":"junction"},"sourceId":"osm"},{"id":"osm:node:11288960821","latitude":36.5134846,"longitude":-6.2772198,"name":"Avenida de la Sanidad Pública near Calle Soleá","properties":{"access":"yes","bicycle_pa":"stands","capacity":10,"covered":"no","fee":"no","operator":"","nameSource":"junction"},"sourceId":"osm"},{"id":"osm:node:11288960822","latitude":36.5131151,"longitude":-6.2773851,"name":"Calle Soleá near Calle Mirabrás","properties":{"access":"yes","bicycle_pa":"stands","capacity":10,"covered":"no","fee":"no","operator":"","nameSource":"junction"},"sourceId":"osm"},{"id":"osm:node:11289029614","latitude":36.5221411,"longitude":-6.2781229,"name":"Avenida de las Cortes de Cádiz near Calle Segismundo Moret","properties":{"access":"yes","bicycle_pa":"stands","capacity":10,"covered":"no","fee":"no","operator":"","nameSource":"junction"},"sourceId":"osm"},{"id":"osm:node:11289062291","latitude":36.5210114,"longitude":-6.2760401,"name":"Avenida de las Cortes de Cádiz near Rotonda Miguel Ángel Blanco","properties":{"access":"yes","bicycle_pa":"stands","capacity":12,"covered":"no","fee":"no","operator":"","nameSource":"junction"},"sourceId":"osm"},{"id":"osm:node:11289069407","latitude":36.520044,"longitude":-6.2772187,"name":"Avenida de Huelva near Pasaje Corrales","properties":{"access":"yes","bicycle_pa":"stands","capacity":10,"covered":"no","fee":"no","operator":"","nameSource":"junction"},"sourceId":"osm"},{"id":"osm:node:11289071312","latitude":36.5197353,"longitude":-6.278078,"name":"Avenida San Severiano near Avenida del Guadalquivir","properties":{"access":"yes","bicycle_pa":"stands","capacity":12,"covered":"no","fee":"no","operator":"","nameSource":"junction"},"sourceId":"osm"},{"id":"osm:node:11289111370","latitude":36.5159188,"longitude":-6.2765921,"name":"Avenida San Severiano near Calle Catarroja","properties":{"access":"yes","bicycle_pa":"stands","capacity":8,"covered":"no","fee":"no","operator":"","nameSource":"junction"},"sourceId":"osm"},{"id":"osm:node:11289111371","latitude":36.5159188,"longitude":-6.2766073,"name":"Avenida San Severiano near Calle Catarroja","properties":{"access":"yes","bicycle_pa":"rack","capacity":21,"covered":"no","fee":"no","operator":"","nameSource":"junction"},"sourceId":"osm"},{"id":"osm:node:11291248530","latitude":36.5138868,"longitude":-6.2773349,"name":"Calle San Juan Bosco by Jardines Víctimas de la Talidomida","properties":{"access":"yes","bicycle_pa":"stands","capacity":16,"covered":"no","fee":"no","operator":"","nameSource":"landmark"},"sourceId":"osm"},{"id":"osm:node:11291256170","latitude":36.5201177,"longitude":-6.2781112,"name":"Calle Levante by Mercadona","properties":{"access":"yes","bicycle_pa":"stands","capacity":8,"covered":"no","fee":"no","operator":"","nameSource":"landmark"},"sourceId":"osm"},{"id":"osm:node:11291974276","latitude":36.5138442,"longitude":-6.2779407,"name":"Calle San Juan Bosco near Calle García Carrera","properties":{"access":"yes","bicycle_pa":"stands","capacity":10,"covered":"no","fee":"no","operator":"","nameSource":"junction"},"sourceId":"osm"},{"id":"osm:node:11291992912","latitude":36.513331,"longitude":-6.2781598,"name":"Calle García Carrera near Calle San Juan Bosco","properties":{"access":"yes","bicycle_pa":"stands","capacity":11,"covered":"no","fee":"no","operator":"","nameSource":"junction"},"sourceId":"osm"},{"id":"osm:node:11291992913","latitude":36.513314,"longitude":-6.2782115,"name":"Calle García Carrera near Calle San Juan Bosco","properties":{"access":"yes","bicycle_pa":"stands","capacity":11,"covered":"no","fee":"no","operator":"","nameSource":"junction"},"sourceId":"osm"},{"id":"osm:node:11295539827","latitude":36.5183517,"longitude":-6.2778795,"name":"Avenida San Severiano near Calle Mercedes Formica","properties":{"access":"yes","bicycle_pa":"stands","capacity":12,"covered":"no","fee":"no","operator":"","nameSource":"junction"},"sourceId":"osm"},{"id":"osm:node:11300476309","latitude":36.5095234,"longitude":-6.2750128,"name":"Avenida Segunda Aguada near Avenida de la Sanidad Pública","properties":{"access":"yes","bicycle_pa":"stands","capacity":14,"covered":"no","fee":"no","operator":"","nameSource":"junction"},"sourceId":"osm"},{"id":"osm:node:11300491984","latitude":36.5050708,"longitude":-6.2731463,"name":"Avenida de la Sanidad Pública near Plaza La Fuente","properties":{"access":"yes","bicycle_pa":"stands","capacity":8,"covered":"no","fee":"no","operator":"","nameSource":"junction"},"sourceId":"osm"},{"id":"osm:node:11300502673","latitude":36.5033385,"longitude":-6.2725138,"name":"Avenida de la Sanidad Pública near Calle Juan Sebastián Elcano","properties":{"access":"yes","bicycle_pa":"stands","capacity":8,"covered":"no","fee":"no","operator":"","nameSource":"junction"},"sourceId":"osm"},{"id":"osm:node:11300555001","latitude":36.5000582,"longitude":-6.2719382,"name":"Avenida de A Coruña near Calle de la Adelfa","properties":{"access":"yes","bicycle_pa":"stands","capacity":12,"covered":"no","fee":"no","operator":"","nameSource":"junction"},"sourceId":"osm"},{"id":"osm:node:11310138277","latitude":36.5079493,"longitude":-6.2745997,"name":"Patio de Santa Teresa near Avenida Marconi","properties":{"access":"yes","bicycle_pa":"stands","capacity":8,"covered":"no","fee":"no","operator":"","nameSource":"junction"},"sourceId":"osm"},{"id":"osm:node:11310144284","latitude":36.5128523,"longitude":-6.2747906,"name":"Avenida de Perú near Calle Amiel","properties":{"access":"yes","bicycle_pa":"stands","capacity":20,"covered":"no","fee":"no","operator":"","nameSource":"junction"},"sourceId":"osm"},{"id":"osm:node:11328061540","latitude":36.5187465,"longitude":-6.2794679,"name":"Avenida de la Constitución de 1812 near Avenida de la Sanidad Pública","properties":{"access":"yes","bicycle_pa":"stands","capacity":6,"covered":"no","fee":"no","operator":"","nameSource":"junction"},"sourceId":"osm"},{"id":"osm:node:11331483656","latitude":36.5110244,"longitude":-6.2741571,"name":"Avenida Segunda Aguada near San Lucas","properties":{"access":"yes","bicycle_pa":"stands","capacity":10,"covered":"no","fee":"no","operator":"","nameSource":"junction"},"sourceId":"osm"},{"id":"osm:node:11331490072","latitude":36.5185556,"longitude":-6.2798795,"name":"Avenida de la Constitución de 1812 near Avenida de la Sanidad Pública","properties":{"access":"yes","bicycle_pa":"stands","capacity":6,"covered":"no","fee":"no","operator":"","nameSource":"junction"},"sourceId":"osm"},{"id":"osm:node:11333397247","latitude":36.5082799,"longitude":-6.2737893,"name":"Calle Setenil de las Bodegas near Calle Victoria Martín Barhié","properties":{"access":"yes","bicycle_pa":"stands","capacity":10,"covered":"no","fee":"no","operator":"","nameSource":"junction"},"sourceId":"osm"},{"id":"osm:node:11336753060","latitude":36.5247333,"longitude":-6.2864472,"name":"Calle Acacias near Calle Jacintos","properties":{"access":"yes","bicycle_pa":"rack","capacity":5,"covered":"no","fee":"no","operator":"","nameSource":"junction"},"sourceId":"osm"},{"id":"osm:node:11336769490","latitude":36.5105634,"longitude":-6.2760593,"name":"Calle Salvador del Mundo near Avenida de la Sanidad Pública","properties":{"access":"unknown","bicycle_pa":"stands","capacity":6,"covered":"no","fee":"no","operator":"","nameSource":"junction"},"sourceId":"osm"},{"id":"osm:node:11341367676","latitude":36.5034304,"longitude":-6.2746526,"name":"Plaza Becqer near Calle Pintor Godoy","properties":{"access":"yes","bicycle_pa":"stands","capacity":16,"covered":"no","fee":"no","operator":"","nameSource":"junction"},"sourceId":"osm"},{"id":"osm:node:11348952941","latitude":36.4974875,"longitude":-6.271543,"name":"Calle Zarza near Avenida Periodista Beatriz Cienfuegos","properties":{"access":"yes","bicycle_pa":"stands","capacity":14,"covered":"no","fee":"no","operator":"","nameSource":"junction"},"sourceId":"osm"},{"id":"osm:node:11359618065","latitude":36.5086605,"longitude":-6.2787858,"name":"Calle Uruguay near Calle Doctor Fleming","properties":{"access":"yes","bicycle_pa":"rack","capacity":16,"covered":"no","fee":"no","operator":"","nameSource":"junction"},"sourceId":"osm"},{"id":"osm:node:12009748310","latitude":36.5115687,"longitude":-6.2763114,"name":"Avenida de la Sanidad Pública near Calle Trille","properties":{"access":"yes","bicycle_pa":"stands","capacity":16,"covered":"no","fee":"no","operator":"","nameSource":"junction"},"sourceId":"osm"},{"id":"osm:node:12063244846","latitude":36.5114119,"longitude":-6.2717615,"name":"Calle Arillo cycle parking","properties":{"access":"unknown","bicycle_pa":"stands","capacity":0,"covered":"no","fee":"","operator":"","nameSource":"street"},"sourceId":"osm"},{"id":"osm:node:12063277252","latitude":36.5112082,"longitude":-6.2718409,"name":"Avenida del Guadalete near Avenida del Guadalquivir","properties":{"access":"unknown","bicycle_pa":"stands","capacity":0,"covered":"no","fee":"","operator":"","nameSource":"junction"},"sourceId":"osm"},{"id":"osm:node:12063290152","latitude":36.5116815,"longitude":-6.2711476,"name":"Palmones cycle parking","properties":{"access":"unknown","bicycle_pa":"stands","capacity":0,"covered":"no","fee":"","operator":"","nameSource":"street"},"sourceId":"osm"},{"id":"osm:node:12549628415","latitude":36.4991564,"longitude":-6.2710098,"name":"Plaza Jerez de la Frontera by Adelfa","properties":{"access":"unknown","bicycle_pa":"stands","capacity":16,"covered":"no","fee":"","operator":"","nameSource":"landmark"},"sourceId":"osm"},{"id":"osm:node:12572257797","latitude":36.5064058,"longitude":-6.2661247,"name":"Calle Mojarra near Plaza San Lorenzo del Puntal","properties":{"access":"unknown","bicycle_pa":"stands","capacity":5,"covered":"","fee":"","operator":"","nameSource":"junction"},"sourceId":"osm"},{"id":"osm:node:12572257798","latitude":36.5076377,"longitude":-6.2658372,"name":"Calle Áncora near Calle Eloísa Malcampo O'Farrell","properties":{"access":"unknown","bicycle_pa":"stands","capacity":5,"covered":"","fee":"","operator":"","nameSource":"junction"},"sourceId":"osm"},{"id":"osm:node:12572257799","latitude":36.5070349,"longitude":-6.2661745,"name":"Calle Arenal near Plaza San Lorenzo del Puntal","properties":{"access":"unknown","bicycle_pa":"stands","capacity":5,"covered":"","fee":"","operator":"","nameSource":"junction"},"sourceId":"osm"},{"id":"osm:node:13180676602","latitude":36.5031053,"longitude":-6.2763886,"name":"Paseo Marítimo by Woodstock bar","properties":{"access":"unknown","bicycle_pa":"stands","capacity":12,"covered":"no","fee":"","operator":"","nameSource":"landmark"},"sourceId":"osm"},{"id":"osm:node:13386174503","latitude":36.5204524,"longitude":-6.2748402,"name":"Avenida de la Bahía near Rotonda Miguel Ángel Blanco","properties":{"access":"unknown","bicycle_pa":"","capacity":0,"covered":"","fee":"","operator":"","nameSource":"junction"},"sourceId":"osm"},{"id":"osm:node:13386228801","latitude":36.5233425,"longitude":-6.2780428,"name":"Calle Emilio Castelar near Calle América","properties":{"access":"unknown","bicycle_pa":"","capacity":0,"covered":"","fee":"","operator":"","nameSource":"junction"},"sourceId":"osm"},{"id":"osm:node:3005477346","latitude":36.5060888,"longitude":-6.2769316,"name":"Avenida Cayetano del Toro near Calle Alonso Cano","properties":{"access":"unknown","bicycle_pa":"wall_loops","capacity":0,"covered":"no","fee":"","operator":"","nameSource":"junction"},"sourceId":"osm"},{"id":"osm:node:4338613428","latitude":36.5074995,"longitude":-6.2781567,"name":"Calle General Muñoz Arenillas near Calle Brasil","properties":{"access":"unknown","bicycle_pa":"","capacity":0,"covered":"","fee":"","operator":"","nameSource":"junction"},"sourceId":"osm"},{"id":"osm:node:7063213232","latitude":36.5237519,"longitude":-6.2802954,"name":"Avenida de las Cortes de Cádiz near Avenida de los Astilleros","properties":{"access":"yes","bicycle_pa":"bollard","capacity":5,"covered":"no","fee":"no","operator":"","nameSource":"junction"},"sourceId":"osm"},{"id":"osm:node:7063213249","latitude":36.5241091,"longitude":-6.2765418,"name":"Paseo Juan Arenal Plat near Calle Infanta Leonor","properties":{"access":"yes","bicycle_pa":"bollard","capacity":5,"covered":"no","fee":"no","operator":"","nameSource":"junction"},"sourceId":"osm"},{"id":"osm:node:7069250819","latitude":36.5212942,"longitude":-6.2806893,"name":"Plaza Cigarrera Micaela de Castro by San Severiano","properties":{"access":"yes","bicycle_pa":"stands","capacity":10,"covered":"no","fee":"no","operator":"","nameSource":"landmark"},"sourceId":"osm"},{"id":"osm:node:9557657201","latitude":36.5062059,"longitude":-6.2685511,"name":"Avenida de la Ilustración cycle parking","properties":{"access":"unknown","bicycle_pa":"stands","capacity":0,"covered":"no","fee":"no","operator":"","nameSource":"street"},"sourceId":"osm"},{"id":"osm:way:746933739","latitude":36.52686715555555,"longitude":-6.285020655555555,"name":"Estación de Autobuses near Avenida de Astilleros","properties":{"access":"unknown","bicycle_pa":"","capacity":0,"covered":"no","fee":"no","operator":"","nameSource":"junction"},"sourceId":"osm"}],"schemaVersion":2}
