{"key":"12/2004/1497","points":[{"id":"osm:node:10083513516","latitude":43.4691215,"longitude":-3.7847629,"name":"Calle de Joaquín Costa cycle parking","properties":{"access":"yes","bicycle_pa":"stands","capacity":0,"covered":"no","fee":"no","operator":"Ayuntamiento de Santander","nameSource":"street"},"sourceId":"osm"},{"id":"osm:node:10083521738","latitude":43.4713483,"longitude":-3.781906,"name":"Joaquín Costa","properties":{"access":"customers","bicycle_pa":"lockers","capacity":10,"covered":"yes","fee":"yes","operator":"Ayuntamiento de Santander","nameSource":"source"},"sourceId":"osm"},{"id":"osm:node:10083547283","latitude":43.466446,"longitude":-3.7901028,"name":"Calle de Tetuán near Calle Barrio Camino","properties":{"access":"yes","bicycle_pa":"stands","capacity":0,"covered":"no","fee":"no","operator":"Ayuntamiento de Santander","nameSource":"junction"},"sourceId":"osm"},{"id":"osm:node:10593518882","latitude":43.4612243,"longitude":-3.8063781,"name":"Calle de Somorrostro near Plaza de Alfonso XIII","properties":{"access":"unknown","bicycle_pa":"stands","capacity":4,"covered":"no","fee":"","operator":"","nameSource":"junction"},"sourceId":"osm"},{"id":"osm:node:10593526124","latitude":43.4617474,"longitude":-3.8176867,"name":"Calle Magallanes near Plaza de Numancia","properties":{"access":"unknown","bicycle_pa":"stands","capacity":12,"covered":"","fee":"","operator":"","nameSource":"junction"},"sourceId":"osm"},{"id":"osm:node:10593529724","latitude":43.4608861,"longitude":-3.8178371,"name":"Plaza Numancia","properties":{"access":"customers","bicycle_pa":"lockers","capacity":10,"covered":"yes","fee":"yes","operator":"Ayuntamiento de Santander","nameSource":"source"},"sourceId":"osm"},{"id":"osm:node:10593535961","latitude":43.4615596,"longitude":-3.8141713,"name":"Calle Burgos by Tezenis","properties":{"access":"unknown","bicycle_pa":"stands","capacity":4,"covered":"no","fee":"","operator":"","nameSource":"landmark"},"sourceId":"osm"},{"id":"osm:node:10593541242","latitude":43.4600504,"longitude":-3.8080139,"name":"Calle Lealtad near Calle de Cádiz","properties":{"access":"unknown","bicycle_pa":"stands","capacity":4,"covered":"no","fee":"","operator":"","nameSource":"junction"},"sourceId":"osm"},{"id":"osm:node:10593695124","latitude":43.461679,"longitude":-3.8060229,"name":"Plaza de Velarde near Calle de Ataúlfo Argenta","properties":{"access":"unknown","bicycle_pa":"stands","capacity":4,"covered":"no","fee":"","operator":"","nameSource":"junction"},"sourceId":"osm"},{"id":"osm:node:10596358925","latitude":43.4621716,"longitude":-3.808544,"name":"Calle de Juan de Herrera near Calle Lealtad","properties":{"access":"unknown","bicycle_pa":"stands","capacity":6,"covered":"no","fee":"","operator":"","nameSource":"junction"},"sourceId":"osm"},{"id":"osm:node:10596362522","latitude":43.462509,"longitude":-3.8053612,"name":"Plaza del Príncipe near Calle de San José","properties":{"access":"unknown","bicycle_pa":"stands","capacity":6,"covered":"no","fee":"","operator":"","nameSource":"junction"},"sourceId":"osm"},{"id":"osm:node:10600884217","latitude":43.4600947,"longitude":-3.8203301,"name":"Alameda de Oviedo by ING","properties":{"access":"unknown","bicycle_pa":"stands","capacity":0,"covered":"","fee":"","operator":"","nameSource":"landmark"},"sourceId":"osm"},{"id":"osm:node:10606759271","latitude":43.463755,"longitude":-3.8058006,"name":"Plaza de la Universidad near Calle de Alsedo Bustamante","properties":{"access":"unknown","bicycle_pa":"stands","capacity":6,"covered":"no","fee":"","operator":"","nameSource":"junction"},"sourceId":"osm"},{"id":"osm:node:10606771388","latitude":43.4635752,"longitude":-3.8077248,"name":"Calle de Santa Clara near Calle de Guevara","properties":{"access":"unknown","bicycle_pa":"stands","capacity":6,"covered":"","fee":"","operator":"","nameSource":"junction"},"sourceId":"osm"},{"id":"osm:node:10766224125","latitude":43.463504,"longitude":-3.8233196,"name":"Paseo de Altamira near Avenida de José Hierro","properties":{"access":"unknown","bicycle_pa":"stands","capacity":10,"covered":"","fee":"","operator":"","nameSource":"junction"},"sourceId":"osm"},{"id":"osm:node:10925739790","latitude":43.462358,"longitude":-3.8055174,"name":"Calle Hernán Cortés","properties":{"access":"customers","bicycle_pa":"lockers","capacity":8,"covered":"yes","fee":"yes","operator":"Ayuntamiento de Santander","nameSource":"source"},"sourceId":"osm"},{"id":"osm:node:10997758090","latitude":43.4548557,"longitude":-3.8296617,"name":"Valdecilla Sur","properties":{"access":"customers","bicycle_pa":"lockers","capacity":20,"covered":"yes","fee":"yes","operator":"Ayuntamiento de Santander","nameSource":"source"},"sourceId":"osm"},{"id":"osm:node:10997758091","latitude":43.4582919,"longitude":-3.8406145,"name":"Plaza Manuel Llano","properties":{"access":"customers","bicycle_pa":"lockers","capacity":10,"covered":"yes","fee":"yes","operator":"Ayuntamiento de Santander","nameSource":"source"},"sourceId":"osm"},{"id":"osm:node:10997758802","latitude":43.4541765,"longitude":-3.8146578,"name":"Biblioteca Central de Cantabria","properties":{"access":"customers","bicycle_pa":"lockers","capacity":10,"covered":"yes","fee":"yes","operator":"Ayuntamiento de Santander","nameSource":"source"},"sourceId":"osm"},{"id":"osm:node:11002836986","latitude":43.4629473,"longitude":-3.79698,"name":"Puertochico","properties":{"access":"customers","bicycle_pa":"lockers","capacity":10,"covered":"yes","fee":"yes","operator":"Ayuntamiento de Santander","nameSource":"source"},"sourceId":"osm"},{"id":"osm:node:11070567603","latitude":43.4626621,"longitude":-3.8040153,"name":"Plaza Morena near Calle de Bailén","properties":{"access":"yes","bicycle_pa":"lockers","capacity":0,"covered":"yes","fee":"","operator":"","nameSource":"junction"},"sourceId":"osm"},{"id":"osm:node:11102529226","latitude":43.4608885,"longitude":-3.8034066,"name":"Muelle de Albareda near Muelle de Maura","properties":{"access":"yes","bicycle_pa":"anchors","capacity":30,"covered":"no","fee":"no","operator":"","nameSource":"junction"},"sourceId":"osm"},{"id":"osm:node:11109077191","latitude":43.4812924,"longitude":-3.7957997,"name":"Calle de la Autonomía by Vegetal Oro","properties":{"access":"unknown","bicycle_pa":"","capacity":0,"covered":"","fee":"","operator":"","nameSource":"landmark"},"sourceId":"osm"},{"id":"osm:node:11134671586","latitude":43.4817776,"longitude":-3.8000064,"name":"Calle de José Pueyo by Mercadona","properties":{"access":"unknown","bicycle_pa":"","capacity":0,"covered":"","fee":"","operator":"","nameSource":"landmark"},"sourceId":"osm"},{"id":"osm:node:11236077630","latitude":43.4715746,"longitude":-3.799114,"name":"Avenida de los Castros by Centro de Estudios Rurales de Cantabria","properties":{"access":"unknown","bicycle_pa":"stands","capacity":4,"covered":"yes","fee":"","operator":"","nameSource":"landmark"},"sourceId":"osm"},{"id":"osm:node:12032675863","latitude":43.4902353,"longitude":-3.7910184,"name":"Avenida del Faro near Avenida del Faro Pintor Eduardo Sanz","properties":{"access":"yes","bicycle_pa":"building","capacity":0,"covered":"","fee":"no","operator":"","nameSource":"junction"},"sourceId":"osm"},{"id":"osm:node:12320431858","latitude":43.4800065,"longitude":-3.8007136,"name":"Calle La Pereda near Calle de Vallemier","properties":{"access":"unknown","bicycle_pa":"","capacity":0,"covered":"","fee":"","operator":"","nameSource":"junction"},"sourceId":"osm"},{"id":"osm:node:13152789555","latitude":43.4606555,"longitude":-3.8120037,"name":"Calle del Monte Caloca near Calle de Cobo de la Torre","properties":{"access":"yes","bicycle_pa":"stands","capacity":0,"covered":"no","fee":"no","operator":"","nameSource":"junction"},"sourceId":"osm"},{"id":"osm:node:13189110216","latitude":43.4754697,"longitude":-3.7923369,"name":"Avenida del Stadium near Calle del Real Racing Club","properties":{"access":"unknown","bicycle_pa":"","capacity":0,"covered":"","fee":"","operator":"","nameSource":"junction"},"sourceId":"osm"},{"id":"osm:node:13296464630","latitude":43.4636123,"longitude":-3.7820677,"name":"Avenida de Severiano Ballesteros cycle parking","properties":{"access":"unknown","bicycle_pa":"","capacity":10,"covered":"no","fee":"","operator":"","nameSource":"street"},"sourceId":"osm"},{"id":"osm:node:13568307117","latitude":43.4535298,"longitude":-3.814068,"name":"Calle de Juan de Santander cycle parking","properties":{"access":"unknown","bicycle_pa":"stands","capacity":10,"covered":"no","fee":"","operator":"","nameSource":"street"},"sourceId":"osm"},{"id":"osm:node:13613967669","latitude":43.458289,"longitude":-3.8105493,"name":"Calle de Atilano Rodríguez near Calle de Castilla","properties":{"access":"unknown","bicycle_pa":"building","capacity":0,"covered":"yes","fee":"","operator":"","nameSource":"junction"},"sourceId":"osm"},{"id":"osm:node:13614831476","latitude":43.4596327,"longitude":-3.8099232,"name":"11 by Orocan","properties":{"access":"unknown","bicycle_pa":"building","capacity":0,"covered":"","fee":"","operator":"","nameSource":"landmark"},"sourceId":"osm"},{"id":"osm:node:13614862830","latitude":43.4614961,"longitude":-3.8056018,"name":"Paseo de Pereda near Calle de Calvo Sotelo","properties":{"access":"unknown","bicycle_pa":"wall_loops","capacity":10,"covered":"no","fee":"","operator":"","nameSource":"junction"},"sourceId":"osm"},{"id":"osm:node:13628544442","latitude":43.4672666,"longitude":-3.7923544,"name":"Paseo de Menéndez Pelayo cycle parking","properties":{"access":"unknown","bicycle_pa":"wall_loops","capacity":6,"covered":"no","fee":"","operator":"","nameSource":"street"},"sourceId":"osm"},{"id":"osm:node:13630886027","latitude":43.4574349,"longitude":-3.8123421,"name":"Calle de Nicolás Salmerón near Calle de Castilla","properties":{"access":"unknown","bicycle_pa":"stands","capacity":8,"covered":"no","fee":"","operator":"","nameSource":"junction"},"sourceId":"osm"},{"id":"osm:node:13701010101","latitude":43.4717043,"longitude":-3.7811109,"name":"Plaza de Italia","properties":{"access":"unknown","bicycle_pa":"","capacity":8,"covered":"","fee":"","operator":"Ayuntamiento de Santander","nameSource":"source"},"sourceId":"osm"},{"id":"osm:node:4115906709","latitude":43.4584338,"longitude":-3.8229746,"name":"Calle Alta near Calle de la Democracia","properties":{"access":"unknown","bicycle_pa":"stands","capacity":8,"covered":"no","fee":"","operator":"","nameSource":"junction"},"sourceId":"osm"},{"id":"osm:node:4125607678","latitude":43.4634437,"longitude":-3.82936,"name":"Bajada del Caleruco by Centro de Educación Infantil y Primaria Manuel Llano","properties":{"access":"yes","bicycle_pa":"stands","capacity":6,"covered":"","fee":"no","operator":"","nameSource":"landmark"},"sourceId":"osm"},{"id":"osm:node:4269471632","latitude":43.4625071,"longitude":-3.8011696,"name":"Calle de Pancho Cossío near Calle de Ataúlfo Argenta","properties":{"access":"unknown","bicycle_pa":"stands","capacity":10,"covered":"no","fee":"","operator":"","nameSource":"junction"},"sourceId":"osm"},{"id":"osm:node:6109194393","latitude":43.4561434,"longitude":-3.8276768,"name":"Calle de Jerónimo Sainz de la Maza near Calle del Obispo Menéndez de Luarca","properties":{"access":"unknown","bicycle_pa":"","capacity":0,"covered":"","fee":"","operator":"","nameSource":"junction"},"sourceId":"osm"},{"id":"osm:node:6624640440","latitude":43.4623085,"longitude":-3.8040223,"name":"Calle de Ataúlfo Argenta near Calle de Bailén","properties":{"access":"yes","bicycle_pa":"anchors","capacity":6,"covered":"no","fee":"no","operator":"","nameSource":"junction"},"sourceId":"osm"},{"id":"osm:node:6638239491","latitude":43.4620596,"longitude":-3.8075282,"name":"Calle del Puente near Calle de Juan de Herrera","properties":{"access":"yes","bicycle_pa":"anchors","capacity":6,"covered":"no","fee":"no","operator":"","nameSource":"junction"},"sourceId":"osm"},{"id":"osm:node:6679687980","latitude":43.4621651,"longitude":-3.8086186,"name":"Calle de Juan de Herrera near Calle Lealtad","properties":{"access":"yes","bicycle_pa":"anchors","capacity":6,"covered":"no","fee":"no","operator":"","nameSource":"junction"},"sourceId":"osm"},{"id":"osm:node:7206740824","latitude":43.4758256,"longitude":-3.7946867,"name":"Calle del Alcalde Vega Lamera near Calle del Real Racing Club","properties":{"access":"unknown","bicycle_pa":"anchors","capacity":5,"covered":"no","fee":"","operator":"","nameSource":"junction"},"sourceId":"osm"},{"id":"osm:node:7551239168","latitude":43.4640696,"longitude":-3.8041968,"name":"Calle del Río de la Pila near Plaza del Río de la Pila","properties":{"access":"unknown","bicycle_pa":"stands","capacity":4,"covered":"no","fee":"","operator":"","nameSource":"junction"},"sourceId":"osm"},{"id":"osm:node:7574580868","latitude":43.4649549,"longitude":-3.8046885,"name":"Calle del Río de la Pila near Calle de Los Aguayos","properties":{"access":"unknown","bicycle_pa":"stands","capacity":4,"covered":"no","fee":"","operator":"","nameSource":"junction"},"sourceId":"osm"},{"id":"osm:node:7779456198","latitude":43.4572197,"longitude":-3.8290835,"name":"Calle del Padre Rábago near Avenida de Valdecilla","properties":{"access":"yes","bicycle_pa":"wall_loops","capacity":12,"covered":"no","fee":"no","operator":"","nameSource":"junction"},"sourceId":"osm"},{"id":"osm:node:7779456199","latitude":43.4562889,"longitude":-3.8312718,"name":"Avenida de Valdecilla near Glorieta de Eduardo García","properties":{"access":"unknown","bicycle_pa":"stands","capacity":0,"covered":"","fee":"","operator":"","nameSource":"junction"},"sourceId":"osm"},{"id":"osm:node:7880703957","latitude":43.4687334,"longitude":-3.8044599,"name":"Bajada de Rumayor near Calle de Fernando de los Ríos","properties":{"access":"unknown","bicycle_pa":"anchors","capacity":0,"covered":"no","fee":"","operator":"","nameSource":"junction"},"sourceId":"osm"},{"id":"osm:node:7925009181","latitude":43.4673206,"longitude":-3.8072298,"name":"Paseo de Altamira near Calle de Juan del Castillo","properties":{"access":"unknown","bicycle_pa":"","capacity":10,"covered":"yes","fee":"yes","operator":"","nameSource":"junction"},"sourceId":"osm"},{"id":"osm:node:822814561","latitude":43.476398,"longitude":-3.787991,"name":"Doctor Fleming","properties":{"access":"unknown","bicycle_pa":"stands","capacity":0,"covered":"no","fee":"","operator":"","nameSource":"source"},"sourceId":"osm"},{"id":"osm:node:843780785","latitude":43.462925,"longitude":-3.808792,"name":"Calle Rualasal - Hotel Colisem","properties":{"access":"unknown","bicycle_pa":"stands","capacity":4,"covered":"no","fee":"","operator":"","nameSource":"source"},"sourceId":"osm"},{"id":"osm:node:843780801","latitude":43.4639569,"longitude":-3.7807792,"name":"Playa de los Peligros","properties":{"access":"unknown","bicycle_pa":"stands","capacity":10,"covered":"no","fee":"","operator":"","nameSource":"source"},"sourceId":"osm"},{"id":"osm:node:843780809","latitude":43.471893,"longitude":-3.795209,"name":"UIMP","properties":{"access":"unknown","bicycle_pa":"stands","capacity":20,"covered":"no","fee":"","operator":"","nameSource":"source"},"sourceId":"osm"},{"id":"osm:node:843780829","latitude":43.470249,"longitude":-3.804121,"name":"Avenida de los Castros","properties":{"access":"unknown","bicycle_pa":"","capacity":16,"covered":"","fee":"","operator":"","nameSource":"source"},"sourceId":"osm"},{"id":"osm:node:843780845","latitude":43.4634487,"longitude":-3.8012753,"name":"Plaza Cañadio","properties":{"access":"unknown","bicycle_pa":"stands","capacity":10,"covered":"no","fee":"","operator":"","nameSource":"source"},"sourceId":"osm"},{"id":"osm:node:843780864","latitude":43.459187,"longitude":-3.810415,"name":"Plaza de las Estaciones","properties":{"access":"customers","bicycle_pa":"lockers","capacity":40,"covered":"yes","fee":"yes","operator":"Ayuntamiento de Santander","nameSource":"source"},"sourceId":"osm"},{"id":"osm:node:843780872","latitude":43.4704199,"longitude":-3.8051327,"name":"Pabellón del Gobierno","properties":{"access":"unknown","bicycle_pa":"","capacity":6,"covered":"","fee":"","operator":"","nameSource":"source"},"sourceId":"osm"},{"id":"osm:node:843780875","latitude":43.469902,"longitude":-3.80693,"name":"Avenida de los Castros","properties":{"access":"unknown","bicycle_pa":"","capacity":10,"covered":"","fee":"","operator":"","nameSource":"source"},"sourceId":"osm"},{"id":"osm:node:843780879","latitude":43.4627412,"longitude":-3.8074485,"name":"Calle Rualasal","properties":{"access":"unknown","bicycle_pa":"stands","capacity":4,"covered":"no","fee":"","operator":"","nameSource":"source"},"sourceId":"osm"},{"id":"osm:node:843780903","latitude":43.457371,"longitude":-3.861547,"name":"Carrefour del Alisal","properties":{"access":"unknown","bicycle_pa":"","capacity":6,"covered":"","fee":"","operator":"","nameSource":"source"},"sourceId":"osm"},{"id":"osm:node:843780924","latitude":43.4626321,"longitude":-3.8098066,"name":"Plaza de la Esperanza - Ayuntamiento","properties":{"access":"unknown","bicycle_pa":"stands","capacity":4,"covered":"no","fee":"","operator":"","nameSource":"source"},"sourceId":"osm"},{"id":"osm:node:843780928","latitude":43.474773,"longitude":-3.785505,"name":"Avenida de Fernandez Castañeda","properties":{"access":"unknown","bicycle_pa":"stands","capacity":44,"covered":"no","fee":"","operator":"","nameSource":"source"},"sourceId":"osm"},{"id":"osm:node:843780956","latitude":43.467055,"longitude":-3.8072851,"name":"Regimiento","properties":{"access":"customers","bicycle_pa":"lockers","capacity":10,"covered":"yes","fee":"yes","operator":"Ayuntamiento de Santander","nameSource":"source"},"sourceId":"osm"},{"id":"osm:node:843781020","latitude":43.471226,"longitude":-3.80102,"name":"Facultad de Ciencias","properties":{"access":"unknown","bicycle_pa":"stands","capacity":6,"covered":"no","fee":"","operator":"","nameSource":"source"},"sourceId":"osm"},{"id":"osm:node:843781021","latitude":43.470741,"longitude":-3.803036,"name":"Pabellón Polideportivo de la Universidad de Cantabria","properties":{"access":"unknown","bicycle_pa":"","capacity":6,"covered":"no","fee":"","operator":"","nameSource":"source"},"sourceId":"osm"},{"id":"osm:node:843781046","latitude":43.464245,"longitude":-3.80628,"name":"Calle Tantín","properties":{"access":"unknown","bicycle_pa":"stands","capacity":10,"covered":"no","fee":"","operator":"","nameSource":"source"},"sourceId":"osm"},{"id":"osm:node:843781059","latitude":43.475182,"longitude":-3.785804,"name":"Segunda playa de El Sardinero","properties":{"access":"unknown","bicycle_pa":"stands","capacity":30,"covered":"no","fee":"","operator":"","nameSource":"source"},"sourceId":"osm"},{"id":"osm:node:843781062","latitude":43.4716025,"longitude":-3.7984696,"name":"Escuela de Ingenieros de Caminos","properties":{"access":"unknown","bicycle_pa":"","capacity":12,"covered":"","fee":"","operator":"","nameSource":"source"},"sourceId":"osm"},{"id":"osm:node:843781079","latitude":43.46534,"longitude":-3.817565,"name":"Paseo de Altamira","properties":{"access":"yes","bicycle_pa":"","capacity":3,"covered":"no","fee":"no","operator":"","nameSource":"source"},"sourceId":"osm"},{"id":"osm:node:843781089","latitude":43.455791,"longitude":-3.86413,"name":"Decathlon","properties":{"access":"unknown","bicycle_pa":"wall_loops","capacity":5,"covered":"yes","fee":"","operator":"","nameSource":"source"},"sourceId":"osm"},{"id":"osm:node:843781099","latitude":43.4595988,"longitude":-3.8095606,"name":"Estación de Autobuses de Santander","properties":{"access":"unknown","bicycle_pa":"stands","capacity":12,"covered":"no","fee":"","operator":"","nameSource":"source"},"sourceId":"osm"},{"id":"osm:node:843781107","latitude":43.47047,"longitude":-3.802749,"name":"Avenida de los Castros","properties":{"access":"unknown","bicycle_pa":"","capacity":20,"covered":"","fee":"","operator":"","nameSource":"source"},"sourceId":"osm"},{"id":"osm:node:843781118","latitude":43.482449,"longitude":-3.796046,"name":"Avenida del Doctor Diego Madrazo","properties":{"access":"unknown","bicycle_pa":"","capacity":20,"covered":"","fee":"","operator":"","nameSource":"source"},"sourceId":"osm"},{"id":"osm:node:843781128","latitude":43.4709564,"longitude":-3.8042094,"name":"Edificio Interfacultativo","properties":{"access":"unknown","bicycle_pa":"","capacity":10,"covered":"no","fee":"","operator":"","nameSource":"source"},"sourceId":"osm"},{"id":"osm:node:843781134","latitude":43.4534456,"longitude":-3.8556049,"name":"Estación FEVE de Adarzo","properties":{"access":"unknown","bicycle_pa":"","capacity":4,"covered":"","fee":"","operator":"","nameSource":"source"},"sourceId":"osm"},{"id":"osm:node:843781140","latitude":43.478001,"longitude":-3.788509,"name":"Segunda playa de El Sardinero","properties":{"access":"unknown","bicycle_pa":"stands","capacity":20,"covered":"no","fee":"","operator":"","nameSource":"source"},"sourceId":"osm"},{"id":"osm:node:843781153","latitude":43.4592705,"longitude":-3.8105279,"name":"Estación de Autobuses de Santander","properties":{"access":"unknown","bicycle_pa":"stands","capacity":6,"covered":"no","fee":"","operator":"","nameSource":"source"},"sourceId":"osm"},{"id":"osm:node:843781159","latitude":43.470097,"longitude":-3.807157,"name":"Facultad de Ciencias Económicas y Empresariales","properties":{"access":"unknown","bicycle_pa":"","capacity":7,"covered":"no","fee":"","operator":"","nameSource":"source"},"sourceId":"osm"},{"id":"osm:node:843781173","latitude":43.4749495,"longitude":-3.7950517,"name":"Palacio de Deportes","properties":{"access":"unknown","bicycle_pa":"stands","capacity":22,"covered":"no","fee":"","operator":"","nameSource":"source"},"sourceId":"osm"},{"id":"osm:node:8495074233","latitude":43.4637688,"longitude":-3.7999127,"name":"Calle de Bonifaz near Calle de Lope de Vega","properties":{"access":"unknown","bicycle_pa":"","capacity":8,"covered":"","fee":"","operator":"","nameSource":"junction"},"sourceId":"osm"},{"id":"osm:node:8808447427","latitude":43.4620043,"longitude":-3.8102593,"name":"Plaza del Ayuntamiento","properties":{"access":"customers","bicycle_pa":"lockers","capacity":10,"covered":"yes","fee":"yes","operator":"Ayuntamiento de Santander","nameSource":"source"},"sourceId":"osm"},{"id":"osm:node:9493155242","latitude":43.4775863,"longitude":-3.7917103,"name":"Intercambiador del Sardinero","properties":{"access":"customers","bicycle_pa":"lockers","capacity":20,"covered":"yes","fee":"yes","operator":"Ayuntamiento de Santander","nameSource":"source"},"sourceId":"osm"},{"id":"osm:node:9530482919","latitude":43.4727566,"longitude":-3.7929957,"name":"Calle del Alcalde Vega Lamera near Plaza de José Francisco Alonso","properties":{"access":"yes","bicycle_pa":"stands","capacity":6,"covered":"","fee":"","operator":"","nameSource":"junction"},"sourceId":"osm"},{"id":"osm:node:9772987973","latitude":43.4861397,"longitude":-3.7891288,"name":"Senda de Mataleñas near Calle Acebedos","properties":{"access":"unknown","bicycle_pa":"stands","capacity":4,"covered":"no","fee":"","operator":"","nameSource":"junction"},"sourceId":"osm"},{"id":"osm:way:157554442","latitude":43.47017418,"longitude":-3.80651582,"name":"Avenida de los Castros by Facultad de Derecho","properties":{"access":"customers","bicycle_pa":"rack","capacity":0,"covered":"no","fee":"yes","operator":"","nameSource":"landmark"},"sourceId":"osm"},{"id":"osm:way:157554444","latitude":43.4700982,"longitude":-3.80715462,"name":"Avenida de los Castros by Banco Santander","properties":{"access":"unknown","bicycle_pa":"","capacity":0,"covered":"no","fee":"","operator":"","nameSource":"landmark"},"sourceId":"osm"}],"schemaVersion":2}
