{"key":"12/2004/1544","points":[{"id":"osm:node:12469601901","latitude":40.4427587,"longitude":-3.8460993,"name":"Avenida de Monteclaro near Calle de las Mimosas","properties":{"access":"unknown","bicycle_pa":"","capacity":0,"covered":"","fee":"","operator":"","nameSource":"junction"},"sourceId":"osm"},{"id":"osm:node:13135392719","latitude":40.4178942,"longitude":-3.8014071,"name":"Paseo del Club Deportivo cycle parking","properties":{"access":"unknown","bicycle_pa":"","capacity":0,"covered":"","fee":"","operator":"","nameSource":"street"},"sourceId":"osm"},{"id":"osm:node:13431439294","latitude":40.3985619,"longitude":-3.7840398,"name":"Calle de Guadalupe Muñoz Sampedro near Calle de Luis Buñuel","properties":{"access":"unknown","bicycle_pa":"wall_loops","capacity":5,"covered":"yes","fee":"","operator":"","nameSource":"junction"},"sourceId":"osm"},{"id":"osm:node:13431450913","latitude":40.3981935,"longitude":-3.7839812,"name":"Calle de Guadalupe Muñoz Sampedro near Calle de Luis Buñuel","properties":{"access":"unknown","bicycle_pa":"wall_loops","capacity":5,"covered":"yes","fee":"","operator":"","nameSource":"junction"},"sourceId":"osm"},{"id":"osm:node:13431481701","latitude":40.4047362,"longitude":-3.7970896,"name":"Avenida Luis García Cereceda by Ramest","properties":{"access":"unknown","bicycle_pa":"","capacity":0,"covered":"","fee":"","operator":"","nameSource":"landmark"},"sourceId":"osm"},{"id":"osm:node:13431482004","latitude":40.4410521,"longitude":-3.7833891,"name":"Vía de las Dos Castillas by Sánchez Romero","properties":{"access":"unknown","bicycle_pa":"","capacity":0,"covered":"","fee":"","operator":"","nameSource":"landmark"},"sourceId":"osm"},{"id":"osm:node:13431482105","latitude":40.441572,"longitude":-3.7832428,"name":"Calle Canadá by Books Center","properties":{"access":"unknown","bicycle_pa":"","capacity":0,"covered":"","fee":"","operator":"","nameSource":"landmark"},"sourceId":"osm"},{"id":"osm:node:13431482205","latitude":40.4409017,"longitude":-3.7837702,"name":"Vía de las Dos Castillas by Ginos","properties":{"access":"unknown","bicycle_pa":"stands","capacity":6,"covered":"yes","fee":"","operator":"","nameSource":"landmark"},"sourceId":"osm"},{"id":"osm:node:2497968762","latitude":40.4056625,"longitude":-3.8388903,"name":"Campus Montegancedo cycle parking","properties":{"access":"unknown","bicycle_pa":"","capacity":6,"covered":"","fee":"","operator":"","nameSource":"landmark"},"sourceId":"osm"},{"id":"osm:node:2497968766","latitude":40.4058839,"longitude":-3.8399443,"name":"Museo Histórico de la Informática cycle parking","properties":{"access":"unknown","bicycle_pa":"","capacity":8,"covered":"","fee":"","operator":"","nameSource":"landmark"},"sourceId":"osm"},{"id":"osm:node:4107862152","latitude":40.3830389,"longitude":-3.7798721,"name":"Calle de Fray José Cerdeiriña near Calle Fuente del Tiro","properties":{"access":"unknown","bicycle_pa":"stands","capacity":8,"covered":"","fee":"","operator":"Ayuntamiento de Madrid","nameSource":"junction"},"sourceId":"osm"},{"id":"osm:node:4107862497","latitude":40.3828317,"longitude":-3.7824055,"name":"Calle Fuente de Lima by Parque Europa","properties":{"access":"unknown","bicycle_pa":"stands","capacity":10,"covered":"","fee":"","operator":"Ayuntamiento de Madrid","nameSource":"landmark"},"sourceId":"osm"},{"id":"osm:node:4703722691","latitude":40.4455513,"longitude":-3.8007648,"name":"Calle San Rafael near Carretera de Húmera","properties":{"access":"unknown","bicycle_pa":"","capacity":0,"covered":"","fee":"","operator":"","nameSource":"junction"},"sourceId":"osm"},{"id":"osm:node:4705553292","latitude":40.4447711,"longitude":-3.8110874,"name":"Glorieta de la Policía Nacional near Camino de las Huertas","properties":{"access":"unknown","bicycle_pa":"","capacity":0,"covered":"","fee":"","operator":"","nameSource":"junction"},"sourceId":"osm"},{"id":"osm:node:4705592292","latitude":40.4389632,"longitude":-3.7931992,"name":"Avenida de la Comunidad de Madrid near Glorieta Víctimas del Terrorismo","properties":{"access":"unknown","bicycle_pa":"","capacity":0,"covered":"","fee":"","operator":"","nameSource":"junction"},"sourceId":"osm"},{"id":"osm:node:4707446490","latitude":40.4416657,"longitude":-3.7835605,"name":"Calle Canadá by Game","properties":{"access":"unknown","bicycle_pa":"","capacity":0,"covered":"","fee":"","operator":"","nameSource":"landmark"},"sourceId":"osm"},{"id":"osm:node:4707446491","latitude":40.4330135,"longitude":-3.7933567,"name":"Cafetería de la Universidad cycle parking","properties":{"access":"unknown","bicycle_pa":"","capacity":0,"covered":"","fee":"","operator":"","nameSource":"landmark"},"sourceId":"osm"},{"id":"osm:node:4707459690","latitude":40.4306468,"longitude":-3.8079257,"name":"Vía de las Dos Castillas near Calle Bruselas","properties":{"access":"unknown","bicycle_pa":"","capacity":0,"covered":"","fee":"","operator":"","nameSource":"junction"},"sourceId":"osm"},{"id":"osm:node:4707459889","latitude":40.4417319,"longitude":-3.7840172,"name":"Calle Canadá by Zara Home","properties":{"access":"unknown","bicycle_pa":"stands","capacity":10,"covered":"no","fee":"","operator":"","nameSource":"landmark"},"sourceId":"osm"},{"id":"osm:node:4761890964","latitude":40.4468511,"longitude":-3.7997372,"name":"Calle Estación near Calle del Pilar","properties":{"access":"unknown","bicycle_pa":"","capacity":0,"covered":"no","fee":"","operator":"","nameSource":"junction"},"sourceId":"osm"},{"id":"osm:node:4807605522","latitude":40.4448824,"longitude":-3.8091112,"name":"Avenida de Juan XXIII by Star de fiesta","properties":{"access":"unknown","bicycle_pa":"safe_loops","capacity":10,"covered":"yes","fee":"","operator":"","nameSource":"landmark"},"sourceId":"osm"},{"id":"osm:node:4813607232","latitude":40.4411308,"longitude":-3.8158336,"name":"Plaza de las Américas cycle parking","properties":{"access":"unknown","bicycle_pa":"","capacity":0,"covered":"","fee":"","operator":"","nameSource":"street"},"sourceId":"osm"},{"id":"osm:node:4813623622","latitude":40.4409818,"longitude":-3.8159353,"name":"Plaza de las Américas cycle parking","properties":{"access":"unknown","bicycle_pa":"","capacity":0,"covered":"","fee":"","operator":"","nameSource":"street"},"sourceId":"osm"},{"id":"osm:node:4837645222","latitude":40.4435705,"longitude":-3.8140574,"name":"Sendero Biosaludable by Parque Fuente de la Salud","properties":{"access":"unknown","bicycle_pa":"","capacity":0,"covered":"","fee":"","operator":"","nameSource":"landmark"},"sourceId":"osm"},{"id":"osm:node:4840017321","latitude":40.4353261,"longitude":-3.8142674,"name":"Túnel Padre Vallet near Calle Sagunto","properties":{"access":"unknown","bicycle_pa":"","capacity":0,"covered":"","fee":"","operator":"","nameSource":"junction"},"sourceId":"osm"},{"id":"osm:node:4842050221","latitude":40.4331079,"longitude":-3.7952642,"name":"Campus de Somosaguas cycle parking","properties":{"access":"unknown","bicycle_pa":"","capacity":0,"covered":"","fee":"","operator":"","nameSource":"landmark"},"sourceId":"osm"},{"id":"osm:node:4917494922","latitude":40.4430251,"longitude":-3.7868462,"name":"Calle Irlanda cycle parking","properties":{"access":"unknown","bicycle_pa":"stands","capacity":10,"covered":"no","fee":"","operator":"","nameSource":"street"},"sourceId":"osm"},{"id":"osm:node:4951118821","latitude":40.4229169,"longitude":-3.8043125,"name":"M-502 by Pozuelo Oeste","properties":{"access":"unknown","bicycle_pa":"","capacity":0,"covered":"","fee":"","operator":"","nameSource":"landmark"},"sourceId":"osm"},{"id":"osm:node:5316397424","latitude":40.4341397,"longitude":-3.8140321,"name":"Carretera de Carabanchel near Calle Antonio Becerril","properties":{"access":"unknown","bicycle_pa":"wall_loops","capacity":5,"covered":"no","fee":"","operator":"","nameSource":"junction"},"sourceId":"osm"},{"id":"osm:node:5942422594","latitude":40.4071149,"longitude":-3.7843057,"name":"M-502 by Colonia de los Ángeles","properties":{"access":"unknown","bicycle_pa":"","capacity":0,"covered":"","fee":"","operator":"","nameSource":"landmark"},"sourceId":"osm"},{"id":"osm:node:5942422597","latitude":40.4211754,"longitude":-3.7895865,"name":"M-508 near Avenida del Campo","properties":{"access":"unknown","bicycle_pa":"stands","capacity":25,"covered":"no","fee":"","operator":"","nameSource":"junction"},"sourceId":"osm"},{"id":"osm:node:6018076194","latitude":40.4283633,"longitude":-3.7861342,"name":"Avenida de Húmera near Calle Cerezo de Húmera","properties":{"access":"unknown","bicycle_pa":"","capacity":0,"covered":"","fee":"","operator":"","nameSource":"junction"},"sourceId":"osm"},{"id":"osm:node:6018076198","latitude":40.4389926,"longitude":-3.8174553,"name":"Calle Camino de las Huertas cycle parking","properties":{"access":"unknown","bicycle_pa":"","capacity":0,"covered":"","fee":"","operator":"","nameSource":"street"},"sourceId":"osm"},{"id":"osm:node:6140100988","latitude":40.44043,"longitude":-3.8163827,"name":"Plaza de las Américas cycle parking","properties":{"access":"unknown","bicycle_pa":"","capacity":0,"covered":"","fee":"","operator":"","nameSource":"street"},"sourceId":"osm"},{"id":"osm:node:6441137202","latitude":40.4273818,"longitude":-3.7865992,"name":"Calle del Doctor Raso near Calle Cruz de la Atalaya","properties":{"access":"unknown","bicycle_pa":"stands","capacity":6,"covered":"no","fee":"","operator":"","nameSource":"junction"},"sourceId":"osm"},{"id":"osm:node:6464288910","latitude":40.4150097,"longitude":-3.7925919,"name":"Calle Veritas cycle parking","properties":{"access":"unknown","bicycle_pa":"","capacity":0,"covered":"","fee":"","operator":"","nameSource":"street"},"sourceId":"osm"},{"id":"osm:node:6464293289","latitude":40.4104014,"longitude":-3.7966721,"name":"Calle Aquilón near Calle Solano","properties":{"access":"unknown","bicycle_pa":"","capacity":0,"covered":"","fee":"","operator":"","nameSource":"junction"},"sourceId":"osm"},{"id":"osm:node:6464293496","latitude":40.4079293,"longitude":-3.7978636,"name":"Calle Terral by Biblioteca Municipal Volturno","properties":{"access":"unknown","bicycle_pa":"","capacity":0,"covered":"","fee":"","operator":"","nameSource":"landmark"},"sourceId":"osm"},{"id":"osm:node:6511626332","latitude":40.4406517,"longitude":-3.7862683,"name":"Avenida de Europa by Vips","properties":{"access":"unknown","bicycle_pa":"rack","capacity":9,"covered":"no","fee":"","operator":"","nameSource":"landmark"},"sourceId":"osm"},{"id":"osm:node:6847940497","latitude":40.4405486,"longitude":-3.7864629,"name":"Avenida de Europa by Juzgado Primera Instancia e Instruccion Número 1","properties":{"access":"unknown","bicycle_pa":"rack","capacity":9,"covered":"no","fee":"","operator":"","nameSource":"landmark"},"sourceId":"osm"},{"id":"osm:node:6922981216","latitude":40.4418603,"longitude":-3.8345077,"name":"Universidad Francisco de Vitoria cycle parking","properties":{"access":"unknown","bicycle_pa":"","capacity":0,"covered":"","fee":"","operator":"","nameSource":"landmark"},"sourceId":"osm"},{"id":"osm:node:7102357034","latitude":40.4321121,"longitude":-3.7927817,"name":"Banco Santander cycle parking","properties":{"access":"unknown","bicycle_pa":"","capacity":0,"covered":"","fee":"","operator":"","nameSource":"landmark"},"sourceId":"osm"},{"id":"osm:node:7102358395","latitude":40.437114,"longitude":-3.800987,"name":"Camino Valdenigriales near Carretera de Húmera","properties":{"access":"unknown","bicycle_pa":"","capacity":0,"covered":"","fee":"","operator":"","nameSource":"junction"},"sourceId":"osm"},{"id":"osm:node:7189562181","latitude":40.3935919,"longitude":-3.8634714,"name":"El Pradonal cycle parking","properties":{"access":"unknown","bicycle_pa":"","capacity":0,"covered":"","fee":"","operator":"","nameSource":"place"},"sourceId":"osm"},{"id":"osm:node:8415006431","latitude":40.4297398,"longitude":-3.7901799,"name":"Húmera cycle parking","properties":{"access":"unknown","bicycle_pa":"building","capacity":0,"covered":"yes","fee":"","operator":"","nameSource":"place"},"sourceId":"osm"},{"id":"osm:node:8415006433","latitude":40.4296459,"longitude":-3.7900163,"name":"Húmera cycle parking","properties":{"access":"unknown","bicycle_pa":"","capacity":0,"covered":"","fee":"","operator":"","nameSource":"place"},"sourceId":"osm"},{"id":"osm:way:1005302872","latitude":40.38013954,"longitude":-3.78066842,"name":"Calle de Mirabel cycle parking","properties":{"access":"yes","bicycle_pa":"","capacity":5,"covered":"","fee":"","operator":"","nameSource":"street"},"sourceId":"osm"},{"id":"osm:way:1005302873","latitude":40.38089816,"longitude":-3.78033286,"name":"Avenida de Las Águilas near Calle de Mirabel","properties":{"access":"unknown","bicycle_pa":"","capacity":5,"covered":"","fee":"","operator":"","nameSource":"junction"},"sourceId":"osm"},{"id":"osm:way:1018748095","latitude":40.44380623333333,"longitude":-3.845638166666667,"name":"Avenida de Monteclaro cycle parking","properties":{"access":"unknown","bicycle_pa":"building","capacity":0,"covered":"","fee":"","operator":"","nameSource":"street"},"sourceId":"osm"},{"id":"osm:way:1308571699","latitude":40.38348538,"longitude":-3.7837593600000003,"name":"Aviación Española by perseo","properties":{"access":"yes","bicycle_pa":"shed","capacity":10,"covered":"yes","fee":"","operator":"Ayuntamiento de Madrid","nameSource":"landmark"},"sourceId":"osm"}],"schemaVersion":2}
