{"key":"12/2044/1353","points":[{"id":"osm:node:10294988075","latitude":51.9523945,"longitude":-0.2753961,"name":"Bancroft near Regal Court","properties":{"access":"yes","bicycle_pa":"rack","capacity":6,"covered":"no","fee":"no","operator":"","nameSource":"junction"},"sourceId":"osm"},{"id":"osm:node:13415021593","latitude":51.9507267,"longitude":-0.2910532,"name":"Bowlers End cycle parking","properties":{"access":"unknown","bicycle_pa":"","capacity":0,"covered":"","fee":"","operator":"","nameSource":"street"},"sourceId":"osm"},{"id":"osm:node:198034831","latitude":51.9535626,"longitude":-0.2639398,"name":"Station Approach cycle parking","properties":{"access":"unknown","bicycle_pa":"unknown_stand_type","capacity":186,"covered":"yes","fee":"","operator":"","nameSource":"street"},"sourceId":"osm"},{"id":"osm:node:361171154","latitude":51.9491512,"longitude":-0.277297,"name":"Churchyard near Moss' Corner","properties":{"access":"unknown","bicycle_pa":"stands","capacity":20,"covered":"no","fee":"","operator":"","nameSource":"junction"},"sourceId":"osm"},{"id":"osm:node:459341793","latitude":51.9558194,"longitude":-0.2644214,"name":"Cooks Way near Sharps Way","properties":{"access":"unknown","bicycle_pa":"building","capacity":0,"covered":"","fee":"","operator":"","nameSource":"junction"},"sourceId":"osm"},{"id":"osm:node:5820438608","latitude":51.9538984,"longitude":-0.264127,"name":"Cambridge Road near Nightingale Road","properties":{"access":"unknown","bicycle_pa":"rack","capacity":255,"covered":"yes","fee":"","operator":"National Rail","nameSource":"junction"},"sourceId":"osm"},{"id":"osm:node:998197797","latitude":51.9473,"longitude":-0.2788919,"name":"Market Place near Bucklersbury","properties":{"access":"unknown","bicycle_pa":"stands","capacity":6,"covered":"no","fee":"","operator":"","nameSource":"junction"},"sourceId":"osm"},{"id":"osm:node:998197802","latitude":51.9458724,"longitude":-0.2787764,"name":"Sun Street near Bridge Street","properties":{"access":"unknown","bicycle_pa":"stands","capacity":6,"covered":"no","fee":"","operator":"","nameSource":"junction"},"sourceId":"osm"},{"id":"osm:node:998197811","latitude":51.9475624,"longitude":-0.278462,"name":"Market Place near Churchgate","properties":{"access":"unknown","bicycle_pa":"stands","capacity":6,"covered":"no","fee":"","operator":"","nameSource":"junction"},"sourceId":"osm"},{"id":"osm:node:998197815","latitude":51.947736,"longitude":-0.2789967,"name":"High Street near Arcade","properties":{"access":"unknown","bicycle_pa":"stands","capacity":4,"covered":"no","fee":"","operator":"","nameSource":"junction"},"sourceId":"osm"}],"schemaVersion":2}
