{"key":"12/2044/1356","points":[{"id":"osm:node:12133279471","latitude":51.7839695,"longitude":-0.3082866,"name":"Sandridge cycle parking","properties":{"access":"unknown","bicycle_pa":"stands","capacity":16,"covered":"no","fee":"","operator":"","nameSource":"place"},"sourceId":"osm"},{"id":"osm:node:12463423762","latitude":51.8071292,"longitude":-0.3421148,"name":"Grove Road near Cravells Road","properties":{"access":"unknown","bicycle_pa":"stands","capacity":6,"covered":"no","fee":"no","operator":"","nameSource":"junction"},"sourceId":"osm"},{"id":"osm:node:12491759505","latitude":51.8114364,"longitude":-0.2927242,"name":"Marford Road near Parkinson Close","properties":{"access":"unknown","bicycle_pa":"","capacity":0,"covered":"","fee":"","operator":"","nameSource":"junction"},"sourceId":"osm"},{"id":"osm:node:12536363963","latitude":51.8129181,"longitude":-0.292276,"name":"East Lane near East Mount","properties":{"access":"unknown","bicycle_pa":"stands","capacity":6,"covered":"no","fee":"","operator":"","nameSource":"junction"},"sourceId":"osm"},{"id":"osm:node:12628812400","latitude":51.7995963,"longitude":-0.2759606,"name":"Coleman Green Lane by John Bunyan","properties":{"access":"unknown","bicycle_pa":"wall_loops","capacity":6,"covered":"no","fee":"","operator":"","nameSource":"landmark"},"sourceId":"osm"},{"id":"osm:node:2384310449","latitude":51.810967,"longitude":-0.2902814,"name":"Marford Road near Brocket View","properties":{"access":"unknown","bicycle_pa":"wall_loops","capacity":2,"covered":"","fee":"","operator":"","nameSource":"junction"},"sourceId":"osm"},{"id":"osm:node:246117368","latitude":51.8070829,"longitude":-0.3429306,"name":"Southdown Road near Cravells Road","properties":{"access":"unknown","bicycle_pa":"stands","capacity":4,"covered":"no","fee":"","operator":"","nameSource":"junction"},"sourceId":"osm"},{"id":"osm:node:9461703445","latitude":51.8087201,"longitude":-0.2843976,"name":"Dyke Lane near Tudor Road","properties":{"access":"unknown","bicycle_pa":"stands","capacity":4,"covered":"","fee":"","operator":"","nameSource":"junction"},"sourceId":"osm"},{"id":"osm:node:9522229592","latitude":51.8123482,"longitude":-0.2938459,"name":"High Street near The Maltings","properties":{"access":"unknown","bicycle_pa":"bollard","capacity":2,"covered":"","fee":"","operator":"","nameSource":"junction"},"sourceId":"osm"},{"id":"osm:way:473295494","latitude":51.814363379999996,"longitude":-0.35151089999999996,"name":"Station Approach by Harp's Coffee","properties":{"access":"unknown","bicycle_pa":"stands","capacity":0,"covered":"yes","fee":"","operator":"","nameSource":"landmark"},"sourceId":"osm"},{"id":"osm:way:973213585","latitude":51.8159327,"longitude":-0.34076014,"name":"Crabtree Lane near Grasmere Avenue","properties":{"access":"unknown","bicycle_pa":"shed","capacity":0,"covered":"","fee":"","operator":"","nameSource":"junction"},"sourceId":"osm"}],"schemaVersion":2}
