{"key":"12/2044/1357","points":[{"id":"osm:node:10797686700","latitude":51.7432242,"longitude":-0.3402376,"name":"Holly Close near St Julian's Road","properties":{"access":"yes","bicycle_pa":"stands","capacity":20,"covered":"no","fee":"no","operator":"","nameSource":"junction"},"sourceId":"osm"},{"id":"osm:node:10817244812","latitude":51.7702237,"longitude":-0.3395696,"name":"High Oaks near Woollam Crescent","properties":{"access":"unknown","bicycle_pa":"stands","capacity":6,"covered":"no","fee":"","operator":"","nameSource":"junction"},"sourceId":"osm"},{"id":"osm:node:11409057813","latitude":51.7561723,"longitude":-0.3387415,"name":"Catherine Street near Etna Road","properties":{"access":"unknown","bicycle_pa":"stands","capacity":4,"covered":"","fee":"","operator":"","nameSource":"junction"},"sourceId":"osm"},{"id":"osm:node:12133271861","latitude":51.7669492,"longitude":-0.3235933,"name":"Beech Road by Fashion 'N' Fabrics","properties":{"access":"unknown","bicycle_pa":"rack","capacity":6,"covered":"yes","fee":"","operator":"","nameSource":"landmark"},"sourceId":"osm"},{"id":"osm:node:12481118594","latitude":51.7382771,"longitude":-0.3300814,"name":"Old Oak by St Albans Cycle Hub","properties":{"access":"unknown","bicycle_pa":"stands","capacity":16,"covered":"","fee":"","operator":"","nameSource":"landmark"},"sourceId":"osm"},{"id":"osm:node:12723671255","latitude":51.7533711,"longitude":-0.3238916,"name":"Clarence Park cycle parking","properties":{"access":"unknown","bicycle_pa":"stands","capacity":8,"covered":"","fee":"","operator":"","nameSource":"landmark"},"sourceId":"osm"},{"id":"osm:node:13076195451","latitude":51.7499502,"longitude":-0.3419076,"name":"Sumpter Yard near Waxhouse Gate","properties":{"access":"unknown","bicycle_pa":"","capacity":0,"covered":"","fee":"","operator":"","nameSource":"junction"},"sourceId":"osm"},{"id":"osm:node:1635356326","latitude":51.7500857,"longitude":-0.3273904,"name":"Victoria Street near Charrington Place","properties":{"access":"unknown","bicycle_pa":"stands","capacity":100,"covered":"yes","fee":"","operator":"","nameSource":"junction"},"sourceId":"osm"},{"id":"osm:node:1809931760","latitude":51.7511796,"longitude":-0.3265282,"name":"Station Way cycle parking","properties":{"access":"yes","bicycle_pa":"shed","capacity":500,"covered":"","fee":"no","operator":"","nameSource":"street"},"sourceId":"osm"},{"id":"osm:node:1974296125","latitude":51.7520523,"longitude":-0.3389267,"name":"The Town Hall","properties":{"access":"unknown","bicycle_pa":"stands","capacity":12,"covered":"no","fee":"no","operator":"","nameSource":"source"},"sourceId":"osm"},{"id":"osm:node:1974310548","latitude":51.751312,"longitude":-0.3412274,"name":"George Street/High Street Junction","properties":{"access":"unknown","bicycle_pa":"stands","capacity":4,"covered":"no","fee":"no","operator":"","nameSource":"source"},"sourceId":"osm"},{"id":"osm:node:1974355181","latitude":51.75485,"longitude":-0.3362269,"name":"St Peter's Street/Catherine Street roundabout","properties":{"access":"unknown","bicycle_pa":"stands","capacity":10,"covered":"no","fee":"no","operator":"","nameSource":"source"},"sourceId":"osm"},{"id":"osm:node:1974376381","latitude":51.7542839,"longitude":-0.336426,"name":"St Peters St, taxi rank","properties":{"access":"unknown","bicycle_pa":"stands","capacity":4,"covered":"no","fee":"","operator":"","nameSource":"source"},"sourceId":"osm"},{"id":"osm:node:1974379318","latitude":51.7543469,"longitude":-0.3363454,"name":"St Peter's St o/s St Albans Tandoori","properties":{"access":"unknown","bicycle_pa":"stands","capacity":4,"covered":"no","fee":"","operator":"","nameSource":"source"},"sourceId":"osm"},{"id":"osm:node:1974387267","latitude":51.7538554,"longitude":-0.3376276,"name":"Cattle Walk","properties":{"access":"unknown","bicycle_pa":"stands","capacity":8,"covered":"no","fee":"no","operator":"","nameSource":"source"},"sourceId":"osm"},{"id":"osm:node:1974392459","latitude":51.7536239,"longitude":-0.337488,"name":"St. Peter's Street outside BHS","properties":{"access":"unknown","bicycle_pa":"stands","capacity":6,"covered":"no","fee":"no","operator":"","nameSource":"source"},"sourceId":"osm"},{"id":"osm:node:1974400998","latitude":51.7532918,"longitude":-0.3372037,"name":"Bay opposite shops","properties":{"access":"unknown","bicycle_pa":"stands","capacity":9,"covered":"no","fee":"no","operator":"","nameSource":"source"},"sourceId":"osm"},{"id":"osm:node:1974460558","latitude":51.7529344,"longitude":-0.3382258,"name":"St Peter's Street next to zebra crossing, opposite M&S","properties":{"access":"unknown","bicycle_pa":"stands","capacity":4,"covered":"no","fee":"no","operator":"","nameSource":"source"},"sourceId":"osm"},{"id":"osm:node:1974460900","latitude":51.7527736,"longitude":-0.3381226,"name":"St Peter's street outside Halifax","properties":{"access":"unknown","bicycle_pa":"stands","capacity":6,"covered":"no","fee":"","operator":"","nameSource":"source"},"sourceId":"osm"},{"id":"osm:node:1974462214","latitude":51.7528409,"longitude":-0.3387012,"name":"St Peter's Street/Waddington Road","properties":{"access":"unknown","bicycle_pa":"stands","capacity":10,"covered":"no","fee":"no","operator":"","nameSource":"source"},"sourceId":"osm"},{"id":"osm:node:1974467093","latitude":51.7513951,"longitude":-0.3374882,"name":"Maltings","properties":{"access":"unknown","bicycle_pa":"stands","capacity":2,"covered":"no","fee":"","operator":"","nameSource":"source"},"sourceId":"osm"},{"id":"osm:node:2046592419","latitude":51.7449701,"longitude":-0.3016668,"name":"Russet Drive near Hill End Lane","properties":{"access":"unknown","bicycle_pa":"stands","capacity":3,"covered":"no","fee":"","operator":"","nameSource":"junction"},"sourceId":"osm"},{"id":"osm:node:411818875","latitude":51.7524364,"longitude":-0.3385877,"name":"St Peter's Street outside Old Town Hall","properties":{"access":"unknown","bicycle_pa":"stands","capacity":8,"covered":"no","fee":"no","operator":"","nameSource":"source"},"sourceId":"osm"},{"id":"osm:node:411818876","latitude":51.7518008,"longitude":-0.3398226,"name":"Market Place St Christopher Place enterance","properties":{"access":"unknown","bicycle_pa":"stands","capacity":4,"covered":"no","fee":"","operator":"","nameSource":"source"},"sourceId":"osm"},{"id":"osm:node:411819646","latitude":51.7533811,"longitude":-0.3373249,"name":"St Peter's Street approach to Council Offices","properties":{"access":"unknown","bicycle_pa":"stands","capacity":4,"covered":"no","fee":"no","operator":"","nameSource":"source"},"sourceId":"osm"},{"id":"osm:node:411819647","latitude":51.7535076,"longitude":-0.3372088,"name":"St Peter's Sreet outside Barclays","properties":{"access":"unknown","bicycle_pa":"stands","capacity":4,"covered":"no","fee":"","operator":"","nameSource":"source"},"sourceId":"osm"},{"id":"osm:node:411819648","latitude":51.7530051,"longitude":-0.3378497,"name":"St Peter's street- outside post office","properties":{"access":"unknown","bicycle_pa":"stands","capacity":6,"covered":"no","fee":"","operator":"","nameSource":"source"},"sourceId":"osm"},{"id":"osm:node:411821907","latitude":51.7531994,"longitude":-0.3361163,"name":"Council offices","properties":{"access":"unknown","bicycle_pa":"stands","capacity":10,"covered":"yes","fee":"no","operator":"","nameSource":"source"},"sourceId":"osm"},{"id":"osm:node:463261232","latitude":51.7640395,"longitude":-0.3070906,"name":"Quadrant Central","properties":{"access":"unknown","bicycle_pa":"stands","capacity":6,"covered":"no","fee":"","operator":"","nameSource":"source"},"sourceId":"osm"},{"id":"osm:node:463262654","latitude":51.7643179,"longitude":-0.3079637,"name":"Quadrant north","properties":{"access":"unknown","bicycle_pa":"stands","capacity":6,"covered":"no","fee":"","operator":"","nameSource":"source"},"sourceId":"osm"},{"id":"osm:node:469733851","latitude":51.7697279,"longitude":-0.2981693,"name":"St Brelades Place near Harvest Court","properties":{"access":"unknown","bicycle_pa":"","capacity":0,"covered":"","fee":"","operator":"","nameSource":"junction"},"sourceId":"osm"},{"id":"osm:node:470297145","latitude":51.7636354,"longitude":-0.3070104,"name":"Quadrant South","properties":{"access":"unknown","bicycle_pa":"stands","capacity":6,"covered":"no","fee":"","operator":"","nameSource":"source"},"sourceId":"osm"},{"id":"osm:node:4756214016","latitude":51.7433715,"longitude":-0.3123048,"name":"Grasmere Road near Cell Barnes Lane","properties":{"access":"unknown","bicycle_pa":"stands","capacity":6,"covered":"","fee":"","operator":"","nameSource":"junction"},"sourceId":"osm"},{"id":"osm:node:4756214017","latitude":51.7434959,"longitude":-0.3124457,"name":"Aldwick near Cell Barnes Lane","properties":{"access":"unknown","bicycle_pa":"stands","capacity":4,"covered":"","fee":"","operator":"","nameSource":"junction"},"sourceId":"osm"},{"id":"osm:node:4756214018","latitude":51.7437664,"longitude":-0.3127066,"name":"Aldwick near Cell Barnes Lane","properties":{"access":"unknown","bicycle_pa":"stands","capacity":6,"covered":"","fee":"","operator":"","nameSource":"junction"},"sourceId":"osm"},{"id":"osm:node:5792158937","latitude":51.7499859,"longitude":-0.328008,"name":"Ridgmont Road near Victoria Street","properties":{"access":"unknown","bicycle_pa":"stands","capacity":0,"covered":"yes","fee":"","operator":"","nameSource":"junction"},"sourceId":"osm"},{"id":"osm:node:8199859761","latitude":51.752056,"longitude":-0.3117096,"name":"St Albans Green Ring near Woodstock Road South","properties":{"access":"unknown","bicycle_pa":"stands","capacity":6,"covered":"no","fee":"","operator":"","nameSource":"junction"},"sourceId":"osm"},{"id":"osm:node:8440472903","latitude":51.7635101,"longitude":-0.3070852,"name":"The Ridgeway near Marshalswick Lane","properties":{"access":"unknown","bicycle_pa":"stands","capacity":6,"covered":"no","fee":"","operator":"","nameSource":"junction"},"sourceId":"osm"},{"id":"osm:node:8443171140","latitude":51.7528114,"longitude":-0.3124617,"name":"Royal Road by Fleetville Community Centre","properties":{"access":"private","bicycle_pa":"","capacity":0,"covered":"","fee":"","operator":"","nameSource":"landmark"},"sourceId":"osm"},{"id":"osm:node:8443243257","latitude":51.7500694,"longitude":-0.3270652,"name":"Victoria Street near Charrington Place","properties":{"access":"yes","bicycle_pa":"shed","capacity":40,"covered":"yes","fee":"no","operator":"","nameSource":"junction"},"sourceId":"osm"},{"id":"osm:node:9525511120","latitude":51.7287177,"longitude":-0.3019214,"name":"High Street by Cotlandswick Leisure Centre","properties":{"access":"unknown","bicycle_pa":"","capacity":0,"covered":"","fee":"","operator":"","nameSource":"landmark"},"sourceId":"osm"},{"id":"osm:way:1208887576","latitude":51.77005632,"longitude":-0.34191178,"name":"Woollam Crescent by Links Academy","properties":{"access":"unknown","bicycle_pa":"shed","capacity":0,"covered":"yes","fee":"","operator":"","nameSource":"landmark"},"sourceId":"osm"},{"id":"osm:way:280966634","latitude":51.76071323333333,"longitude":-0.3426790333333333,"name":"Lavender Crescent cycle parking","properties":{"access":"yes","bicycle_pa":"rack","capacity":8,"covered":"yes","fee":"","operator":"","nameSource":"street"},"sourceId":"osm"}],"schemaVersion":2}
