{"key":"12/2044/1363","points":[{"id":"osm:node:10038068581","latitude":51.4130889,"longitude":-0.3007503,"name":"Richmond Road near Canbury Park Road","properties":{"access":"yes","bicycle_pa":"stands","capacity":14,"covered":"no","fee":"no","operator":"","nameSource":"junction"},"sourceId":"osm"},{"id":"osm:node:10273095222","latitude":51.4089747,"longitude":-0.3047081,"name":"Eden Street near St James' Road","properties":{"access":"unknown","bicycle_pa":"stands","capacity":10,"covered":"","fee":"","operator":"","nameSource":"junction"},"sourceId":"osm"},{"id":"osm:node:10273095224","latitude":51.4116424,"longitude":-0.3056908,"name":"Wood Street near A308","properties":{"access":"unknown","bicycle_pa":"stands","capacity":2,"covered":"no","fee":"","operator":"","nameSource":"junction"},"sourceId":"osm"},{"id":"osm:node:10273095225","latitude":51.4109556,"longitude":-0.3062013,"name":"Clarence Street near Wood Street","properties":{"access":"unknown","bicycle_pa":"stands","capacity":8,"covered":"no","fee":"","operator":"","nameSource":"junction"},"sourceId":"osm"},{"id":"osm:node:10273095226","latitude":51.4113431,"longitude":-0.3037516,"name":"Fife Road near Dolphin Street","properties":{"access":"unknown","bicycle_pa":"stands","capacity":14,"covered":"","fee":"","operator":"","nameSource":"junction"},"sourceId":"osm"},{"id":"osm:node:10273095227","latitude":51.4100308,"longitude":-0.3050089,"name":"Union Street near Memorial Square","properties":{"access":"unknown","bicycle_pa":"stands","capacity":6,"covered":"","fee":"","operator":"","nameSource":"junction"},"sourceId":"osm"},{"id":"osm:node:10273115016","latitude":51.4116014,"longitude":-0.3034819,"name":"Fife Road near Dolphin Street","properties":{"access":"yes","bicycle_pa":"stands","capacity":12,"covered":"no","fee":"","operator":"","nameSource":"junction"},"sourceId":"osm"},{"id":"osm:node:10273115017","latitude":51.4115957,"longitude":-0.3055418,"name":"Wood Street near A308","properties":{"access":"unknown","bicycle_pa":"stands","capacity":10,"covered":"no","fee":"","operator":"","nameSource":"junction"},"sourceId":"osm"},{"id":"osm:node:10273115018","latitude":51.4095563,"longitude":-0.3060135,"name":"Market Place near Harrow Passage","properties":{"access":"yes","bicycle_pa":"stands","capacity":14,"covered":"no","fee":"no","operator":"","nameSource":"junction"},"sourceId":"osm"},{"id":"osm:node:10273115019","latitude":51.4103245,"longitude":-0.3070309,"name":"Bishop's Hall near Thames Street","properties":{"access":"unknown","bicycle_pa":"stands","capacity":2,"covered":"","fee":"","operator":"","nameSource":"junction"},"sourceId":"osm"},{"id":"osm:node:10273115020","latitude":51.4062361,"longitude":-0.3041627,"name":"Penrhyn Road near Denmark Road","properties":{"access":"unknown","bicycle_pa":"stands","capacity":4,"covered":"","fee":"","operator":"","nameSource":"junction"},"sourceId":"osm"},{"id":"osm:node:10273115113","latitude":51.411625,"longitude":-0.3034291,"name":"Fife Road near Dolphin Street","properties":{"access":"yes","bicycle_pa":"stands","capacity":6,"covered":"no","fee":"","operator":"","nameSource":"junction"},"sourceId":"osm"},{"id":"osm:node:10273115114","latitude":51.4090528,"longitude":-0.3048955,"name":"Eden Street near St James' Road","properties":{"access":"unknown","bicycle_pa":"stands","capacity":8,"covered":"","fee":"","operator":"","nameSource":"junction"},"sourceId":"osm"},{"id":"osm:node:10273115116","latitude":51.4117561,"longitude":-0.3027527,"name":"Fife Road near Dolphin Street","properties":{"access":"unknown","bicycle_pa":"stands","capacity":22,"covered":"","fee":"","operator":"","nameSource":"junction"},"sourceId":"osm"},{"id":"osm:node:10273115117","latitude":51.4077298,"longitude":-0.3030381,"name":"Wheatfield Way near Brook Street","properties":{"access":"unknown","bicycle_pa":"stands","capacity":6,"covered":"","fee":"","operator":"","nameSource":"junction"},"sourceId":"osm"},{"id":"osm:node:10273115217","latitude":51.4088691,"longitude":-0.3045314,"name":"Eden Street near St James' Road","properties":{"access":"unknown","bicycle_pa":"stands","capacity":18,"covered":"","fee":"","operator":"","nameSource":"junction"},"sourceId":"osm"},{"id":"osm:node:10273115218","latitude":51.4091572,"longitude":-0.30346,"name":"Eden Street near Ashdown Road","properties":{"access":"unknown","bicycle_pa":"stands","capacity":20,"covered":"no","fee":"","operator":"","nameSource":"junction"},"sourceId":"osm"},{"id":"osm:node:10273115219","latitude":51.4125872,"longitude":-0.3033383,"name":"Wood Street near Dolphin Street","properties":{"access":"unknown","bicycle_pa":"stands","capacity":5,"covered":"no","fee":"","operator":"","nameSource":"junction"},"sourceId":"osm"},{"id":"osm:node:10273115220","latitude":51.4104175,"longitude":-0.3053022,"name":"Memorial Square near Church Street","properties":{"access":"unknown","bicycle_pa":"stands","capacity":8,"covered":"","fee":"","operator":"","nameSource":"junction"},"sourceId":"osm"},{"id":"osm:node:10273115221","latitude":51.4055033,"longitude":-0.3003361,"name":"Grange Road near Knight's Park","properties":{"access":"unknown","bicycle_pa":"two-tier","capacity":32,"covered":"yes","fee":"","operator":"","nameSource":"junction"},"sourceId":"osm"},{"id":"osm:node:10273115222","latitude":51.4054281,"longitude":-0.3002924,"name":"Grange Road near Knight's Park","properties":{"access":"unknown","bicycle_pa":"stands","capacity":100,"covered":"yes","fee":"","operator":"","nameSource":"junction"},"sourceId":"osm"},{"id":"osm:node:10273115223","latitude":51.4032956,"longitude":-0.3023571,"name":"Grove Crescent near Fassett Road","properties":{"access":"unknown","bicycle_pa":"stands","capacity":6,"covered":"no","fee":"","operator":"","nameSource":"junction"},"sourceId":"osm"},{"id":"osm:node:10273115322","latitude":51.4078889,"longitude":-0.3057582,"name":"Kingston Hall Road cycle parking","properties":{"access":"unknown","bicycle_pa":"stands","capacity":12,"covered":"no","fee":"","operator":"","nameSource":"street"},"sourceId":"osm"},{"id":"osm:node:10273115323","latitude":51.4051916,"longitude":-0.2978519,"name":"Swan Walk near Mill Street","properties":{"access":"unknown","bicycle_pa":"wall_loops","capacity":24,"covered":"","fee":"","operator":"","nameSource":"junction"},"sourceId":"osm"},{"id":"osm:node:10273115324","latitude":51.4046664,"longitude":-0.2978564,"name":"Mill Street near Three Bridges Path","properties":{"access":"unknown","bicycle_pa":"two-tier","capacity":30,"covered":"yes","fee":"","operator":"","nameSource":"junction"},"sourceId":"osm"},{"id":"osm:node:10273115910","latitude":51.4032083,"longitude":-0.3023858,"name":"Grove Crescent near Fassett Road","properties":{"access":"unknown","bicycle_pa":"stands","capacity":4,"covered":"no","fee":"","operator":"","nameSource":"junction"},"sourceId":"osm"},{"id":"osm:node:10273124309","latitude":51.4087007,"longitude":-0.3036841,"name":"Brook Street near Eden Street","properties":{"access":"unknown","bicycle_pa":"stands","capacity":6,"covered":"no","fee":"","operator":"","nameSource":"junction"},"sourceId":"osm"},{"id":"osm:node:10273124709","latitude":51.4109377,"longitude":-0.3042715,"name":"Clarence Street near Church Street","properties":{"access":"unknown","bicycle_pa":"stands","capacity":10,"covered":"no","fee":"","operator":"","nameSource":"junction"},"sourceId":"osm"},{"id":"osm:node:10273124710","latitude":51.4035676,"longitude":-0.3049777,"name":"Woodbines Avenue cycle parking","properties":{"access":"unknown","bicycle_pa":"stands","capacity":6,"covered":"","fee":"","operator":"","nameSource":"street"},"sourceId":"osm"},{"id":"osm:node:10275601967","latitude":51.4108953,"longitude":-0.3011629,"name":"Clarence Street near Wheatfield Way","properties":{"access":"unknown","bicycle_pa":"stands","capacity":16,"covered":"no","fee":"","operator":"","nameSource":"junction"},"sourceId":"osm"},{"id":"osm:node:10275601969","latitude":51.4126525,"longitude":-0.3014819,"name":"Wood Street near Sopwith Way","properties":{"access":"unknown","bicycle_pa":"stands","capacity":22,"covered":"","fee":"","operator":"","nameSource":"junction"},"sourceId":"osm"},{"id":"osm:node:10275602125","latitude":51.4107504,"longitude":-0.3022488,"name":"Clarence Street near Eden Street","properties":{"access":"yes","bicycle_pa":"stands","capacity":10,"covered":"no","fee":"no","operator":"","nameSource":"junction"},"sourceId":"osm"},{"id":"osm:node:10275602235","latitude":51.4119478,"longitude":-0.3017775,"name":"Castle Street near Fife Road","properties":{"access":"unknown","bicycle_pa":"stands","capacity":4,"covered":"","fee":"","operator":"","nameSource":"junction"},"sourceId":"osm"},{"id":"osm:node:10275602236","latitude":51.4119892,"longitude":-0.3015504,"name":"Fife Road near Castle Street","properties":{"access":"unknown","bicycle_pa":"stands","capacity":4,"covered":"no","fee":"","operator":"","nameSource":"junction"},"sourceId":"osm"},{"id":"osm:node:10275602237","latitude":51.4115091,"longitude":-0.3005176,"name":"Clarence Street near Nipper Alley","properties":{"access":"unknown","bicycle_pa":"stands","capacity":6,"covered":"","fee":"","operator":"","nameSource":"junction"},"sourceId":"osm"},{"id":"osm:node:10275602238","latitude":51.412211,"longitude":-0.300322,"name":"Cromwell Road near Richmond Road","properties":{"access":"unknown","bicycle_pa":"stands","capacity":20,"covered":"","fee":"","operator":"","nameSource":"junction"},"sourceId":"osm"},{"id":"osm:node:10275602239","latitude":51.409157,"longitude":-0.2979923,"name":"Fairfield near Fairfield Road","properties":{"access":"unknown","bicycle_pa":"stands","capacity":4,"covered":"","fee":"","operator":"","nameSource":"junction"},"sourceId":"osm"},{"id":"osm:node:10275602240","latitude":51.4116099,"longitude":-0.301946,"name":"Castle Street near Fife Road","properties":{"access":"unknown","bicycle_pa":"stands","capacity":6,"covered":"no","fee":"","operator":"","nameSource":"junction"},"sourceId":"osm"},{"id":"osm:node:10275602241","latitude":51.4111847,"longitude":-0.3018402,"name":"Castle Street near Clarence Street","properties":{"access":"unknown","bicycle_pa":"stands","capacity":8,"covered":"no","fee":"","operator":"","nameSource":"junction"},"sourceId":"osm"},{"id":"osm:node:10275602242","latitude":51.4125706,"longitude":-0.3005863,"name":"Richmond Road near Wood Street","properties":{"access":"unknown","bicycle_pa":"stands","capacity":6,"covered":"no","fee":"","operator":"","nameSource":"junction"},"sourceId":"osm"},{"id":"osm:node:10275602243","latitude":51.4125053,"longitude":-0.3005837,"name":"Richmond Road near Cromwell Road","properties":{"access":"unknown","bicycle_pa":"stands","capacity":16,"covered":"no","fee":"","operator":"","nameSource":"junction"},"sourceId":"osm"},{"id":"osm:node:10275605714","latitude":51.411728,"longitude":-0.3006384,"name":"Clarence Street near Wood Street","properties":{"access":"unknown","bicycle_pa":"stands","capacity":12,"covered":"","fee":"","operator":"","nameSource":"junction"},"sourceId":"osm"},{"id":"osm:node:10277991371","latitude":51.4303682,"longitude":-0.3449551,"name":"Stanley Gardens Road near Stanley Road","properties":{"access":"unknown","bicycle_pa":"stands","capacity":4,"covered":"no","fee":"","operator":"","nameSource":"junction"},"sourceId":"osm"},{"id":"osm:node:10277991372","latitude":51.4309207,"longitude":-0.3455328,"name":"LBRuT Bike Hangar","properties":{"access":"permissive","bicycle_pa":"streetpod","capacity":4,"covered":"no","fee":"yes","operator":"","nameSource":"source"},"sourceId":"osm"},{"id":"osm:node:10277991469","latitude":51.4303064,"longitude":-0.3449409,"name":"Stanley Gardens Road near Stanley Road","properties":{"access":"unknown","bicycle_pa":"stands","capacity":4,"covered":"no","fee":"","operator":"","nameSource":"junction"},"sourceId":"osm"},{"id":"osm:node:10277991470","latitude":51.4314094,"longitude":-0.3454648,"name":"Stanley Road near York Road","properties":{"access":"unknown","bicycle_pa":"stands","capacity":4,"covered":"no","fee":"","operator":"","nameSource":"junction"},"sourceId":"osm"},{"id":"osm:node:10277991471","latitude":51.4315678,"longitude":-0.3454382,"name":"Stanley Road near York Road","properties":{"access":"unknown","bicycle_pa":"stands","capacity":4,"covered":"no","fee":"","operator":"","nameSource":"junction"},"sourceId":"osm"},{"id":"osm:node:10277991864","latitude":51.4146066,"longitude":-0.3126202,"name":"High Street near Vicarage Road","properties":{"access":"unknown","bicycle_pa":"stands","capacity":30,"covered":"yes","fee":"","operator":"","nameSource":"junction"},"sourceId":"osm"},{"id":"osm:node:10277991899","latitude":51.4309735,"longitude":-0.3069968,"name":"Richmond Road near Cranmer Court","properties":{"access":"unknown","bicycle_pa":"stands","capacity":8,"covered":"no","fee":"","operator":"","nameSource":"junction"},"sourceId":"osm"},{"id":"osm:node:10277991900","latitude":51.4307275,"longitude":-0.3072193,"name":"Richmond Road near Cranmer Court","properties":{"access":"unknown","bicycle_pa":"stands","capacity":2,"covered":"no","fee":"","operator":"","nameSource":"junction"},"sourceId":"osm"},{"id":"osm:node:10277991901","latitude":51.4311019,"longitude":-0.3071834,"name":"Richmond Road near Cranmer Court","properties":{"access":"unknown","bicycle_pa":"stands","capacity":2,"covered":"no","fee":"","operator":"","nameSource":"junction"},"sourceId":"osm"},{"id":"osm:node:10277991902","latitude":51.4312671,"longitude":-0.3071779,"name":"Upper Ham Road near Cranmer Court","properties":{"access":"unknown","bicycle_pa":"stands","capacity":2,"covered":"no","fee":"","operator":"","nameSource":"junction"},"sourceId":"osm"},{"id":"osm:node:10277991965","latitude":51.4306454,"longitude":-0.3072227,"name":"Richmond Road near Cranmer Court","properties":{"access":"unknown","bicycle_pa":"stands","capacity":2,"covered":"no","fee":"","operator":"","nameSource":"junction"},"sourceId":"osm"},{"id":"osm:node:10277991966","latitude":51.4311847,"longitude":-0.3071864,"name":"Cranmer Court near Richmond Road","properties":{"access":"unknown","bicycle_pa":"stands","capacity":2,"covered":"no","fee":"","operator":"","nameSource":"junction"},"sourceId":"osm"},{"id":"osm:node:10277992114","latitude":51.4315164,"longitude":-0.345434,"name":"Stanley Road near York Road","properties":{"access":"unknown","bicycle_pa":"stands","capacity":4,"covered":"no","fee":"","operator":"","nameSource":"junction"},"sourceId":"osm"},{"id":"osm:node:10277992119","latitude":51.4305488,"longitude":-0.3072253,"name":"Richmond Road near Dukes Avenue","properties":{"access":"unknown","bicycle_pa":"stands","capacity":2,"covered":"no","fee":"","operator":"","nameSource":"junction"},"sourceId":"osm"},{"id":"osm:node:10277992241","latitude":51.4312447,"longitude":-0.3069683,"name":"Cranmer Court near Richmond Road","properties":{"access":"unknown","bicycle_pa":"stands","capacity":2,"covered":"no","fee":"","operator":"","nameSource":"junction"},"sourceId":"osm"},{"id":"osm:node:10277995434","latitude":51.4210681,"longitude":-0.3189502,"name":"Bushy Park Road near Kingston Road","properties":{"access":"unknown","bicycle_pa":"stands","capacity":4,"covered":"","fee":"","operator":"","nameSource":"junction"},"sourceId":"osm"},{"id":"osm:node:10277995435","latitude":51.4208916,"longitude":-0.3187469,"name":"Kingston Road near Holmesdale Road","properties":{"access":"unknown","bicycle_pa":"stands","capacity":4,"covered":"","fee":"","operator":"","nameSource":"junction"},"sourceId":"osm"},{"id":"osm:node:10277995436","latitude":51.4144133,"longitude":-0.3127922,"name":"High Street near Vicarage Road","properties":{"access":"unknown","bicycle_pa":"stands","capacity":2,"covered":"","fee":"","operator":"","nameSource":"junction"},"sourceId":"osm"},{"id":"osm:node:10277995437","latitude":51.4272806,"longitude":-0.3299966,"name":"High Street near Watts Lane","properties":{"access":"unknown","bicycle_pa":"","capacity":10,"covered":"no","fee":"","operator":"","nameSource":"junction"},"sourceId":"osm"},{"id":"osm:node:10277995618","latitude":51.4272498,"longitude":-0.3319557,"name":"High Street near Vicarage Road","properties":{"access":"unknown","bicycle_pa":"stands","capacity":6,"covered":"no","fee":"","operator":"","nameSource":"junction"},"sourceId":"osm"},{"id":"osm:node:10277995682","latitude":51.430841,"longitude":-0.3072124,"name":"Richmond Road near Cranmer Court","properties":{"access":"unknown","bicycle_pa":"stands","capacity":2,"covered":"no","fee":"","operator":"","nameSource":"junction"},"sourceId":"osm"},{"id":"osm:node:10277996514","latitude":51.4209127,"longitude":-0.3188231,"name":"Bushy Park Road near Kingston Road","properties":{"access":"unknown","bicycle_pa":"stands","capacity":8,"covered":"","fee":"","operator":"","nameSource":"junction"},"sourceId":"osm"},{"id":"osm:node:10277996515","latitude":51.4214627,"longitude":-0.3193345,"name":"Kingston Road near St. Mark's Road","properties":{"access":"unknown","bicycle_pa":"stands","capacity":2,"covered":"no","fee":"","operator":"","nameSource":"junction"},"sourceId":"osm"},{"id":"osm:node:10277996516","latitude":51.4213615,"longitude":-0.3192208,"name":"Kingston Road near St. Mark's Road","properties":{"access":"unknown","bicycle_pa":"stands","capacity":1,"covered":"no","fee":"","operator":"","nameSource":"junction"},"sourceId":"osm"},{"id":"osm:node:10277996517","latitude":51.4174939,"longitude":-0.3201868,"name":"Sandy Lane near Bushy Park Road","properties":{"access":"unknown","bicycle_pa":"stands","capacity":10,"covered":"","fee":"","operator":"","nameSource":"junction"},"sourceId":"osm"},{"id":"osm:node:10277996518","latitude":51.414342,"longitude":-0.3127255,"name":"High Street near Jubilee Close","properties":{"access":"unknown","bicycle_pa":"stands","capacity":2,"covered":"","fee":"","operator":"","nameSource":"junction"},"sourceId":"osm"},{"id":"osm:node:10278000939","latitude":51.4315949,"longitude":-0.3069024,"name":"Upper Ham Road near Parkleys","properties":{"access":"unknown","bicycle_pa":"stands","capacity":2,"covered":"no","fee":"","operator":"","nameSource":"junction"},"sourceId":"osm"},{"id":"osm:node:10280258496","latitude":51.4156674,"longitude":-0.338188,"name":"The Pheasantry cycle parking","properties":{"access":"yes","bicycle_pa":"stands","capacity":12,"covered":"no","fee":"no","operator":"","nameSource":"landmark"},"sourceId":"osm"},{"id":"osm:node:10280259356","latitude":51.4142382,"longitude":-0.3376287,"name":"Crocodile Bridge cycle parking","properties":{"access":"unknown","bicycle_pa":"","capacity":6,"covered":"","fee":"","operator":"","nameSource":"street"},"sourceId":"osm"},{"id":"osm:node:10280259357","latitude":51.4154041,"longitude":-0.3405642,"name":"Duck Bridge cycle parking","properties":{"access":"unknown","bicycle_pa":"","capacity":6,"covered":"","fee":"","operator":"","nameSource":"street"},"sourceId":"osm"},{"id":"osm:node:10280259358","latitude":51.4262617,"longitude":-0.3347655,"name":"Park Road by Kate Feather","properties":{"access":"unknown","bicycle_pa":"stands","capacity":6,"covered":"no","fee":"","operator":"","nameSource":"landmark"},"sourceId":"osm"},{"id":"osm:node:10280259359","latitude":51.4269116,"longitude":-0.3332685,"name":"Station Road near High Street","properties":{"access":"unknown","bicycle_pa":"","capacity":8,"covered":"","fee":"","operator":"","nameSource":"junction"},"sourceId":"osm"},{"id":"osm:node:10280260197","latitude":51.450625,"longitude":-0.3298071,"name":"Bradshaw Close cycle parking","properties":{"access":"unknown","bicycle_pa":"two-tier","capacity":104,"covered":"yes","fee":"","operator":"","nameSource":"street"},"sourceId":"osm"},{"id":"osm:node:10280266232","latitude":51.4023408,"longitude":-0.3039464,"name":"Penrhyn Gardens near Penrhyn Road","properties":{"access":"unknown","bicycle_pa":"stands","capacity":12,"covered":"","fee":"","operator":"","nameSource":"junction"},"sourceId":"osm"},{"id":"osm:node:10280266233","latitude":51.4011942,"longitude":-0.2949303,"name":"Villiers Avenue near Lower Marsh Lane","properties":{"access":"unknown","bicycle_pa":"stands","capacity":6,"covered":"","fee":"","operator":"","nameSource":"junction"},"sourceId":"osm"},{"id":"osm:node:10280269917","latitude":51.4260826,"longitude":-0.3364714,"name":"Broad Street near Church Road","properties":{"access":"unknown","bicycle_pa":"stands","capacity":4,"covered":"no","fee":"","operator":"","nameSource":"junction"},"sourceId":"osm"},{"id":"osm:node:10280269970","latitude":51.4380056,"longitude":-0.3139131,"name":"Ashburnham Road near Back Lane","properties":{"access":"unknown","bicycle_pa":"stands","capacity":4,"covered":"no","fee":"","operator":"","nameSource":"junction"},"sourceId":"osm"},{"id":"osm:node:10280270516","latitude":51.4270157,"longitude":-0.3371343,"name":"Church Road near Church Lane","properties":{"access":"unknown","bicycle_pa":"stands","capacity":6,"covered":"","fee":"","operator":"","nameSource":"junction"},"sourceId":"osm"},{"id":"osm:node:10280270603","latitude":51.4395658,"longitude":-0.3136072,"name":"Sandy Lane near Ham Street","properties":{"access":"unknown","bicycle_pa":"stands","capacity":6,"covered":"no","fee":"","operator":"","nameSource":"junction"},"sourceId":"osm"},{"id":"osm:node:10280270604","latitude":51.442559,"longitude":-0.2934038,"name":"The Tamsin Trail by Kiosk","properties":{"access":"yes","bicycle_pa":"stands","capacity":18,"covered":"no","fee":"","operator":"","nameSource":"landmark"},"sourceId":"osm"},{"id":"osm:node:10280270626","latitude":51.4414948,"longitude":-0.3177903,"name":"Riverside Drive cycle parking","properties":{"access":"unknown","bicycle_pa":"stands","capacity":6,"covered":"","fee":"","operator":"","nameSource":"street"},"sourceId":"osm"},{"id":"osm:node:10280270627","latitude":51.4456905,"longitude":-0.2997628,"name":"Cedar Heights cycle parking","properties":{"access":"unknown","bicycle_pa":"","capacity":8,"covered":"","fee":"","operator":"","nameSource":"street"},"sourceId":"osm"},{"id":"osm:node:10280270628","latitude":51.4427149,"longitude":-0.2934522,"name":"The Tamsin Trail by Kiosk","properties":{"access":"yes","bicycle_pa":"stands","capacity":32,"covered":"no","fee":"","operator":"","nameSource":"landmark"},"sourceId":"osm"},{"id":"osm:node:10280270671","latitude":51.4484758,"longitude":-0.328265,"name":"Katherine Street by W Dental","properties":{"access":"unknown","bicycle_pa":"wall_loops","capacity":2,"covered":"","fee":"","operator":"","nameSource":"landmark"},"sourceId":"osm"},{"id":"osm:node:10280272917","latitude":51.4079736,"longitude":-0.3075439,"name":"High Street near Ram Passage","properties":{"access":"unknown","bicycle_pa":"stands","capacity":6,"covered":"no","fee":"","operator":"","nameSource":"junction"},"sourceId":"osm"},{"id":"osm:node:10280272918","latitude":51.4080058,"longitude":-0.3083925,"name":"Queens Promenade near Ram Passage","properties":{"access":"unknown","bicycle_pa":"stands","capacity":6,"covered":"","fee":"","operator":"","nameSource":"junction"},"sourceId":"osm"},{"id":"osm:node:10280272920","latitude":51.414219,"longitude":-0.3054561,"name":"Skerne Road by Kingston Health Centre","properties":{"access":"unknown","bicycle_pa":"stands","capacity":16,"covered":"no","fee":"","operator":"","nameSource":"landmark"},"sourceId":"osm"},{"id":"osm:node:10280274709","latitude":51.4226282,"longitude":-0.3406365,"name":"Dora Jordan Road near Essen Way","properties":{"access":"unknown","bicycle_pa":"stands","capacity":8,"covered":"","fee":"","operator":"","nameSource":"junction"},"sourceId":"osm"},{"id":"osm:node:10280277518","latitude":51.4103751,"longitude":-0.3076881,"name":"Bishop's Hall near Kingston Riverside","properties":{"access":"unknown","bicycle_pa":"stands","capacity":12,"covered":"","fee":"","operator":"","nameSource":"junction"},"sourceId":"osm"},{"id":"osm:node:10280277519","latitude":51.4021609,"longitude":-0.307627,"name":"Queens Promenade by St. Raphael's Church","properties":{"access":"unknown","bicycle_pa":"","capacity":20,"covered":"","fee":"","operator":"","nameSource":"landmark"},"sourceId":"osm"},{"id":"osm:node:10280277520","latitude":51.4129816,"longitude":-0.3098685,"name":"Becketts Place near Lower Teddington Road","properties":{"access":"unknown","bicycle_pa":"","capacity":6,"covered":"","fee":"","operator":"","nameSource":"junction"},"sourceId":"osm"},{"id":"osm:node:10280277521","latitude":51.4139919,"longitude":-0.3052519,"name":"Skerne Road near Down Hall Road","properties":{"access":"unknown","bicycle_pa":"stands","capacity":6,"covered":"no","fee":"","operator":"","nameSource":"junction"},"sourceId":"osm"},{"id":"osm:node:10280277522","latitude":51.4172761,"longitude":-0.3049695,"name":"Eastbury Road near Lower Ham Road","properties":{"access":"unknown","bicycle_pa":"stands","capacity":4,"covered":"","fee":"","operator":"","nameSource":"junction"},"sourceId":"osm"},{"id":"osm:node:10280277523","latitude":51.4130091,"longitude":-0.3111366,"name":"High Street near Park Road","properties":{"access":"unknown","bicycle_pa":"stands","capacity":2,"covered":"","fee":"","operator":"","nameSource":"junction"},"sourceId":"osm"},{"id":"osm:node:10280285531","latitude":51.4140598,"longitude":-0.3054216,"name":"Skerne Road by Kingston Health Centre","properties":{"access":"unknown","bicycle_pa":"stands","capacity":2,"covered":"no","fee":"","operator":"","nameSource":"landmark"},"sourceId":"osm"},{"id":"osm:node:10280285532","latitude":51.4139739,"longitude":-0.305373,"name":"Skerne Road near Down Hall Road","properties":{"access":"unknown","bicycle_pa":"stands","capacity":2,"covered":"no","fee":"","operator":"","nameSource":"junction"},"sourceId":"osm"},{"id":"osm:node:10280286009","latitude":51.4103823,"longitude":-0.3079128,"name":"Bishop's Hall near Kingston Riverside","properties":{"access":"unknown","bicycle_pa":"stands","capacity":36,"covered":"yes","fee":"","operator":"","nameSource":"junction"},"sourceId":"osm"},{"id":"osm:node:10280286109","latitude":51.4103773,"longitude":-0.3077664,"name":"Bishop's Hall near Kingston Riverside","properties":{"access":"unknown","bicycle_pa":"stands","capacity":10,"covered":"yes","fee":"","operator":"","nameSource":"junction"},"sourceId":"osm"},{"id":"osm:node:10280286209","latitude":51.407777,"longitude":-0.3077206,"name":"High Street near Kingston Hall Road","properties":{"access":"unknown","bicycle_pa":"stands","capacity":12,"covered":"","fee":"","operator":"","nameSource":"junction"},"sourceId":"osm"},{"id":"osm:node:10280297148","latitude":51.4512808,"longitude":-0.3189553,"name":"Richmond Road near Orleans Road","properties":{"access":"unknown","bicycle_pa":"stands","capacity":4,"covered":"no","fee":"","operator":"","nameSource":"junction"},"sourceId":"osm"},{"id":"osm:node:10280297149","latitude":51.4496741,"longitude":-0.3302162,"name":"London Road near Railway Approach","properties":{"access":"unknown","bicycle_pa":"stands","capacity":4,"covered":"no","fee":"","operator":"","nameSource":"junction"},"sourceId":"osm"},{"id":"osm:node:10281997784","latitude":51.4049965,"longitude":-0.2808661,"name":"Kingston Road cycle parking","properties":{"access":"unknown","bicycle_pa":"wall_loops","capacity":5,"covered":"","fee":"","operator":"","nameSource":"street"},"sourceId":"osm"},{"id":"osm:node:10281997847","latitude":51.4044882,"longitude":-0.2964508,"name":"Horace Road near Portland Road","properties":{"access":"unknown","bicycle_pa":"stands","capacity":10,"covered":"","fee":"","operator":"","nameSource":"junction"},"sourceId":"osm"},{"id":"osm:node:10281998424","latitude":51.4228122,"longitude":-0.343468,"name":"Dora Jordan Road near Coleshill Passage","properties":{"access":"unknown","bicycle_pa":"stands","capacity":10,"covered":"","fee":"","operator":"","nameSource":"junction"},"sourceId":"osm"},{"id":"osm:node:10281998450","latitude":51.4117307,"longitude":-0.3127484,"name":"Church Grove near Church Grove Passage","properties":{"access":"unknown","bicycle_pa":"stands","capacity":4,"covered":"","fee":"","operator":"","nameSource":"junction"},"sourceId":"osm"},{"id":"osm:node:10281998451","latitude":51.4117858,"longitude":-0.3126576,"name":"Church Grove near Church Grove Passage","properties":{"access":"unknown","bicycle_pa":"stands","capacity":2,"covered":"","fee":"","operator":"","nameSource":"junction"},"sourceId":"osm"},{"id":"osm:node:10281998562","latitude":51.412441,"longitude":-0.2874151,"name":"Coombe Road near Station Road","properties":{"access":"unknown","bicycle_pa":"stands","capacity":12,"covered":"","fee":"","operator":"","nameSource":"junction"},"sourceId":"osm"},{"id":"osm:node:10281998956","latitude":51.4260962,"longitude":-0.3379847,"name":"Broad Street near North Lane","properties":{"access":"yes","bicycle_pa":"stands","capacity":6,"covered":"no","fee":"no","operator":"","nameSource":"junction"},"sourceId":"osm"},{"id":"osm:node:10281999031","latitude":51.4122367,"longitude":-0.2843701,"name":"Norbiton Avenue near Station Approach","properties":{"access":"unknown","bicycle_pa":"stands","capacity":12,"covered":"","fee":"","operator":"","nameSource":"junction"},"sourceId":"osm"},{"id":"osm:node:10281999082","latitude":51.4259716,"longitude":-0.3379381,"name":"Broad Street near Elfin Grove","properties":{"access":"yes","bicycle_pa":"stands","capacity":2,"covered":"no","fee":"no","operator":"","nameSource":"junction"},"sourceId":"osm"},{"id":"osm:node:10282005110","latitude":51.4124914,"longitude":-0.2871623,"name":"Coombe Road near Station Road","properties":{"access":"unknown","bicycle_pa":"stands","capacity":12,"covered":"","fee":"","operator":"","nameSource":"junction"},"sourceId":"osm"},{"id":"osm:node:10282005836","latitude":51.4124235,"longitude":-0.2874993,"name":"Coombe Road near Station Road","properties":{"access":"unknown","bicycle_pa":"stands","capacity":8,"covered":"","fee":"","operator":"","nameSource":"junction"},"sourceId":"osm"},{"id":"osm:node:10282005837","latitude":51.4125339,"longitude":-0.2868371,"name":"Coombe Road near Cobham Road","properties":{"access":"unknown","bicycle_pa":"stands","capacity":2,"covered":"","fee":"","operator":"","nameSource":"junction"},"sourceId":"osm"},{"id":"osm:node:10282006226","latitude":51.4237287,"longitude":-0.3212153,"name":"Atbara Road near Kingston Road","properties":{"access":"unknown","bicycle_pa":"","capacity":10,"covered":"","fee":"","operator":"","nameSource":"junction"},"sourceId":"osm"},{"id":"osm:node:10282006244","latitude":51.4179045,"longitude":-0.2857261,"name":"Alexandra Road near Queen's Road","properties":{"access":"unknown","bicycle_pa":"stands","capacity":10,"covered":"","fee":"","operator":"","nameSource":"junction"},"sourceId":"osm"},{"id":"osm:node:10282006524","latitude":51.4084637,"longitude":-0.3349046,"name":"Chestnut Avenue cycle parking","properties":{"access":"unknown","bicycle_pa":"stands","capacity":6,"covered":"no","fee":"","operator":"","nameSource":"street"},"sourceId":"osm"},{"id":"osm:node:10282007421","latitude":51.4159266,"longitude":-0.2884193,"name":"Borough Road near Park Road","properties":{"access":"unknown","bicycle_pa":"stands","capacity":4,"covered":"","fee":"","operator":"","nameSource":"junction"},"sourceId":"osm"},{"id":"osm:node:10282007422","latitude":51.415749,"longitude":-0.2883723,"name":"Glenville Road near Park Road","properties":{"access":"unknown","bicycle_pa":"stands","capacity":4,"covered":"","fee":"","operator":"","nameSource":"junction"},"sourceId":"osm"},{"id":"osm:node:10282007423","latitude":51.4188827,"longitude":-0.3018001,"name":"Osborne Road near Richmond Road","properties":{"access":"unknown","bicycle_pa":"wall_loops","capacity":15,"covered":"","fee":"","operator":"","nameSource":"junction"},"sourceId":"osm"},{"id":"osm:node:10282007424","latitude":51.4181577,"longitude":-0.3014769,"name":"Richmond Road near Windsor Road","properties":{"access":"unknown","bicycle_pa":"stands","capacity":2,"covered":"","fee":"","operator":"","nameSource":"junction"},"sourceId":"osm"},{"id":"osm:node:10282007425","latitude":51.421457,"longitude":-0.3022125,"name":"Richmond Road near St. Albans Road","properties":{"access":"unknown","bicycle_pa":"stands","capacity":10,"covered":"","fee":"","operator":"","nameSource":"junction"},"sourceId":"osm"},{"id":"osm:node:10282007426","latitude":51.4192195,"longitude":-0.2934071,"name":"Kings Road near Wyndham Road","properties":{"access":"unknown","bicycle_pa":"stands","capacity":10,"covered":"","fee":"","operator":"","nameSource":"junction"},"sourceId":"osm"},{"id":"osm:node:10282007500","latitude":51.4138349,"longitude":-0.3002296,"name":"Cowleaze Road near Richmond Road","properties":{"access":"unknown","bicycle_pa":"stands","capacity":4,"covered":"","fee":"","operator":"","nameSource":"junction"},"sourceId":"osm"},{"id":"osm:node:10282007501","latitude":51.4131316,"longitude":-0.2980973,"name":"Canbury Park Road near Sigrist Square","properties":{"access":"unknown","bicycle_pa":"stands","capacity":6,"covered":"","fee":"","operator":"","nameSource":"junction"},"sourceId":"osm"},{"id":"osm:node:10282007574","latitude":51.406896,"longitude":-0.3083258,"name":"Queens Promenade by Korean Hero","properties":{"access":"unknown","bicycle_pa":"stands","capacity":10,"covered":"","fee":"","operator":"","nameSource":"landmark"},"sourceId":"osm"},{"id":"osm:node:10282007613","latitude":51.4186161,"longitude":-0.301729,"name":"Chestnut Road near Richmond Road","properties":{"access":"unknown","bicycle_pa":"stands","capacity":6,"covered":"","fee":"","operator":"","nameSource":"junction"},"sourceId":"osm"},{"id":"osm:node:10282007644","latitude":51.4138547,"longitude":-0.3005263,"name":"Cowleaze Road near Richmond Road","properties":{"access":"unknown","bicycle_pa":"stands","capacity":4,"covered":"","fee":"","operator":"","nameSource":"junction"},"sourceId":"osm"},{"id":"osm:node:10282007646","latitude":51.4076147,"longitude":-0.3076353,"name":"High Street near Kingston Hall Road","properties":{"access":"unknown","bicycle_pa":"stands","capacity":8,"covered":"","fee":"","operator":"","nameSource":"junction"},"sourceId":"osm"},{"id":"osm:node:10282007647","latitude":51.4029467,"longitude":-0.3080436,"name":"Portsmouth Road near Surbiton Road","properties":{"access":"unknown","bicycle_pa":"stands","capacity":6,"covered":"","fee":"","operator":"","nameSource":"junction"},"sourceId":"osm"},{"id":"osm:node:10282007725","latitude":51.4135301,"longitude":-0.28883,"name":"Bridge End Close near Clifton Road","properties":{"access":"unknown","bicycle_pa":"stands","capacity":6,"covered":"no","fee":"","operator":"","nameSource":"junction"},"sourceId":"osm"},{"id":"osm:node:10282007726","latitude":51.4163474,"longitude":-0.2923267,"name":"Lowther Road near Willoughby Road","properties":{"access":"unknown","bicycle_pa":"stands","capacity":6,"covered":"","fee":"","operator":"","nameSource":"junction"},"sourceId":"osm"},{"id":"osm:node:10282007759","latitude":51.4513373,"longitude":-0.3448248,"name":"Gladstone Avenue cycle parking","properties":{"access":"unknown","bicycle_pa":"stands","capacity":20,"covered":"","fee":"","operator":"","nameSource":"street"},"sourceId":"osm"},{"id":"osm:node:10282007760","latitude":51.4513134,"longitude":-0.344833,"name":"Gladstone Avenue cycle parking","properties":{"access":"unknown","bicycle_pa":"stands","capacity":16,"covered":"","fee":"","operator":"","nameSource":"street"},"sourceId":"osm"},{"id":"osm:node:10282007761","latitude":51.4513243,"longitude":-0.3439934,"name":"Langhorn Drive cycle parking","properties":{"access":"unknown","bicycle_pa":"stands","capacity":10,"covered":"","fee":"","operator":"","nameSource":"street"},"sourceId":"osm"},{"id":"osm:node:10282007762","latitude":51.4507428,"longitude":-0.3428043,"name":"Langhorn Drive cycle parking","properties":{"access":"unknown","bicycle_pa":"stands","capacity":22,"covered":"","fee":"","operator":"","nameSource":"street"},"sourceId":"osm"},{"id":"osm:node:10282007824","latitude":51.4203171,"longitude":-0.2786708,"name":"Crescent Road near Kingston Hill","properties":{"access":"unknown","bicycle_pa":"stands","capacity":4,"covered":"","fee":"","operator":"","nameSource":"junction"},"sourceId":"osm"},{"id":"osm:node:10282007930","latitude":51.4063577,"longitude":-0.3079637,"name":"High Street cycle parking","properties":{"access":"unknown","bicycle_pa":"stands","capacity":10,"covered":"","fee":"","operator":"","nameSource":"street"},"sourceId":"osm"},{"id":"osm:node:10282007952","latitude":51.4203523,"longitude":-0.2788692,"name":"Crescent Road near Cumberland House","properties":{"access":"unknown","bicycle_pa":"stands","capacity":4,"covered":"","fee":"","operator":"","nameSource":"junction"},"sourceId":"osm"},{"id":"osm:node:10282007953","latitude":51.4202694,"longitude":-0.2785328,"name":"Crescent Road near Kingston Hill","properties":{"access":"unknown","bicycle_pa":"stands","capacity":2,"covered":"","fee":"","operator":"","nameSource":"junction"},"sourceId":"osm"},{"id":"osm:node:10282008310","latitude":51.4165224,"longitude":-0.2883765,"name":"Princes Road near Park Road","properties":{"access":"unknown","bicycle_pa":"stands","capacity":4,"covered":"","fee":"","operator":"","nameSource":"junction"},"sourceId":"osm"},{"id":"osm:node:10282009634","latitude":51.4390486,"longitude":-0.3395305,"name":"Wellesley Parade near Wellesley Road","properties":{"access":"yes","bicycle_pa":"stands","capacity":16,"covered":"yes","fee":"no","operator":"","nameSource":"junction"},"sourceId":"osm"},{"id":"osm:node:10282009652","latitude":51.4536264,"longitude":-0.3255495,"name":"Godstone Road near Moor Mead Road","properties":{"access":"unknown","bicycle_pa":"stands","capacity":8,"covered":"","fee":"","operator":"","nameSource":"junction"},"sourceId":"osm"},{"id":"osm:node:10282009661","latitude":51.4363657,"longitude":-0.3506498,"name":"Hampton Road near Sixth Cross Road","properties":{"access":"unknown","bicycle_pa":"stands","capacity":2,"covered":"no","fee":"","operator":"","nameSource":"junction"},"sourceId":"osm"},{"id":"osm:node:10282009662","latitude":51.4362943,"longitude":-0.3507178,"name":"Hampton Road near Sixth Cross Road","properties":{"access":"unknown","bicycle_pa":"stands","capacity":2,"covered":"no","fee":"","operator":"","nameSource":"junction"},"sourceId":"osm"},{"id":"osm:node:10282010431","latitude":51.4388537,"longitude":-0.3401217,"name":"Popes Avenue near Wellesley Parade","properties":{"access":"unknown","bicycle_pa":"stands","capacity":8,"covered":"","fee":"","operator":"","nameSource":"junction"},"sourceId":"osm"},{"id":"osm:node:10282013810","latitude":51.4157112,"longitude":-0.3021028,"name":"Sury Basin near Richmond Road","properties":{"access":"unknown","bicycle_pa":"stands","capacity":8,"covered":"yes","fee":"","operator":"","nameSource":"junction"},"sourceId":"osm"},{"id":"osm:node:10282013853","latitude":51.4475119,"longitude":-0.3248287,"name":"Arragon Road near Church Street","properties":{"access":"yes","bicycle_pa":"stands","capacity":16,"covered":"no","fee":"no","operator":"","nameSource":"junction"},"sourceId":"osm"},{"id":"osm:node:10282015760","latitude":51.4338216,"longitude":-0.3451669,"name":"Strathmore Road cycle parking","properties":{"access":"unknown","bicycle_pa":"stands","capacity":12,"covered":"","fee":"","operator":"","nameSource":"street"},"sourceId":"osm"},{"id":"osm:node:10282015816","latitude":51.4090444,"longitude":-0.2916238,"name":"Hawks Road near Portman Road","properties":{"access":"unknown","bicycle_pa":"stands","capacity":4,"covered":"no","fee":"","operator":"","nameSource":"junction"},"sourceId":"osm"},{"id":"osm:node:10282016957","latitude":51.4123373,"longitude":-0.2878727,"name":"Chesham Road near Coombe Road","properties":{"access":"unknown","bicycle_pa":"stands","capacity":2,"covered":"","fee":"","operator":"","nameSource":"junction"},"sourceId":"osm"},{"id":"osm:node:10282016958","latitude":51.412389,"longitude":-0.2876551,"name":"Coombe Road near Chesham Road","properties":{"access":"unknown","bicycle_pa":"stands","capacity":4,"covered":"","fee":"","operator":"","nameSource":"junction"},"sourceId":"osm"},{"id":"osm:node:10282018109","latitude":51.4117575,"longitude":-0.3127078,"name":"Church Grove near Church Grove Passage","properties":{"access":"unknown","bicycle_pa":"stands","capacity":6,"covered":"","fee":"","operator":"","nameSource":"junction"},"sourceId":"osm"},{"id":"osm:node:10282024133","latitude":51.4005852,"longitude":-0.2647313,"name":"Kingston Road near Westbury Road","properties":{"access":"unknown","bicycle_pa":"stands","capacity":6,"covered":"no","fee":"","operator":"","nameSource":"junction"},"sourceId":"osm"},{"id":"osm:node:10282027022","latitude":51.4297452,"longitude":-0.3226855,"name":"Ferry Road near Broom Road","properties":{"access":"unknown","bicycle_pa":"stands","capacity":10,"covered":"no","fee":"","operator":"","nameSource":"junction"},"sourceId":"osm"},{"id":"osm:node:10282027029","latitude":51.4178617,"longitude":-0.3044191,"name":"Chestnut Road near Lower Ham Road","properties":{"access":"unknown","bicycle_pa":"stands","capacity":6,"covered":"","fee":"","operator":"","nameSource":"junction"},"sourceId":"osm"},{"id":"osm:node:10282027032","latitude":51.4428868,"longitude":-0.3429153,"name":"The Green near First Cross Road","properties":{"access":"unknown","bicycle_pa":"stands","capacity":8,"covered":"no","fee":"","operator":"","nameSource":"junction"},"sourceId":"osm"},{"id":"osm:node:10282034310","latitude":51.4089575,"longitude":-0.2942553,"name":"Albert Road near Victoria Road","properties":{"access":"unknown","bicycle_pa":"stands","capacity":6,"covered":"","fee":"","operator":"","nameSource":"junction"},"sourceId":"osm"},{"id":"osm:node:10282034412","latitude":51.4536853,"longitude":-0.2996751,"name":"Richmond Hill near Friars Stile Road","properties":{"access":"unknown","bicycle_pa":"stands","capacity":6,"covered":"no","fee":"","operator":"","nameSource":"junction"},"sourceId":"osm"},{"id":"osm:node:10313821505","latitude":51.444145,"longitude":-0.3445157,"name":"The Green near First Cross Road","properties":{"access":"permit","bicycle_pa":"shed","capacity":6,"covered":"yes","fee":"yes","operator":"","nameSource":"junction"},"sourceId":"osm"},{"id":"osm:node:10761831125","latitude":51.4044163,"longitude":-0.3400738,"name":"Tennis Court Lane cycle parking","properties":{"access":"yes","bicycle_pa":"stands","capacity":26,"covered":"no","fee":"no","operator":"","nameSource":"street"},"sourceId":"osm"},{"id":"osm:node:10761831126","latitude":51.4043134,"longitude":-0.3396987,"name":"Tennis Court Lane cycle parking","properties":{"access":"yes","bicycle_pa":"stands","capacity":8,"covered":"no","fee":"no","operator":"","nameSource":"street"},"sourceId":"osm"},{"id":"osm:node:10761831132","latitude":51.4042245,"longitude":-0.3389061,"name":"Tennis Court Lane cycle parking","properties":{"access":"employees","bicycle_pa":"stands","capacity":0,"covered":"yes","fee":"","operator":"","nameSource":"street"},"sourceId":"osm"},{"id":"osm:node:10832917396","latitude":51.4493476,"longitude":-0.3284808,"name":"Arragon Road cycle parking","properties":{"access":"unknown","bicycle_pa":"stands","capacity":6,"covered":"no","fee":"","operator":"","nameSource":"street"},"sourceId":"osm"},{"id":"osm:node:10931965801","latitude":51.4084055,"longitude":-0.3019535,"name":"Wheatfield Way near Ashdown Road","properties":{"access":"unknown","bicycle_pa":"stands","capacity":0,"covered":"","fee":"","operator":"","nameSource":"junction"},"sourceId":"osm"},{"id":"osm:node:11020732310","latitude":51.4283165,"longitude":-0.3244063,"name":"Cloister Close near Ferry Road","properties":{"access":"yes","bicycle_pa":"stands","capacity":10,"covered":"no","fee":"yes","operator":"","nameSource":"junction"},"sourceId":"osm"},{"id":"osm:node:11149114535","latitude":51.4096206,"longitude":-0.3008742,"name":"Wheatfield Way near Fairfield Road","properties":{"access":"yes","bicycle_pa":"stands","capacity":10,"covered":"yes","fee":"no","operator":"","nameSource":"junction"},"sourceId":"osm"},{"id":"osm:node:11478456488","latitude":51.4110734,"longitude":-0.3065049,"name":"Clarence Street near Thames Street","properties":{"access":"unknown","bicycle_pa":"stands","capacity":16,"covered":"yes","fee":"","operator":"","nameSource":"junction"},"sourceId":"osm"},{"id":"osm:node:11547309314","latitude":51.4423038,"longitude":-0.3143058,"name":"Cut Throat Alley by The Palm Centre","properties":{"access":"unknown","bicycle_pa":"","capacity":0,"covered":"","fee":"","operator":"","nameSource":"landmark"},"sourceId":"osm"},{"id":"osm:node:11633649603","latitude":51.4100927,"longitude":-0.3010966,"name":"Adam's Walk by The Souvlaki","properties":{"access":"yes","bicycle_pa":"stands","capacity":20,"covered":"yes","fee":"no","operator":"","nameSource":"landmark"},"sourceId":"osm"},{"id":"osm:node:12103888439","latitude":51.4384981,"longitude":-0.3134838,"name":"Ham Street near Ashburnham Road","properties":{"access":"yes","bicycle_pa":"stands","capacity":12,"covered":"no","fee":"no","operator":"","nameSource":"junction"},"sourceId":"osm"},{"id":"osm:node:12521785835","latitude":51.4016954,"longitude":-0.3043166,"name":"Surbiton Road near Penrhyn Road","properties":{"access":"unknown","bicycle_pa":"stands","capacity":4,"covered":"no","fee":"","operator":"","nameSource":"junction"},"sourceId":"osm"},{"id":"osm:node:12806265359","latitude":51.4196613,"longitude":-0.2890513,"name":"Park Road near Kings Road","properties":{"access":"unknown","bicycle_pa":"stands","capacity":4,"covered":"no","fee":"","operator":"","nameSource":"junction"},"sourceId":"osm"},{"id":"osm:node:12806280693","latitude":51.4185019,"longitude":-0.2970355,"name":"Chesfield Road near Kings Road","properties":{"access":"unknown","bicycle_pa":"stands","capacity":2,"covered":"no","fee":"","operator":"","nameSource":"junction"},"sourceId":"osm"},{"id":"osm:node:12806304144","latitude":51.4187641,"longitude":-0.2960859,"name":"Kings Road near Staunton Road","properties":{"access":"unknown","bicycle_pa":"stands","capacity":2,"covered":"no","fee":"","operator":"","nameSource":"junction"},"sourceId":"osm"},{"id":"osm:node:12896667430","latitude":51.410439,"longitude":-0.3068203,"name":"Thames Street near Bishop's Hall","properties":{"access":"unknown","bicycle_pa":"stands","capacity":0,"covered":"no","fee":"","operator":"","nameSource":"junction"},"sourceId":"osm"},{"id":"osm:node:13272370740","latitude":51.4373103,"longitude":-0.3496957,"name":"Hampton Road near Brunswick Close","properties":{"access":"unknown","bicycle_pa":"","capacity":0,"covered":"","fee":"","operator":"","nameSource":"junction"},"sourceId":"osm"},{"id":"osm:node:13338224631","latitude":51.4150005,"longitude":-0.2809842,"name":"Galsworthy Road cycle parking","properties":{"access":"yes","bicycle_pa":"stands","capacity":6,"covered":"yes","fee":"no","operator":"","nameSource":"street"},"sourceId":"osm"},{"id":"osm:node:13438313461","latitude":51.4241907,"longitude":-0.3324275,"name":"Station Road by Bats","properties":{"access":"unknown","bicycle_pa":"stands","capacity":8,"covered":"no","fee":"","operator":"","nameSource":"landmark"},"sourceId":"osm"},{"id":"osm:node:1370530161","latitude":51.4483263,"longitude":-0.3248083,"name":"Oak Lane near Richmond Road","properties":{"access":"unknown","bicycle_pa":"stands","capacity":16,"covered":"no","fee":"","operator":"","nameSource":"junction"},"sourceId":"osm"},{"id":"osm:node:13764809774","latitude":51.4381333,"longitude":-0.3491566,"name":"Stanley Road cycle parking","properties":{"access":"unknown","bicycle_pa":"stands","capacity":9,"covered":"no","fee":"","operator":"","nameSource":"street"},"sourceId":"osm"},{"id":"osm:node:1482475715","latitude":51.4458942,"longitude":-0.3269108,"name":"The Embankment near Water Lane","properties":{"access":"yes","bicycle_pa":"stands","capacity":14,"covered":"no","fee":"no","operator":"","nameSource":"junction"},"sourceId":"osm"},{"id":"osm:node:1482475735","latitude":51.4464884,"longitude":-0.3281087,"name":"Church Street near Water Lane","properties":{"access":"yes","bicycle_pa":"stands","capacity":8,"covered":"no","fee":"no","operator":"","nameSource":"junction"},"sourceId":"osm"},{"id":"osm:node:1482475746","latitude":51.447899,"longitude":-0.3259636,"name":"Cornwall Road near York Street","properties":{"access":"unknown","bicycle_pa":"stands","capacity":1,"covered":"no","fee":"","operator":"","nameSource":"junction"},"sourceId":"osm"},{"id":"osm:node:1482475747","latitude":51.4480666,"longitude":-0.3255321,"name":"Church Street near Richmond Road","properties":{"access":"unknown","bicycle_pa":"stands","capacity":1,"covered":"no","fee":"","operator":"","nameSource":"junction"},"sourceId":"osm"},{"id":"osm:node:1482475748","latitude":51.4481507,"longitude":-0.3252613,"name":"Church Street near Richmond Road","properties":{"access":"unknown","bicycle_pa":"stands","capacity":1,"covered":"no","fee":"","operator":"","nameSource":"junction"},"sourceId":"osm"},{"id":"osm:node:1484887401","latitude":51.4494112,"longitude":-0.3229995,"name":"Richmond Road near Seymour Gardens","properties":{"access":"unknown","bicycle_pa":"stands","capacity":1,"covered":"no","fee":"","operator":"","nameSource":"junction"},"sourceId":"osm"},{"id":"osm:node:1484887404","latitude":51.4494975,"longitude":-0.3228508,"name":"Richmond Road near Seymour Gardens","properties":{"access":"unknown","bicycle_pa":"stands","capacity":2,"covered":"no","fee":"","operator":"","nameSource":"junction"},"sourceId":"osm"},{"id":"osm:node:1484887407","latitude":51.451482,"longitude":-0.3185156,"name":"Richmond Road near Crown Road","properties":{"access":"unknown","bicycle_pa":"stands","capacity":2,"covered":"no","fee":"","operator":"","nameSource":"junction"},"sourceId":"osm"},{"id":"osm:node:1535130543","latitude":51.4492948,"longitude":-0.3283659,"name":"Arragon Road cycle parking","properties":{"access":"unknown","bicycle_pa":"stands","capacity":8,"covered":"no","fee":"","operator":"","nameSource":"street"},"sourceId":"osm"},{"id":"osm:node:1560679088","latitude":51.4041835,"longitude":-0.3389942,"name":"Tennis Court Lane cycle parking","properties":{"access":"yes","bicycle_pa":"stands","capacity":22,"covered":"no","fee":"","operator":"","nameSource":"street"},"sourceId":"osm"},{"id":"osm:node:1560679089","latitude":51.4042007,"longitude":-0.3391606,"name":"Tennis Court Lane cycle parking","properties":{"access":"unknown","bicycle_pa":"stands","capacity":22,"covered":"no","fee":"","operator":"","nameSource":"street"},"sourceId":"osm"},{"id":"osm:node:2423526406","latitude":51.4464329,"longitude":-0.3256494,"name":"Church Lane near Riverside","properties":{"access":"unknown","bicycle_pa":"stands","capacity":14,"covered":"no","fee":"no","operator":"","nameSource":"junction"},"sourceId":"osm"},{"id":"osm:node:2461469312","latitude":51.4017586,"longitude":-0.3045956,"name":"Surbiton Road near Penrhyn Road","properties":{"access":"unknown","bicycle_pa":"","capacity":0,"covered":"","fee":"","operator":"","nameSource":"junction"},"sourceId":"osm"},{"id":"osm:node:2461469313","latitude":51.4044419,"longitude":-0.3059611,"name":"Milner Road cycle parking","properties":{"access":"unknown","bicycle_pa":"","capacity":12,"covered":"","fee":"","operator":"","nameSource":"street"},"sourceId":"osm"},{"id":"osm:node:2493612744","latitude":51.4437622,"longitude":-0.3174244,"name":"King George's Field cycle parking","properties":{"access":"unknown","bicycle_pa":"stands","capacity":8,"covered":"no","fee":"no","operator":"","nameSource":"landmark"},"sourceId":"osm"},{"id":"osm:node:2493628969","latitude":51.4444961,"longitude":-0.3154288,"name":"The Orangery cycle parking","properties":{"access":"unknown","bicycle_pa":"bollard","capacity":16,"covered":"no","fee":"","operator":"","nameSource":"landmark"},"sourceId":"osm"},{"id":"osm:node:2502436019","latitude":51.4065453,"longitude":-0.3378619,"name":"Hampton Court Road near Moat Lane","properties":{"access":"unknown","bicycle_pa":"stands","capacity":10,"covered":"no","fee":"no","operator":"","nameSource":"junction"},"sourceId":"osm"},{"id":"osm:node:2503123244","latitude":51.4100266,"longitude":-0.3068802,"name":"Thames Street near Market Place","properties":{"access":"unknown","bicycle_pa":"","capacity":8,"covered":"","fee":"","operator":"","nameSource":"junction"},"sourceId":"osm"},{"id":"osm:node:258893205","latitude":51.4096575,"longitude":-0.3050996,"name":"Eden Walk by Oriental Pearl","properties":{"access":"unknown","bicycle_pa":"","capacity":13,"covered":"","fee":"","operator":"","nameSource":"landmark"},"sourceId":"osm"},{"id":"osm:node:258893672","latitude":51.4108961,"longitude":-0.3053814,"name":"Clarence Street near Wood Street","properties":{"access":"unknown","bicycle_pa":"stands","capacity":10,"covered":"no","fee":"","operator":"","nameSource":"junction"},"sourceId":"osm"},{"id":"osm:node:258893908","latitude":51.4109613,"longitude":-0.3056608,"name":"Clarence Street near Wood Street","properties":{"access":"unknown","bicycle_pa":"stands","capacity":10,"covered":"no","fee":"","operator":"","nameSource":"junction"},"sourceId":"osm"},{"id":"osm:node:258893966","latitude":51.4110621,"longitude":-0.3055874,"name":"Clarence Street near Wood Street","properties":{"access":"unknown","bicycle_pa":"stands","capacity":8,"covered":"no","fee":"","operator":"","nameSource":"junction"},"sourceId":"osm"},{"id":"osm:node:258894066","latitude":51.4107625,"longitude":-0.3056653,"name":"Wood Street near Clarence Street","properties":{"access":"unknown","bicycle_pa":"stands","capacity":50,"covered":"no","fee":"","operator":"","nameSource":"junction"},"sourceId":"osm"},{"id":"osm:node:258894216","latitude":51.4110307,"longitude":-0.3072799,"name":"Clarence Street near Horse Fair","properties":{"access":"yes","bicycle_pa":"stands","capacity":60,"covered":"no","fee":"","operator":"","nameSource":"junction"},"sourceId":"osm"},{"id":"osm:node:258894570","latitude":51.4111086,"longitude":-0.3067567,"name":"Clarence Street near Thames Street","properties":{"access":"unknown","bicycle_pa":"stands","capacity":35,"covered":"no","fee":"","operator":"","nameSource":"junction"},"sourceId":"osm"},{"id":"osm:node:282462403","latitude":51.4175416,"longitude":-0.3511618,"name":"Cobblers Walk cycle parking","properties":{"access":"unknown","bicycle_pa":"stands","capacity":6,"covered":"no","fee":"","operator":"","nameSource":"street"},"sourceId":"osm"},{"id":"osm:node:282462510","latitude":51.4117611,"longitude":-0.3514437,"name":"The Beveree cycle parking","properties":{"access":"unknown","bicycle_pa":"","capacity":0,"covered":"","fee":"","operator":"","nameSource":"place"},"sourceId":"osm"},{"id":"osm:node:282462594","latitude":51.4112703,"longitude":-0.3466137,"name":"The Beveree cycle parking","properties":{"access":"unknown","bicycle_pa":"","capacity":0,"covered":"","fee":"","operator":"","nameSource":"place"},"sourceId":"osm"},{"id":"osm:node:2885178499","latitude":51.4454673,"longitude":-0.3296645,"name":"King Street near Cross Deep","properties":{"access":"unknown","bicycle_pa":"stands","capacity":8,"covered":"no","fee":"","operator":"","nameSource":"junction"},"sourceId":"osm"},{"id":"osm:node:2892230773","latitude":51.4463785,"longitude":-0.3307861,"name":"John Wesley Court near Queen's Road","properties":{"access":"unknown","bicycle_pa":"","capacity":8,"covered":"","fee":"","operator":"","nameSource":"junction"},"sourceId":"osm"},{"id":"osm:node:3017226609","latitude":51.447999,"longitude":-0.3287869,"name":"London Road near Holly Road","properties":{"access":"yes","bicycle_pa":"stands","capacity":8,"covered":"no","fee":"","operator":"","nameSource":"junction"},"sourceId":"osm"},{"id":"osm:node:3027872115","latitude":51.424248,"longitude":-0.3325437,"name":"Victoria Road near Adelaide Road","properties":{"access":"unknown","bicycle_pa":"stands","capacity":4,"covered":"no","fee":"","operator":"","nameSource":"junction"},"sourceId":"osm"},{"id":"osm:node:3027872487","latitude":51.4247115,"longitude":-0.3329842,"name":"Adelaide Road near Victoria Road","properties":{"access":"unknown","bicycle_pa":"","capacity":10,"covered":"no","fee":"","operator":"","nameSource":"junction"},"sourceId":"osm"},{"id":"osm:node:3027872492","latitude":51.4247687,"longitude":-0.3330365,"name":"Adelaide Road near Victoria Road","properties":{"access":"yes","bicycle_pa":"building","capacity":12,"covered":"yes","fee":"no","operator":"","nameSource":"junction"},"sourceId":"osm"},{"id":"osm:node:3027872531","latitude":51.425476,"longitude":-0.3348322,"name":"Park Lane near Park Road","properties":{"access":"unknown","bicycle_pa":"","capacity":6,"covered":"","fee":"","operator":"","nameSource":"junction"},"sourceId":"osm"},{"id":"osm:node:3027872741","latitude":51.425692,"longitude":-0.3345856,"name":"Park Road near The Causeway","properties":{"access":"unknown","bicycle_pa":"","capacity":2,"covered":"","fee":"","operator":"","nameSource":"junction"},"sourceId":"osm"},{"id":"osm:node:3027872824","latitude":51.4272047,"longitude":-0.3304859,"name":"Field Lane near High Street","properties":{"access":"unknown","bicycle_pa":"stands","capacity":4,"covered":"no","fee":"","operator":"","nameSource":"junction"},"sourceId":"osm"},{"id":"osm:node:3027873173","latitude":51.4272934,"longitude":-0.329522,"name":"High Street near Watts Lane","properties":{"access":"unknown","bicycle_pa":"","capacity":2,"covered":"","fee":"","operator":"","nameSource":"junction"},"sourceId":"osm"},{"id":"osm:node:3060042133","latitude":51.4478469,"longitude":-0.3289098,"name":"London Road near Holly Road","properties":{"access":"unknown","bicycle_pa":"stands","capacity":12,"covered":"no","fee":"no","operator":"","nameSource":"junction"},"sourceId":"osm"},{"id":"osm:node:3172583843","latitude":51.4243525,"longitude":-0.3322995,"name":"Station Road by Teddington","properties":{"access":"unknown","bicycle_pa":"shed","capacity":10,"covered":"no","fee":"","operator":"","nameSource":"landmark"},"sourceId":"osm"},{"id":"osm:node:321864611","latitude":51.4225204,"longitude":-0.3435344,"name":"Coleshill Passage near Dora Jordan Road","properties":{"access":"unknown","bicycle_pa":"","capacity":6,"covered":"","fee":"","operator":"","nameSource":"junction"},"sourceId":"osm"},{"id":"osm:node:3413159099","latitude":51.4100105,"longitude":-0.3066622,"name":"Thames Street near Market Place","properties":{"access":"unknown","bicycle_pa":"stands","capacity":4,"covered":"no","fee":"","operator":"","nameSource":"junction"},"sourceId":"osm"},{"id":"osm:node:3539482625","latitude":51.4446119,"longitude":-0.3405463,"name":"The Green near Knowle Road","properties":{"access":"yes","bicycle_pa":"stands","capacity":12,"covered":"no","fee":"","operator":"","nameSource":"junction"},"sourceId":"osm"},{"id":"osm:node:3559661693","latitude":51.4031417,"longitude":-0.3438017,"name":"Bridge Road near Riverbank","properties":{"access":"unknown","bicycle_pa":"rack","capacity":4,"covered":"no","fee":"","operator":"","nameSource":"junction"},"sourceId":"osm"},{"id":"osm:node:3559661694","latitude":51.4031313,"longitude":-0.3435167,"name":"Riverbank near Bridge Road","properties":{"access":"unknown","bicycle_pa":"rack","capacity":0,"covered":"no","fee":"","operator":"","nameSource":"junction"},"sourceId":"osm"},{"id":"osm:node:3624773181","latitude":51.4453835,"longitude":-0.3368768,"name":"Heath Road near Laurel Avenue","properties":{"access":"unknown","bicycle_pa":"stands","capacity":8,"covered":"no","fee":"","operator":"","nameSource":"junction"},"sourceId":"osm"},{"id":"osm:node:3624999530","latitude":51.4453956,"longitude":-0.3352539,"name":"Heath Road near Radnor Road","properties":{"access":"unknown","bicycle_pa":"stands","capacity":4,"covered":"no","fee":"","operator":"","nameSource":"junction"},"sourceId":"osm"},{"id":"osm:node:3624999531","latitude":51.4453824,"longitude":-0.3350395,"name":"Heath Road near Radnor Road","properties":{"access":"yes","bicycle_pa":"stands","capacity":4,"covered":"no","fee":"no","operator":"","nameSource":"junction"},"sourceId":"osm"},{"id":"osm:node:3625381645","latitude":51.4452927,"longitude":-0.3336242,"name":"Heath Road near Clifden Road","properties":{"access":"unknown","bicycle_pa":"stands","capacity":8,"covered":"no","fee":"","operator":"","nameSource":"junction"},"sourceId":"osm"},{"id":"osm:node:3625381646","latitude":51.4452655,"longitude":-0.333346,"name":"Heath Road near Holly Road","properties":{"access":"unknown","bicycle_pa":"stands","capacity":4,"covered":"no","fee":"","operator":"","nameSource":"junction"},"sourceId":"osm"},{"id":"osm:node:3681456636","latitude":51.4527466,"longitude":-0.3131239,"name":"Richmond Road near St. Stephen's Passage","properties":{"access":"unknown","bicycle_pa":"stands","capacity":8,"covered":"no","fee":"","operator":"","nameSource":"junction"},"sourceId":"osm"},{"id":"osm:node:3683521426","latitude":51.4123343,"longitude":-0.310707,"name":"High Street near Lower Teddington Road","properties":{"access":"unknown","bicycle_pa":"stands","capacity":2,"covered":"no","fee":"","operator":"","nameSource":"junction"},"sourceId":"osm"},{"id":"osm:node:371598807","latitude":51.4388658,"longitude":-0.338728,"name":"Strawberry Hill Road near Tower Road","properties":{"access":"unknown","bicycle_pa":"","capacity":8,"covered":"","fee":"","operator":"","nameSource":"junction"},"sourceId":"osm"},{"id":"osm:node:376836452","latitude":51.4444599,"longitude":-0.3390977,"name":"Heath Road near The Green","properties":{"access":"unknown","bicycle_pa":"","capacity":3,"covered":"","fee":"","operator":"","nameSource":"junction"},"sourceId":"osm"},{"id":"osm:node:379422481","latitude":51.4070364,"longitude":-0.3045211,"name":"Kingston Hall Road near Saint James's Road","properties":{"access":"unknown","bicycle_pa":"stands","capacity":46,"covered":"no","fee":"","operator":"","nameSource":"junction"},"sourceId":"osm"},{"id":"osm:node:3958877685","latitude":51.4452486,"longitude":-0.3367876,"name":"Heath Road near Saville Road","properties":{"access":"unknown","bicycle_pa":"stands","capacity":4,"covered":"no","fee":"","operator":"","nameSource":"junction"},"sourceId":"osm"},{"id":"osm:node:3958877707","latitude":51.4453166,"longitude":-0.3378074,"name":"Lion Road near Heath Road","properties":{"access":"unknown","bicycle_pa":"stands","capacity":6,"covered":"no","fee":"","operator":"","nameSource":"junction"},"sourceId":"osm"},{"id":"osm:node:3958877762","latitude":51.4452286,"longitude":-0.3374289,"name":"Heath Gardens near Heath Road","properties":{"access":"unknown","bicycle_pa":"stands","capacity":4,"covered":"no","fee":"","operator":"","nameSource":"junction"},"sourceId":"osm"},{"id":"osm:node:4041740084","latitude":51.4451476,"longitude":-0.3339997,"name":"Heath Road near Tennyson Avenue","properties":{"access":"unknown","bicycle_pa":"stands","capacity":2,"covered":"no","fee":"","operator":"","nameSource":"junction"},"sourceId":"osm"},{"id":"osm:node:4041740088","latitude":51.4451614,"longitude":-0.3342468,"name":"Heath Road near Tennyson Avenue","properties":{"access":"unknown","bicycle_pa":"stands","capacity":4,"covered":"no","fee":"","operator":"","nameSource":"junction"},"sourceId":"osm"},{"id":"osm:node:4041740621","latitude":51.4452667,"longitude":-0.335535,"name":"Heath Road near Radnor Road","properties":{"access":"yes","bicycle_pa":"stands","capacity":2,"covered":"no","fee":"no","operator":"","nameSource":"junction"},"sourceId":"osm"},{"id":"osm:node:4041860040","latitude":51.4451974,"longitude":-0.3316176,"name":"Heath Road near Copthall Gardens","properties":{"access":"unknown","bicycle_pa":"stands","capacity":6,"covered":"no","fee":"","operator":"","nameSource":"junction"},"sourceId":"osm"},{"id":"osm:node:4092703123","latitude":51.4111653,"longitude":-0.3339748,"name":"Hampton Wick cycle parking","properties":{"access":"unknown","bicycle_pa":"stands","capacity":12,"covered":"no","fee":"","operator":"","nameSource":"place"},"sourceId":"osm"},{"id":"osm:node:4094962156","latitude":51.4087912,"longitude":-0.3327953,"name":"Hampton Wick cycle parking","properties":{"access":"unknown","bicycle_pa":"stands","capacity":14,"covered":"no","fee":"","operator":"","nameSource":"place"},"sourceId":"osm"},{"id":"osm:node:4099437029","latitude":51.4304446,"longitude":-0.3069411,"name":"Richmond Road near Dukes Avenue","properties":{"access":"unknown","bicycle_pa":"","capacity":0,"covered":"","fee":"","operator":"","nameSource":"junction"},"sourceId":"osm"},{"id":"osm:node:4109433548","latitude":51.4402231,"longitude":-0.3108527,"name":"Sandy Lane near Ham Avenues","properties":{"access":"unknown","bicycle_pa":"","capacity":0,"covered":"no","fee":"","operator":"","nameSource":"junction"},"sourceId":"osm"},{"id":"osm:node:4109504781","latitude":51.4359562,"longitude":-0.3051433,"name":"Petersham Road near Ham Common","properties":{"access":"unknown","bicycle_pa":"stands","capacity":8,"covered":"no","fee":"","operator":"","nameSource":"junction"},"sourceId":"osm"},{"id":"osm:node:4136264247","latitude":51.4362743,"longitude":-0.3202358,"name":"Croft Way near Ashburnham Road","properties":{"access":"unknown","bicycle_pa":"stands","capacity":8,"covered":"no","fee":"","operator":"","nameSource":"junction"},"sourceId":"osm"},{"id":"osm:node:4313655012","latitude":51.4108526,"longitude":-0.3004913,"name":"Old London Road by Matté","properties":{"access":"yes","bicycle_pa":"stands","capacity":4,"covered":"no","fee":"no","operator":"","nameSource":"landmark"},"sourceId":"osm"},{"id":"osm:node:432693152","latitude":51.4262753,"longitude":-0.3395925,"name":"Broad Street near Hampton Road","properties":{"access":"yes","bicycle_pa":"stands","capacity":10,"covered":"no","fee":"no","operator":"","nameSource":"junction"},"sourceId":"osm"},{"id":"osm:node:432693153","latitude":51.4260822,"longitude":-0.3369947,"name":"Broad Street near Elleray Road","properties":{"access":"unknown","bicycle_pa":"stands","capacity":8,"covered":"no","fee":"","operator":"","nameSource":"junction"},"sourceId":"osm"},{"id":"osm:node:432693157","latitude":51.4271694,"longitude":-0.3330261,"name":"High Street near Elmfield Avenue","properties":{"access":"unknown","bicycle_pa":"stands","capacity":4,"covered":"no","fee":"","operator":"","nameSource":"junction"},"sourceId":"osm"},{"id":"osm:node:432693158","latitude":51.427176,"longitude":-0.3329043,"name":"High Street near Elmfield Avenue","properties":{"access":"unknown","bicycle_pa":"stands","capacity":6,"covered":"no","fee":"","operator":"","nameSource":"junction"},"sourceId":"osm"},{"id":"osm:node:432693159","latitude":51.4272338,"longitude":-0.3315771,"name":"Cedar Road near High Street","properties":{"access":"unknown","bicycle_pa":"stands","capacity":4,"covered":"no","fee":"","operator":"","nameSource":"junction"},"sourceId":"osm"},{"id":"osm:node:432693161","latitude":51.427296,"longitude":-0.3294074,"name":"High Street near Watts Lane","properties":{"access":"unknown","bicycle_pa":"","capacity":2,"covered":"","fee":"","operator":"","nameSource":"junction"},"sourceId":"osm"},{"id":"osm:node:432693162","latitude":51.427308,"longitude":-0.3291103,"name":"High Street near Watts Lane","properties":{"access":"unknown","bicycle_pa":"stands","capacity":4,"covered":"no","fee":"","operator":"","nameSource":"junction"},"sourceId":"osm"},{"id":"osm:node:432693163","latitude":51.42732,"longitude":-0.3289393,"name":"High Street near Udney Park Road","properties":{"access":"unknown","bicycle_pa":"stands","capacity":2,"covered":"no","fee":"","operator":"","nameSource":"junction"},"sourceId":"osm"},{"id":"osm:node:432693164","latitude":51.4275009,"longitude":-0.3270064,"name":"High Street near Kingston Lane","properties":{"access":"unknown","bicycle_pa":"stands","capacity":4,"covered":"no","fee":"","operator":"","nameSource":"junction"},"sourceId":"osm"},{"id":"osm:node:4428776730","latitude":51.4162517,"longitude":-0.2817637,"name":"Galsworthy Road near Blenheim Gardens","properties":{"access":"unknown","bicycle_pa":"","capacity":8,"covered":"yes","fee":"","operator":"","nameSource":"junction"},"sourceId":"osm"},{"id":"osm:node:4443888023","latitude":51.4146526,"longitude":-0.2816406,"name":"Galsworthy Road by Costa","properties":{"access":"unknown","bicycle_pa":"stands","capacity":10,"covered":"yes","fee":"","operator":"","nameSource":"landmark"},"sourceId":"osm"},{"id":"osm:node:4443888031","latitude":51.4142478,"longitude":-0.2811149,"name":"Galsworthy Road cycle parking","properties":{"access":"unknown","bicycle_pa":"","capacity":8,"covered":"yes","fee":"","operator":"","nameSource":"street"},"sourceId":"osm"},{"id":"osm:node:4867874867","latitude":51.4093555,"longitude":-0.3080817,"name":"Charter Quay near Queens Promenade","properties":{"access":"unknown","bicycle_pa":"wall_loops","capacity":11,"covered":"no","fee":"","operator":"","nameSource":"junction"},"sourceId":"osm"},{"id":"osm:node:4867885529","latitude":51.4093143,"longitude":-0.3082007,"name":"Charter Quay near Queens Promenade","properties":{"access":"unknown","bicycle_pa":"stands","capacity":11,"covered":"no","fee":"","operator":"","nameSource":"junction"},"sourceId":"osm"},{"id":"osm:node:4867913842","latitude":51.4087162,"longitude":-0.3058708,"name":"Bath Passage by The Stylish Stag","properties":{"access":"unknown","bicycle_pa":"stands","capacity":14,"covered":"no","fee":"","operator":"","nameSource":"landmark"},"sourceId":"osm"},{"id":"osm:node:4902640721","latitude":51.4202045,"longitude":-0.3050438,"name":"Lower Ham Road cycle parking","properties":{"access":"unknown","bicycle_pa":"stands","capacity":4,"covered":"no","fee":"","operator":"","nameSource":"street"},"sourceId":"osm"},{"id":"osm:node:4939955697","latitude":51.4155836,"longitude":-0.2837618,"name":"Kingston Hill near Queen's Road","properties":{"access":"unknown","bicycle_pa":"stands","capacity":10,"covered":"","fee":"","operator":"","nameSource":"junction"},"sourceId":"osm"},{"id":"osm:node:4939955698","latitude":51.4147254,"longitude":-0.2838993,"name":"Wolverton Avenue cycle parking","properties":{"access":"unknown","bicycle_pa":"stands","capacity":10,"covered":"","fee":"","operator":"","nameSource":"street"},"sourceId":"osm"},{"id":"osm:node:4939955699","latitude":51.4148542,"longitude":-0.283141,"name":"Wolverton Avenue cycle parking","properties":{"access":"unknown","bicycle_pa":"stands","capacity":8,"covered":"","fee":"","operator":"","nameSource":"street"},"sourceId":"osm"},{"id":"osm:node:4939955700","latitude":51.4144527,"longitude":-0.2813823,"name":"Galsworthy Road by Costa","properties":{"access":"unknown","bicycle_pa":"stands","capacity":6,"covered":"","fee":"","operator":"","nameSource":"landmark"},"sourceId":"osm"},{"id":"osm:node:4939955701","latitude":51.4137471,"longitude":-0.282384,"name":"Coombe Road cycle parking","properties":{"access":"unknown","bicycle_pa":"stands","capacity":8,"covered":"","fee":"","operator":"","nameSource":"street"},"sourceId":"osm"},{"id":"osm:node:5045515758","latitude":51.4043747,"longitude":-0.3393388,"name":"Tennis Court Lane cycle parking","properties":{"access":"yes","bicycle_pa":"stands","capacity":14,"covered":"no","fee":"no","operator":"","nameSource":"street"},"sourceId":"osm"},{"id":"osm:node:506391471","latitude":51.4113995,"longitude":-0.3114144,"name":"Hampton Court Road near Home Park Terrace","properties":{"access":"unknown","bicycle_pa":"stands","capacity":4,"covered":"no","fee":"","operator":"","nameSource":"junction"},"sourceId":"osm"},{"id":"osm:node:506391484","latitude":51.4259032,"longitude":-0.2757727,"name":"Ladderstile Ride near Warboys Road","properties":{"access":"yes","bicycle_pa":"","capacity":2,"covered":"no","fee":"no","operator":"","nameSource":"junction"},"sourceId":"osm"},{"id":"osm:node:5156646226","latitude":51.4123066,"longitude":-0.2838971,"name":"Coombe Road near Wolverton Avenue","properties":{"access":"unknown","bicycle_pa":"","capacity":6,"covered":"","fee":"","operator":"","nameSource":"junction"},"sourceId":"osm"},{"id":"osm:node:5221939312","latitude":51.4076976,"longitude":-0.2979346,"name":"Fairfield near Fairfield South","properties":{"access":"unknown","bicycle_pa":"stands","capacity":6,"covered":"no","fee":"","operator":"","nameSource":"junction"},"sourceId":"osm"},{"id":"osm:node:5221960081","latitude":51.4034388,"longitude":-0.2997755,"name":"Bloomfield Road near Denmark Road","properties":{"access":"unknown","bicycle_pa":"stands","capacity":4,"covered":"no","fee":"","operator":"","nameSource":"junction"},"sourceId":"osm"},{"id":"osm:node:5320633785","latitude":51.4114435,"longitude":-0.3113422,"name":"Hampton Court Road near Home Park Terrace","properties":{"access":"unknown","bicycle_pa":"stands","capacity":0,"covered":"","fee":"","operator":"","nameSource":"junction"},"sourceId":"osm"},{"id":"osm:node:5485622052","latitude":51.4403831,"longitude":-0.2688322,"name":"Pen Ponds Café cycle parking","properties":{"access":"yes","bicycle_pa":"stands","capacity":6,"covered":"no","fee":"no","operator":"","nameSource":"landmark"},"sourceId":"osm"},{"id":"osm:node:5485622058","latitude":51.4395455,"longitude":-0.2686606,"name":"Pen Ponds Café cycle parking","properties":{"access":"yes","bicycle_pa":"stands","capacity":8,"covered":"no","fee":"no","operator":"","nameSource":"landmark"},"sourceId":"osm"},{"id":"osm:node:5856574118","latitude":51.4263102,"longitude":-0.3404364,"name":"Hampton Road near Queens Road","properties":{"access":"unknown","bicycle_pa":"stands","capacity":10,"covered":"yes","fee":"","operator":"Teddington Memorial Hospital","nameSource":"junction"},"sourceId":"osm"},{"id":"osm:node:5856574119","latitude":51.4262199,"longitude":-0.3406657,"name":"Hampton Road near Queens Road","properties":{"access":"unknown","bicycle_pa":"stands","capacity":4,"covered":"no","fee":"","operator":"Teddington Memorial Hospital","nameSource":"junction"},"sourceId":"osm"},{"id":"osm:node:5908788862","latitude":51.4485328,"longitude":-0.329158,"name":"London Road near Arragon Road","properties":{"access":"yes","bicycle_pa":"stands","capacity":4,"covered":"no","fee":"no","operator":"","nameSource":"junction"},"sourceId":"osm"},{"id":"osm:node:5941454374","latitude":51.444345,"longitude":-0.3434599,"name":"Oriel Close near The Green","properties":{"access":"yes","bicycle_pa":"stands","capacity":4,"covered":"no","fee":"no","operator":"","nameSource":"junction"},"sourceId":"osm"},{"id":"osm:node:5945098887","latitude":51.449468,"longitude":-0.3299472,"name":"London Road near Railway Approach","properties":{"access":"yes","bicycle_pa":"wall_loops","capacity":8,"covered":"no","fee":"no","operator":"","nameSource":"junction"},"sourceId":"osm"},{"id":"osm:node:5952660883","latitude":51.4455585,"longitude":-0.3302912,"name":"Heath Road near Cross Deep","properties":{"access":"unknown","bicycle_pa":"stands","capacity":10,"covered":"no","fee":"","operator":"","nameSource":"junction"},"sourceId":"osm"},{"id":"osm:node:5964193846","latitude":51.4448087,"longitude":-0.328269,"name":"The Embankment near Wharf Lane","properties":{"access":"yes","bicycle_pa":"stands","capacity":8,"covered":"no","fee":"no","operator":"","nameSource":"junction"},"sourceId":"osm"},{"id":"osm:node:6004435462","latitude":51.4475362,"longitude":-0.3276934,"name":"Garfield Road near York Street","properties":{"access":"yes","bicycle_pa":"stands","capacity":10,"covered":"no","fee":"no","operator":"","nameSource":"junction"},"sourceId":"osm"},{"id":"osm:node:6008643527","latitude":51.4481955,"longitude":-0.3287081,"name":"Katherine Street by M&S News & Off Licence","properties":{"access":"yes","bicycle_pa":"stands","capacity":2,"covered":"no","fee":"no","operator":"","nameSource":"landmark"},"sourceId":"osm"},{"id":"osm:node:6008643528","latitude":51.4481725,"longitude":-0.3287999,"name":"Katherine Street by M&S News & Off Licence","properties":{"access":"yes","bicycle_pa":"stands","capacity":2,"covered":"no","fee":"no","operator":"","nameSource":"landmark"},"sourceId":"osm"},{"id":"osm:node:6023566861","latitude":51.4452429,"longitude":-0.336514,"name":"Saville Road near Heath Road","properties":{"access":"yes","bicycle_pa":"stands","capacity":2,"covered":"no","fee":"no","operator":"","nameSource":"junction"},"sourceId":"osm"},{"id":"osm:node:6027000512","latitude":51.4452413,"longitude":-0.336217,"name":"Saville Road near Heath Road","properties":{"access":"unknown","bicycle_pa":"stands","capacity":10,"covered":"no","fee":"","operator":"","nameSource":"junction"},"sourceId":"osm"},{"id":"osm:node:6027000513","latitude":51.4452397,"longitude":-0.335092,"name":"Heath Road near Radnor Road","properties":{"access":"unknown","bicycle_pa":"stands","capacity":4,"covered":"no","fee":"","operator":"","nameSource":"junction"},"sourceId":"osm"},{"id":"osm:node:6027000515","latitude":51.445109,"longitude":-0.3332871,"name":"Heath Road near Holly Road","properties":{"access":"unknown","bicycle_pa":"stands","capacity":4,"covered":"no","fee":"","operator":"","nameSource":"junction"},"sourceId":"osm"},{"id":"osm:node:6027000517","latitude":51.4450988,"longitude":-0.332437,"name":"Heath Road near Holly Road","properties":{"access":"unknown","bicycle_pa":"stands","capacity":6,"covered":"no","fee":"","operator":"","nameSource":"junction"},"sourceId":"osm"},{"id":"osm:node:6027000518","latitude":51.4451887,"longitude":-0.3316999,"name":"Heath Road near Copthall Gardens","properties":{"access":"unknown","bicycle_pa":"stands","capacity":4,"covered":"no","fee":"","operator":"","nameSource":"junction"},"sourceId":"osm"},{"id":"osm:node:6027000522","latitude":51.4458087,"longitude":-0.3289854,"name":"King Street near Queen's Road","properties":{"access":"unknown","bicycle_pa":"stands","capacity":8,"covered":"no","fee":"","operator":"","nameSource":"junction"},"sourceId":"osm"},{"id":"osm:node:6027000523","latitude":51.4460177,"longitude":-0.3286163,"name":"King Street near Queen's Road","properties":{"access":"unknown","bicycle_pa":"stands","capacity":6,"covered":"no","fee":"","operator":"","nameSource":"junction"},"sourceId":"osm"},{"id":"osm:node:6027000524","latitude":51.4461578,"longitude":-0.3283962,"name":"King Street near London Road","properties":{"access":"unknown","bicycle_pa":"stands","capacity":10,"covered":"no","fee":"","operator":"","nameSource":"junction"},"sourceId":"osm"},{"id":"osm:node:6027762528","latitude":51.4454411,"longitude":-0.3309443,"name":"Heath Road by Amplifon","properties":{"access":"unknown","bicycle_pa":"stands","capacity":10,"covered":"no","fee":"","operator":"","nameSource":"landmark"},"sourceId":"osm"},{"id":"osm:node:6027762540","latitude":51.4462012,"longitude":-0.328698,"name":"King Street near Queen's Road","properties":{"access":"unknown","bicycle_pa":"stands","capacity":2,"covered":"no","fee":"","operator":"","nameSource":"junction"},"sourceId":"osm"},{"id":"osm:node:6027762541","latitude":51.4461928,"longitude":-0.3287101,"name":"King Street near Queen's Road","properties":{"access":"unknown","bicycle_pa":"stands","capacity":2,"covered":"no","fee":"","operator":"","nameSource":"junction"},"sourceId":"osm"},{"id":"osm:node:6027762542","latitude":51.4461227,"longitude":-0.3288147,"name":"King Street near Queen's Road","properties":{"access":"unknown","bicycle_pa":"stands","capacity":2,"covered":"no","fee":"","operator":"","nameSource":"junction"},"sourceId":"osm"},{"id":"osm:node:6027762543","latitude":51.4461147,"longitude":-0.3288281,"name":"King Street near Queen's Road","properties":{"access":"unknown","bicycle_pa":"stands","capacity":2,"covered":"no","fee":"","operator":"","nameSource":"junction"},"sourceId":"osm"},{"id":"osm:node:6027762544","latitude":51.445973,"longitude":-0.3292686,"name":"Queen's Road near King Street","properties":{"access":"unknown","bicycle_pa":"stands","capacity":2,"covered":"no","fee":"","operator":"","nameSource":"junction"},"sourceId":"osm"},{"id":"osm:node:6027762545","latitude":51.4459613,"longitude":-0.3292512,"name":"Queen's Road near King Street","properties":{"access":"unknown","bicycle_pa":"stands","capacity":2,"covered":"no","fee":"","operator":"","nameSource":"junction"},"sourceId":"osm"},{"id":"osm:node:6103009878","latitude":51.4428536,"longitude":-0.3435414,"name":"First Cross Road near Hampton Road","properties":{"access":"customers","bicycle_pa":"stands","capacity":6,"covered":"no","fee":"","operator":"","nameSource":"junction"},"sourceId":"osm"},{"id":"osm:node:6367836448","latitude":51.4027526,"longitude":-0.3041408,"name":"Penrhyn Road near Penrhyn Gardens","properties":{"access":"unknown","bicycle_pa":"","capacity":0,"covered":"","fee":"","operator":"","nameSource":"junction"},"sourceId":"osm"},{"id":"osm:node:6389076531","latitude":51.4187374,"longitude":-0.3057974,"name":"Lower Ham Road by Boaters Inn","properties":{"access":"unknown","bicycle_pa":"","capacity":0,"covered":"yes","fee":"","operator":"","nameSource":"landmark"},"sourceId":"osm"},{"id":"osm:node:6403015563","latitude":51.4453468,"longitude":-0.3316074,"name":"Heath Road near Copthall Gardens","properties":{"access":"unknown","bicycle_pa":"stands","capacity":4,"covered":"no","fee":"","operator":"","nameSource":"junction"},"sourceId":"osm"},{"id":"osm:node:6403015564","latitude":51.4453685,"longitude":-0.3337706,"name":"Clifden Road near Heath Road","properties":{"access":"unknown","bicycle_pa":"stands","capacity":4,"covered":"no","fee":"","operator":"","nameSource":"junction"},"sourceId":"osm"},{"id":"osm:node:6446595093","latitude":51.4486476,"longitude":-0.3291901,"name":"London Road near Arragon Road","properties":{"access":"yes","bicycle_pa":"stands","capacity":16,"covered":"yes","fee":"no","operator":"","nameSource":"junction"},"sourceId":"osm"},{"id":"osm:node:6475511237","latitude":51.4126834,"longitude":-0.2839067,"name":"Coombe Road near Wolverton Avenue","properties":{"access":"unknown","bicycle_pa":"stands","capacity":4,"covered":"","fee":"","operator":"","nameSource":"junction"},"sourceId":"osm"},{"id":"osm:node:6611852003","latitude":51.4479334,"longitude":-0.3193612,"name":"Lebanon Park cycle parking","properties":{"access":"unknown","bicycle_pa":"stands","capacity":12,"covered":"no","fee":"","operator":"","nameSource":"street"},"sourceId":"osm"},{"id":"osm:node:6658579865","latitude":51.4272133,"longitude":-0.3296506,"name":"High Street near Watts Lane","properties":{"access":"unknown","bicycle_pa":"","capacity":2,"covered":"","fee":"","operator":"","nameSource":"junction"},"sourceId":"osm"},{"id":"osm:node:6672486101","latitude":51.4272765,"longitude":-0.3284099,"name":"High Street near Udney Park Road","properties":{"access":"unknown","bicycle_pa":"stands","capacity":2,"covered":"no","fee":"","operator":"","nameSource":"junction"},"sourceId":"osm"},{"id":"osm:node:6672486103","latitude":51.4261021,"longitude":-0.3386391,"name":"Broad Street near North Lane","properties":{"access":"unknown","bicycle_pa":"stands","capacity":1,"covered":"no","fee":"","operator":"","nameSource":"junction"},"sourceId":"osm"},{"id":"osm:node:6680353893","latitude":51.4260112,"longitude":-0.3386127,"name":"Broad Street near North Lane","properties":{"access":"unknown","bicycle_pa":"stands","capacity":8,"covered":"no","fee":"","operator":"","nameSource":"junction"},"sourceId":"osm"},{"id":"osm:node:6680353894","latitude":51.4258837,"longitude":-0.3356754,"name":"The Causeway near Broad Street","properties":{"access":"unknown","bicycle_pa":"stands","capacity":2,"covered":"no","fee":"","operator":"","nameSource":"junction"},"sourceId":"osm"},{"id":"osm:node:6813247030","latitude":51.4034968,"longitude":-0.3079967,"name":"Queens Promenade by Parrs","properties":{"access":"unknown","bicycle_pa":"stands","capacity":4,"covered":"no","fee":"","operator":"","nameSource":"landmark"},"sourceId":"osm"},{"id":"osm:node:6813247031","latitude":51.4036399,"longitude":-0.3079908,"name":"Queens Promenade by Parrs","properties":{"access":"unknown","bicycle_pa":"stands","capacity":4,"covered":"","fee":"","operator":"","nameSource":"landmark"},"sourceId":"osm"},{"id":"osm:node:6816929532","latitude":51.4489625,"longitude":-0.3298641,"name":"Railway Approach near London Road","properties":{"access":"unknown","bicycle_pa":"stands","capacity":6,"covered":"no","fee":"","operator":"","nameSource":"junction"},"sourceId":"osm"},{"id":"osm:node:6934338093","latitude":51.4164629,"longitude":-0.2843248,"name":"Queen's Road near Kingston Hill","properties":{"access":"unknown","bicycle_pa":"","capacity":0,"covered":"","fee":"","operator":"","nameSource":"junction"},"sourceId":"osm"},{"id":"osm:node:7106031097","latitude":51.4226202,"longitude":-0.2951161,"name":"Latchmere Road cycle parking","properties":{"access":"unknown","bicycle_pa":"","capacity":0,"covered":"","fee":"","operator":"","nameSource":"street"},"sourceId":"osm"},{"id":"osm:node:7114051565","latitude":51.4485639,"longitude":-0.329498,"name":"London Road near Arragon Road","properties":{"access":"yes","bicycle_pa":"stands","capacity":2,"covered":"no","fee":"no","operator":"","nameSource":"junction"},"sourceId":"osm"},{"id":"osm:node:7243711305","latitude":51.4503717,"longitude":-0.3306124,"name":"Bradshaw Close near A310","properties":{"access":"yes","bicycle_pa":"two-tier","capacity":78,"covered":"yes","fee":"no","operator":"South Western Railways","nameSource":"junction"},"sourceId":"osm"},{"id":"osm:node:7251951613","latitude":51.4043212,"longitude":-0.3039403,"name":"Penrhyn Road near Grove Crescent","properties":{"access":"unknown","bicycle_pa":"stands","capacity":10,"covered":"no","fee":"","operator":"","nameSource":"junction"},"sourceId":"osm"},{"id":"osm:node:7251951619","latitude":51.4037444,"longitude":-0.3030689,"name":"Grove Crescent cycle parking","properties":{"access":"unknown","bicycle_pa":"two-tier","capacity":0,"covered":"","fee":"","operator":"","nameSource":"street"},"sourceId":"osm"},{"id":"osm:node:7251951620","latitude":51.4035154,"longitude":-0.303176,"name":"Grove Crescent cycle parking","properties":{"access":"unknown","bicycle_pa":"stands","capacity":0,"covered":"yes","fee":"","operator":"","nameSource":"street"},"sourceId":"osm"},{"id":"osm:node:7455503163","latitude":51.4237687,"longitude":-0.2722423,"name":"Warren Road cycle parking","properties":{"access":"unknown","bicycle_pa":"stands","capacity":0,"covered":"","fee":"","operator":"","nameSource":"street"},"sourceId":"osm"},{"id":"osm:node:7612035083","latitude":51.415526,"longitude":-0.3384827,"name":"The Pheasantry cycle parking","properties":{"access":"yes","bicycle_pa":"stands","capacity":16,"covered":"no","fee":"no","operator":"","nameSource":"landmark"},"sourceId":"osm"},{"id":"osm:node:7633372089","latitude":51.4338215,"longitude":-0.3499175,"name":"Wellington Gardens cycle parking","properties":{"access":"unknown","bicycle_pa":"","capacity":0,"covered":"","fee":"","operator":"","nameSource":"street"},"sourceId":"osm"},{"id":"osm:node:7743688479","latitude":51.4189398,"longitude":-0.2956914,"name":"Kings Road near Staunton Road","properties":{"access":"unknown","bicycle_pa":"","capacity":0,"covered":"","fee":"","operator":"","nameSource":"junction"},"sourceId":"osm"},{"id":"osm:node:7777151857","latitude":51.4108906,"longitude":-0.2642623,"name":"Darley Drive near Buxton Drive","properties":{"access":"unknown","bicycle_pa":"stands","capacity":0,"covered":"","fee":"","operator":"","nameSource":"junction"},"sourceId":"osm"},{"id":"osm:node:7931297748","latitude":51.4131322,"longitude":-0.346804,"name":"The Beveree cycle parking","properties":{"access":"yes","bicycle_pa":"anchors","capacity":4,"covered":"no","fee":"no","operator":"","nameSource":"place"},"sourceId":"osm"},{"id":"osm:node:7931299526","latitude":51.4276446,"longitude":-0.3256432,"name":"Langham Road near High Street","properties":{"access":"yes","bicycle_pa":"stands","capacity":10,"covered":"no","fee":"no","operator":"","nameSource":"junction"},"sourceId":"osm"},{"id":"osm:node:7984254052","latitude":51.425593,"longitude":-0.3387583,"name":"North Place by Tesco","properties":{"access":"yes","bicycle_pa":"stands","capacity":6,"covered":"no","fee":"no","operator":"","nameSource":"landmark"},"sourceId":"osm"},{"id":"osm:node:8017666708","latitude":51.4164891,"longitude":-0.2829218,"name":"Kingston Hill cycle parking","properties":{"access":"unknown","bicycle_pa":"shed","capacity":0,"covered":"yes","fee":"","operator":"","nameSource":"street"},"sourceId":"osm"},{"id":"osm:node:8027612227","latitude":51.4494587,"longitude":-0.3435648,"name":"Langhorn Drive cycle parking","properties":{"access":"unknown","bicycle_pa":"stands","capacity":16,"covered":"no","fee":"","operator":"","nameSource":"street"},"sourceId":"osm"},{"id":"osm:node:8027753779","latitude":51.4493979,"longitude":-0.3438304,"name":"Langhorn Drive cycle parking","properties":{"access":"unknown","bicycle_pa":"stands","capacity":10,"covered":"","fee":"","operator":"","nameSource":"street"},"sourceId":"osm"},{"id":"osm:node:8027753780","latitude":51.4493879,"longitude":-0.3439551,"name":"Langhorn Drive cycle parking","properties":{"access":"unknown","bicycle_pa":"stands","capacity":10,"covered":"","fee":"","operator":"","nameSource":"street"},"sourceId":"osm"},{"id":"osm:node:8027753781","latitude":51.4493034,"longitude":-0.3438005,"name":"Langhorn Drive cycle parking","properties":{"access":"private","bicycle_pa":"stands","capacity":30,"covered":"","fee":"","operator":"","nameSource":"street"},"sourceId":"osm"},{"id":"osm:node:8027753782","latitude":51.4493079,"longitude":-0.3437715,"name":"Langhorn Drive cycle parking","properties":{"access":"private","bicycle_pa":"stands","capacity":30,"covered":"","fee":"","operator":"","nameSource":"street"},"sourceId":"osm"},{"id":"osm:node:8027760230","latitude":51.4520199,"longitude":-0.3214924,"name":"Marble Hill Gardens near Marble Hill Close","properties":{"access":"private","bicycle_pa":"stands","capacity":30,"covered":"yes","fee":"","operator":"","nameSource":"junction"},"sourceId":"osm"},{"id":"osm:node:804478891","latitude":51.4036613,"longitude":-0.3029197,"name":"Grove Crescent cycle parking","properties":{"access":"unknown","bicycle_pa":"","capacity":10,"covered":"yes","fee":"","operator":"","nameSource":"street"},"sourceId":"osm"},{"id":"osm:node:804478986","latitude":51.4037304,"longitude":-0.3028609,"name":"Grove Crescent cycle parking","properties":{"access":"unknown","bicycle_pa":"","capacity":24,"covered":"","fee":"","operator":"","nameSource":"street"},"sourceId":"osm"},{"id":"osm:node:804479124","latitude":51.4036899,"longitude":-0.3028252,"name":"Grove Crescent cycle parking","properties":{"access":"unknown","bicycle_pa":"","capacity":48,"covered":"","fee":"","operator":"","nameSource":"street"},"sourceId":"osm"},{"id":"osm:node:804479202","latitude":51.4037328,"longitude":-0.3027901,"name":"Grove Crescent cycle parking","properties":{"access":"unknown","bicycle_pa":"","capacity":22,"covered":"","fee":"","operator":"","nameSource":"street"},"sourceId":"osm"},{"id":"osm:node:804479609","latitude":51.4036848,"longitude":-0.3028969,"name":"Grove Crescent cycle parking","properties":{"access":"unknown","bicycle_pa":"","capacity":24,"covered":"","fee":"","operator":"","nameSource":"street"},"sourceId":"osm"},{"id":"osm:node:8269634302","latitude":51.4134332,"longitude":-0.3056223,"name":"Down Hall Road near Skerne Road","properties":{"access":"unknown","bicycle_pa":"stands","capacity":4,"covered":"no","fee":"no","operator":"","nameSource":"junction"},"sourceId":"osm"},{"id":"osm:node:8376065558","latitude":51.4337683,"longitude":-0.2814521,"name":"Isabella Plantation by Isabella Plantation","properties":{"access":"unknown","bicycle_pa":"stands","capacity":20,"covered":"no","fee":"","operator":"","nameSource":"landmark"},"sourceId":"osm"},{"id":"osm:node:8630458335","latitude":51.4150805,"longitude":-0.3020629,"name":"Sury Basin by Cycle Exchange","properties":{"access":"unknown","bicycle_pa":"","capacity":0,"covered":"","fee":"","operator":"","nameSource":"landmark"},"sourceId":"osm"},{"id":"osm:node:8712823114","latitude":51.4280482,"longitude":-0.3227763,"name":"Kingston Road by Pavillion 1","properties":{"access":"unknown","bicycle_pa":"stands","capacity":10,"covered":"","fee":"","operator":"","nameSource":"landmark"},"sourceId":"osm"},{"id":"osm:node:8768384694","latitude":51.4147013,"longitude":-0.3122816,"name":"Station Road near Seymour Road","properties":{"access":"yes","bicycle_pa":"stands","capacity":30,"covered":"no","fee":"no","operator":"","nameSource":"junction"},"sourceId":"osm"},{"id":"osm:node:8770494039","latitude":51.4470609,"longitude":-0.3494528,"name":"KG Café cycle parking","properties":{"access":"unknown","bicycle_pa":"stands","capacity":12,"covered":"no","fee":"no","operator":"","nameSource":"landmark"},"sourceId":"osm"},{"id":"osm:node:8781266112","latitude":51.44582,"longitude":-0.3393902,"name":"Bikehangar 2550","properties":{"access":"private","bicycle_pa":"shed","capacity":6,"covered":"yes","fee":"yes","operator":"Cyclehoop","nameSource":"source"},"sourceId":"osm"},{"id":"osm:node:8804559560","latitude":51.4356694,"longitude":-0.3495272,"name":"South Road by Lidl - Fulwell","properties":{"access":"yes","bicycle_pa":"stands","capacity":18,"covered":"","fee":"no","operator":"","nameSource":"landmark"},"sourceId":"osm"},{"id":"osm:node:8804559561","latitude":51.4353631,"longitude":-0.3501528,"name":"South Road by Lidl","properties":{"access":"yes","bicycle_pa":"stands","capacity":16,"covered":"","fee":"no","operator":"","nameSource":"landmark"},"sourceId":"osm"},{"id":"osm:node:8806726263","latitude":51.4534369,"longitude":-0.3025151,"name":"Petersham Road cycle parking","properties":{"access":"unknown","bicycle_pa":"stands","capacity":10,"covered":"no","fee":"","operator":"","nameSource":"street"},"sourceId":"osm"},{"id":"osm:node:8807162819","latitude":51.4518966,"longitude":-0.3017692,"name":"Petersham Road near Nightingale Lane","properties":{"access":"unknown","bicycle_pa":"stands","capacity":6,"covered":"no","fee":"","operator":"","nameSource":"junction"},"sourceId":"osm"},{"id":"osm:node:8811793823","latitude":51.4248183,"longitude":-0.3348691,"name":"Park Road near Adelaide Road","properties":{"access":"yes","bicycle_pa":"stands","capacity":10,"covered":"no","fee":"no","operator":"","nameSource":"junction"},"sourceId":"osm"},{"id":"osm:node:8811793825","latitude":51.4257011,"longitude":-0.3348776,"name":"The Causeway near Middle Lane","properties":{"access":"yes","bicycle_pa":"stands","capacity":4,"covered":"no","fee":"no","operator":"","nameSource":"junction"},"sourceId":"osm"},{"id":"osm:node:8815773818","latitude":51.4317864,"longitude":-0.2686041,"name":"The Tamsin Trail cycle parking","properties":{"access":"yes","bicycle_pa":"stands","capacity":6,"covered":"no","fee":"","operator":"","nameSource":"street"},"sourceId":"osm"},{"id":"osm:node:8850763205","latitude":51.4307743,"longitude":-0.3084012,"name":"Dukes Avenue near Northweald Lane","properties":{"access":"customers","bicycle_pa":"wall_loops","capacity":4,"covered":"no","fee":"","operator":"","nameSource":"junction"},"sourceId":"osm"},{"id":"osm:node:8889769326","latitude":51.4470049,"longitude":-0.3259233,"name":"Church Street near Church Lane","properties":{"access":"unknown","bicycle_pa":"stands","capacity":8,"covered":"no","fee":"no","operator":"","nameSource":"junction"},"sourceId":"osm"},{"id":"osm:node:8920033129","latitude":51.4324413,"longitude":-0.3069373,"name":"Ham Common near Upper Ham Road","properties":{"access":"unknown","bicycle_pa":"stands","capacity":4,"covered":"no","fee":"","operator":"","nameSource":"junction"},"sourceId":"osm"},{"id":"osm:node:8920038547","latitude":51.4402214,"longitude":-0.3039378,"name":"Petersham Road near Sandy Lane","properties":{"access":"unknown","bicycle_pa":"","capacity":4,"covered":"","fee":"","operator":"","nameSource":"junction"},"sourceId":"osm"},{"id":"osm:node:8920053494","latitude":51.4495413,"longitude":-0.315728,"name":"Montpelier Row by The Coach House Cafe","properties":{"access":"unknown","bicycle_pa":"stands","capacity":10,"covered":"no","fee":"","operator":"","nameSource":"landmark"},"sourceId":"osm"},{"id":"osm:node:8961086689","latitude":51.4041515,"longitude":-0.3033537,"name":"Grove Crescent by Town House","properties":{"access":"unknown","bicycle_pa":"","capacity":0,"covered":"yes","fee":"","operator":"","nameSource":"landmark"},"sourceId":"osm"},{"id":"osm:node:8975232682","latitude":51.4032372,"longitude":-0.2765002,"name":"California Road by Park Tennis Kingston","properties":{"access":"unknown","bicycle_pa":"stands","capacity":6,"covered":"no","fee":"","operator":"","nameSource":"landmark"},"sourceId":"osm"},{"id":"osm:node:8975232683","latitude":51.4031554,"longitude":-0.276579,"name":"California Road by Park Tennis Kingston","properties":{"access":"unknown","bicycle_pa":"stands","capacity":2,"covered":"no","fee":"","operator":"","nameSource":"landmark"},"sourceId":"osm"},{"id":"osm:node:8977993507","latitude":51.4084886,"longitude":-0.2741348,"name":"Kenley Road near The Triangle","properties":{"access":"unknown","bicycle_pa":"stands","capacity":8,"covered":"no","fee":"","operator":"","nameSource":"junction"},"sourceId":"osm"},{"id":"osm:node:8977993508","latitude":51.408399,"longitude":-0.2738374,"name":"Dickerage Road near Kenley Road","properties":{"access":"unknown","bicycle_pa":"stands","capacity":8,"covered":"no","fee":"","operator":"","nameSource":"junction"},"sourceId":"osm"},{"id":"osm:node:9007902610","latitude":51.4041085,"longitude":-0.2940325,"name":"Chapel Mill Road near Villiers Road","properties":{"access":"unknown","bicycle_pa":"stands","capacity":4,"covered":"no","fee":"","operator":"","nameSource":"junction"},"sourceId":"osm"},{"id":"osm:node:9025087162","latitude":51.4075873,"longitude":-0.2746215,"name":"Dickerage Road near Dickerage Lane","properties":{"access":"unknown","bicycle_pa":"wall_loops","capacity":12,"covered":"no","fee":"","operator":"","nameSource":"junction"},"sourceId":"osm"},{"id":"osm:node:9025437117","latitude":51.4112524,"longitude":-0.3125303,"name":"Church Grove near Hampton Court Road","properties":{"access":"unknown","bicycle_pa":"stands","capacity":8,"covered":"","fee":"","operator":"","nameSource":"junction"},"sourceId":"osm"},{"id":"osm:node:9072304843","latitude":51.426844,"longitude":-0.2984781,"name":"Tudor Drive near Hollybush Road","properties":{"access":"unknown","bicycle_pa":"stands","capacity":12,"covered":"no","fee":"","operator":"","nameSource":"junction"},"sourceId":"osm"},{"id":"osm:node:9078275163","latitude":51.4127957,"longitude":-0.3113584,"name":"Park Road near St John's Road","properties":{"access":"unknown","bicycle_pa":"stands","capacity":4,"covered":"no","fee":"","operator":"","nameSource":"junction"},"sourceId":"osm"},{"id":"osm:node:9238236936","latitude":51.4110442,"longitude":-0.3069154,"name":"Clarence Street near Thames Street","properties":{"access":"yes","bicycle_pa":"stands","capacity":36,"covered":"no","fee":"","operator":"","nameSource":"junction"},"sourceId":"osm"},{"id":"osm:node:9422544794","latitude":51.4168903,"longitude":-0.3064371,"name":"Kings Passage by Canbury Secret","properties":{"access":"unknown","bicycle_pa":"stands","capacity":10,"covered":"no","fee":"","operator":"","nameSource":"landmark"},"sourceId":"osm"},{"id":"osm:node:9422549608","latitude":51.4179628,"longitude":-0.3060441,"name":"Boaters Inn cycle parking","properties":{"access":"unknown","bicycle_pa":"stands","capacity":6,"covered":"no","fee":"","operator":"","nameSource":"landmark"},"sourceId":"osm"},