{"key":"12/2044/1367","points":[{"id":"osm:node:3440761893","latitude":51.2328274,"longitude":-0.3314253,"name":"Church Square near St Martin's Walk","properties":{"access":"unknown","bicycle_pa":"wall_loops","capacity":10,"covered":"","fee":"","operator":"","nameSource":"junction"},"sourceId":"osm"},{"id":"osm:node:3782982094","latitude":51.2274638,"longitude":-0.3423162,"name":"West Bank cycle parking","properties":{"access":"unknown","bicycle_pa":"","capacity":0,"covered":"","fee":"","operator":"","nameSource":"street"},"sourceId":"osm"},{"id":"osm:node:5885970754","latitude":51.2307158,"longitude":-0.3343803,"name":"South Street near Junction Road","properties":{"access":"unknown","bicycle_pa":"stands","capacity":12,"covered":"no","fee":"","operator":"","nameSource":"junction"},"sourceId":"osm"},{"id":"osm:node:7900466341","latitude":51.231178,"longitude":-0.3353794,"name":"Junction Road near Junction Place Cut-Through","properties":{"access":"unknown","bicycle_pa":"","capacity":0,"covered":"","fee":"","operator":"","nameSource":"junction"},"sourceId":"osm"},{"id":"osm:node:9607402892","latitude":51.2332415,"longitude":-0.3318518,"name":"Saint Martins Square near St Martin's Walk","properties":{"access":"unknown","bicycle_pa":"wall_loops","capacity":5,"covered":"no","fee":"","operator":"","nameSource":"junction"},"sourceId":"osm"}],"schemaVersion":2}
