{"key":"12/2044/1370","points":[{"id":"osm:node:10095785575","latitude":51.0467665,"longitude":-0.3393515,"name":"The Camping World Community Stadium cycle parking","properties":{"access":"unknown","bicycle_pa":"","capacity":26,"covered":"yes","fee":"","operator":"","nameSource":"landmark"},"sourceId":"osm"},{"id":"osm:node:12387089390","latitude":51.0619286,"longitude":-0.3350971,"name":"Albion Way by Aldi","properties":{"access":"unknown","bicycle_pa":"stands","capacity":12,"covered":"yes","fee":"","operator":"","nameSource":"landmark"},"sourceId":"osm"},{"id":"osm:node:12854179942","latitude":51.0657659,"longitude":-0.319402,"name":"North Street near Nightingale Road","properties":{"access":"unknown","bicycle_pa":"stands","capacity":10,"covered":"no","fee":"","operator":"","nameSource":"junction"},"sourceId":"osm"},{"id":"osm:node:12854179943","latitude":51.0658135,"longitude":-0.3193661,"name":"North Street near Nightingale Road","properties":{"access":"unknown","bicycle_pa":"stands","capacity":10,"covered":"no","fee":"","operator":"","nameSource":"junction"},"sourceId":"osm"},{"id":"osm:node:12855242806","latitude":51.0617784,"longitude":-0.3350243,"name":"Albion Way by Aldi","properties":{"access":"unknown","bicycle_pa":"stands","capacity":6,"covered":"yes","fee":"","operator":"","nameSource":"landmark"},"sourceId":"osm"},{"id":"osm:node:13159645193","latitude":51.0638277,"longitude":-0.3317572,"name":"Medwin Way near Springfield Road","properties":{"access":"unknown","bicycle_pa":"stands","capacity":12,"covered":"no","fee":"","operator":"","nameSource":"junction"},"sourceId":"osm"},{"id":"osm:node:1497549167","latitude":51.0658562,"longitude":-0.3193982,"name":"North Street near Nightingale Road","properties":{"access":"unknown","bicycle_pa":"two-tier","capacity":24,"covered":"yes","fee":"","operator":"","nameSource":"junction"},"sourceId":"osm"},{"id":"osm:node:271396229","latitude":51.0608731,"longitude":-0.3315035,"name":"Furneaux Walk by Max Spielmann","properties":{"access":"unknown","bicycle_pa":"stands","capacity":8,"covered":"yes","fee":"no","operator":"","nameSource":"landmark"},"sourceId":"osm"},{"id":"osm:node:3652500189","latitude":51.0620631,"longitude":-0.3321908,"name":"Lower Tanbridge Way near Worthing Road","properties":{"access":"unknown","bicycle_pa":"stands","capacity":20,"covered":"yes","fee":"","operator":"","nameSource":"junction"},"sourceId":"osm"},{"id":"osm:node:3652500190","latitude":51.0637194,"longitude":-0.3283535,"name":"Medwin Walk near Swan Walk","properties":{"access":"unknown","bicycle_pa":"stands","capacity":18,"covered":"yes","fee":"","operator":"","nameSource":"junction"},"sourceId":"osm"},{"id":"osm:node:4848481824","latitude":51.0626265,"longitude":-0.3354191,"name":"Albion Way by Waitrose","properties":{"access":"unknown","bicycle_pa":"stands","capacity":12,"covered":"partial","fee":"","operator":"","nameSource":"landmark"},"sourceId":"osm"},{"id":"osm:node:4848481843","latitude":51.0635042,"longitude":-0.3347659,"name":"Albion Way by John Lewis at Home","properties":{"access":"unknown","bicycle_pa":"stands","capacity":0,"covered":"yes","fee":"","operator":"","nameSource":"landmark"},"sourceId":"osm"},{"id":"osm:node:501805207","latitude":51.0637407,"longitude":-0.3331108,"name":"Bishopric near Albion Way","properties":{"access":"unknown","bicycle_pa":"stands","capacity":4,"covered":"no","fee":"","operator":"","nameSource":"junction"},"sourceId":"osm"},{"id":"osm:node:5352330106","latitude":51.0630205,"longitude":-0.3327349,"name":"Worthing Road near Blackhorse Way","properties":{"access":"unknown","bicycle_pa":"stands","capacity":6,"covered":"no","fee":"","operator":"","nameSource":"junction"},"sourceId":"osm"},{"id":"osm:node:6140352482","latitude":51.0665867,"longitude":-0.3230496,"name":"Cafeology cycle parking","properties":{"access":"yes","bicycle_pa":"anchors","capacity":15,"covered":"yes","fee":"","operator":"","nameSource":"landmark"},"sourceId":"osm"},{"id":"osm:node:7226804614","latitude":51.0681116,"longitude":-0.3155914,"name":"Foundry Lane near B2195","properties":{"access":"unknown","bicycle_pa":"stands","capacity":12,"covered":"yes","fee":"","operator":"","nameSource":"junction"},"sourceId":"osm"},{"id":"osm:node:9031613937","latitude":51.0628212,"longitude":-0.3284704,"name":"Carfax near Swan Yard","properties":{"access":"unknown","bicycle_pa":"stands","capacity":8,"covered":"no","fee":"","operator":"","nameSource":"junction"},"sourceId":"osm"},{"id":"osm:node:9214589958","latitude":51.0630444,"longitude":-0.3327093,"name":"Worthing Road near Blackhorse Way","properties":{"access":"unknown","bicycle_pa":"wall_loops","capacity":10,"covered":"no","fee":"","operator":"","nameSource":"junction"},"sourceId":"osm"},{"id":"osm:way:1270911494","latitude":51.05606706,"longitude":-0.29313276,"name":"Hammerpond Road cycle parking","properties":{"access":"unknown","bicycle_pa":"","capacity":0,"covered":"","fee":"","operator":"","nameSource":"street"},"sourceId":"osm"},{"id":"osm:way:574989911","latitude":51.0655212,"longitude":-0.3188197166666667,"name":"Station Road near Station Close","properties":{"access":"yes","bicycle_pa":"shed","capacity":130,"covered":"yes","fee":"","operator":"","nameSource":"junction"},"sourceId":"osm"}],"schemaVersion":2}
