{"key":"12/2044/1374","points":[{"id":"osm:node:11793667156","latitude":50.8201739,"longitude":-0.3223513,"name":"Lancing Beach Green cycle parking","properties":{"access":"unknown","bicycle_pa":"stands","capacity":16,"covered":"no","fee":"","operator":"","nameSource":"landmark"},"sourceId":"osm"},{"id":"osm:node:11795397004","latitude":50.8221189,"longitude":-0.3241573,"name":"South Street near Alma Street","properties":{"access":"unknown","bicycle_pa":"stands","capacity":6,"covered":"no","fee":"","operator":"","nameSource":"junction"},"sourceId":"osm"},{"id":"osm:node:12047530760","latitude":50.8317115,"longitude":-0.2751048,"name":"High Street near Church Street","properties":{"access":"unknown","bicycle_pa":"stands","capacity":12,"covered":"no","fee":"","operator":"","nameSource":"junction"},"sourceId":"osm"},{"id":"osm:node:12047530763","latitude":50.8317363,"longitude":-0.2748909,"name":"High Street near Brighton Road","properties":{"access":"unknown","bicycle_pa":"stands","capacity":10,"covered":"no","fee":"","operator":"","nameSource":"junction"},"sourceId":"osm"},{"id":"osm:node:12348474069","latitude":50.834598,"longitude":-0.2716784,"name":"Buckingham Road near Queens Place","properties":{"access":"unknown","bicycle_pa":"stands","capacity":0,"covered":"yes","fee":"","operator":"","nameSource":"junction"},"sourceId":"osm"},{"id":"osm:node:12348474071","latitude":50.8347003,"longitude":-0.2715223,"name":"Gordon Road near Buckingham Road","properties":{"access":"unknown","bicycle_pa":"two-tier","capacity":0,"covered":"yes","fee":"","operator":"","nameSource":"junction"},"sourceId":"osm"},{"id":"osm:node:12413480617","latitude":50.8329328,"longitude":-0.3363749,"name":"Cokeham Road near Cokeham Lane","properties":{"access":"unknown","bicycle_pa":"stands","capacity":4,"covered":"no","fee":"","operator":"","nameSource":"junction"},"sourceId":"osm"},{"id":"osm:node:12413485734","latitude":50.8268607,"longitude":-0.3404801,"name":"Bowness Avenue near Western Road","properties":{"access":"unknown","bicycle_pa":"stands","capacity":4,"covered":"no","fee":"","operator":"","nameSource":"junction"},"sourceId":"osm"},{"id":"osm:node:12690739274","latitude":50.8271414,"longitude":-0.3230482,"name":"Sompting Road near North Road","properties":{"access":"yes","bicycle_pa":"stands","capacity":24,"covered":"no","fee":"no","operator":"","nameSource":"junction"},"sourceId":"osm"},{"id":"osm:node:13026249399","latitude":50.8202486,"longitude":-0.3240839,"name":"Brighton Road by The Perch","properties":{"access":"yes","bicycle_pa":"stands","capacity":16,"covered":"no","fee":"no","operator":"","nameSource":"landmark"},"sourceId":"osm"},{"id":"osm:node:13026249400","latitude":50.8202062,"longitude":-0.3242717,"name":"Brighton Road by Perch","properties":{"access":"yes","bicycle_pa":"stands","capacity":16,"covered":"no","fee":"no","operator":"","nameSource":"landmark"},"sourceId":"osm"},{"id":"osm:node:13026351114","latitude":50.8199464,"longitude":-0.3254753,"name":"Brighton Road by Lancing Beach Green","properties":{"access":"unknown","bicycle_pa":"stands","capacity":6,"covered":"","fee":"","operator":"","nameSource":"landmark"},"sourceId":"osm"},{"id":"osm:node:13533965775","latitude":50.8199073,"longitude":-0.3377462,"name":"Brooklands Pleasure Park cycle parking","properties":{"access":"unknown","bicycle_pa":"stands","capacity":8,"covered":"","fee":"","operator":"","nameSource":"landmark"},"sourceId":"osm"},{"id":"osm:node:13758533757","latitude":50.8276687,"longitude":-0.2654428,"name":"Old Fort Road near Shingle Road","properties":{"access":"unknown","bicycle_pa":"stands","capacity":6,"covered":"no","fee":"","operator":"","nameSource":"junction"},"sourceId":"osm"},{"id":"osm:node:13758670889","latitude":50.8278724,"longitude":-0.287055,"name":"Beach Green near The Saltings","properties":{"access":"unknown","bicycle_pa":"stands","capacity":6,"covered":"no","fee":"","operator":"","nameSource":"junction"},"sourceId":"osm"},{"id":"osm:node:13758724541","latitude":50.8284155,"longitude":-0.2797449,"name":"Riverbank by Beach Green","properties":{"access":"unknown","bicycle_pa":"stands","capacity":4,"covered":"no","fee":"","operator":"","nameSource":"landmark"},"sourceId":"osm"},{"id":"osm:node:13953661799","latitude":50.833974,"longitude":-0.2750451,"name":"Pond Road near Western Road","properties":{"access":"unknown","bicycle_pa":"stands","capacity":10,"covered":"no","fee":"","operator":"","nameSource":"junction"},"sourceId":"osm"},{"id":"osm:node:13953714006","latitude":50.833256,"longitude":-0.2729842,"name":"Brunswick Road near St Mary's Road","properties":{"access":"unknown","bicycle_pa":"stands","capacity":12,"covered":"no","fee":"","operator":"","nameSource":"junction"},"sourceId":"osm"},{"id":"osm:node:13953717919","latitude":50.8331119,"longitude":-0.2732271,"name":"St Mary's Road near Brunswick Road","properties":{"access":"unknown","bicycle_pa":"stands","capacity":12,"covered":"no","fee":"","operator":"","nameSource":"junction"},"sourceId":"osm"},{"id":"osm:node:2330780524","latitude":50.8328401,"longitude":-0.2689341,"name":"Brighton Road near New Road","properties":{"access":"unknown","bicycle_pa":"stands","capacity":4,"covered":"no","fee":"","operator":"","nameSource":"junction"},"sourceId":"osm"},{"id":"osm:node:2463081511","latitude":50.825298,"longitude":-0.2920013,"name":"West Beach Road by Widewater Lagoon Cafe","properties":{"access":"unknown","bicycle_pa":"","capacity":6,"covered":"","fee":"","operator":"","nameSource":"landmark"},"sourceId":"osm"},{"id":"osm:node:2533079227","latitude":50.8369384,"longitude":-0.2838429,"name":"Old Shoreham Road cycle parking","properties":{"access":"unknown","bicycle_pa":"stands","capacity":4,"covered":"no","fee":"","operator":"","nameSource":"street"},"sourceId":"osm"},{"id":"osm:node:2533079239","latitude":50.8383505,"longitude":-0.2853108,"name":"Old Shoreham Road cycle parking","properties":{"access":"unknown","bicycle_pa":"stands","capacity":4,"covered":"no","fee":"","operator":"","nameSource":"street"},"sourceId":"osm"},{"id":"osm:node:2533079265","latitude":50.8402727,"longitude":-0.2866172,"name":"Steyning Road near St Nicholas Lane","properties":{"access":"unknown","bicycle_pa":"stands","capacity":4,"covered":"no","fee":"","operator":"","nameSource":"junction"},"sourceId":"osm"},{"id":"osm:node:422452672","latitude":50.8139467,"longitude":-0.3477529,"name":"Brighton Road near Ophir Road","properties":{"access":"unknown","bicycle_pa":"stands","capacity":4,"covered":"no","fee":"","operator":"","nameSource":"junction"},"sourceId":"osm"},{"id":"osm:node:443975113","latitude":50.8237767,"longitude":-0.3010588,"name":"Lancing cycle parking","properties":{"access":"unknown","bicycle_pa":"","capacity":2,"covered":"","fee":"","operator":"","nameSource":"place"},"sourceId":"osm"},{"id":"osm:node:443975114","latitude":50.8239282,"longitude":-0.3000866,"name":"Lancing cycle parking","properties":{"access":"unknown","bicycle_pa":"","capacity":2,"covered":"","fee":"","operator":"","nameSource":"place"},"sourceId":"osm"},{"id":"osm:node:82579485","latitude":50.8342587,"longitude":-0.2716125,"name":"Station Approach near Brunswick Road","properties":{"access":"unknown","bicycle_pa":"","capacity":0,"covered":"","fee":"","operator":"","nameSource":"junction"},"sourceId":"osm"},{"id":"osm:node:82588504","latitude":50.8199327,"longitude":-0.3247085,"name":"Brighton Road by Perch","properties":{"access":"yes","bicycle_pa":"stands","capacity":10,"covered":"no","fee":"no","operator":"","nameSource":"landmark"},"sourceId":"osm"},{"id":"osm:node:82588547","latitude":50.8153041,"longitude":-0.341701,"name":"Brighton Road near Brougham Road","properties":{"access":"unknown","bicycle_pa":"stands","capacity":4,"covered":"no","fee":"","operator":"","nameSource":"junction"},"sourceId":"osm"},{"id":"osm:way:1286950518","latitude":50.8408864,"longitude":-0.29023896,"name":"Old Shoreham Road near Cecil Pashley Way","properties":{"access":"no","bicycle_pa":"shed","capacity":0,"covered":"yes","fee":"","operator":"","nameSource":"junction"},"sourceId":"osm"},{"id":"osm:way:1286950519","latitude":50.84089374,"longitude":-0.2903139,"name":"Old Shoreham Road near Cecil Pashley Way","properties":{"access":"no","bicycle_pa":"shed","capacity":0,"covered":"yes","fee":"","operator":"","nameSource":"junction"},"sourceId":"osm"},{"id":"osm:way:1286950520","latitude":50.84090104,"longitude":-0.29038917999999997,"name":"Old Shoreham Road near Cecil Pashley Way","properties":{"access":"no","bicycle_pa":"shed","capacity":0,"covered":"yes","fee":"","operator":"","nameSource":"junction"},"sourceId":"osm"},{"id":"osm:way:1286950521","latitude":50.84090864,"longitude":-0.29046478,"name":"Old Shoreham Road near Cecil Pashley Way","properties":{"access":"no","bicycle_pa":"shed","capacity":0,"covered":"yes","fee":"","operator":"","nameSource":"junction"},"sourceId":"osm"}],"schemaVersion":2}
