{"key":"12/2041/1320","points":[{"id":"osm:node:366652770","latitude":53.7273005,"longitude":-0.5803268,"name":"Station Road near Grassdale Park","properties":{"access":"unknown","bicycle_pa":"","capacity":0,"covered":"","fee":"","operator":"","nameSource":"junction"},"sourceId":"osm"},{"id":"osm:node:3865246118","latitude":53.7299975,"longitude":-0.5734606,"name":"Welton Road near Elloughton Road","properties":{"access":"unknown","bicycle_pa":"stands","capacity":10,"covered":"no","fee":"","operator":"","nameSource":"junction"},"sourceId":"osm"},{"id":"osm:node:4481775629","latitude":53.7294767,"longitude":-0.5702553,"name":"Welton Road near Tremayne Avenue","properties":{"access":"unknown","bicycle_pa":"","capacity":0,"covered":"","fee":"","operator":"","nameSource":"junction"},"sourceId":"osm"},{"id":"osm:node:5146114190","latitude":53.7271682,"longitude":-0.5794727,"name":"Grassdale Park cycle parking","properties":{"access":"unknown","bicycle_pa":"stands","capacity":20,"covered":"no","fee":"","operator":"","nameSource":"street"},"sourceId":"osm"},{"id":"osm:node:549877127","latitude":53.7270212,"longitude":-0.5792367,"name":"King Edward Terrace by Riverside Taxis Brough Tel:01482 666525","properties":{"access":"unknown","bicycle_pa":"","capacity":20,"covered":"no","fee":"","operator":"","nameSource":"landmark"},"sourceId":"osm"},{"id":"osm:node:549877149","latitude":53.7271074,"longitude":-0.5791991,"name":"Grassdale Park by Riverside Taxis Brough Tel:01482 666525","properties":{"access":"unknown","bicycle_pa":"","capacity":20,"covered":"","fee":"","operator":"","nameSource":"landmark"},"sourceId":"osm"}],"schemaVersion":2}
