{"key":"12/2041/1330","points":[{"id":"osm:node:11038055272","latitude":53.2208487,"longitude":-0.5578455,"name":"Valentine Road near Crusader Road","properties":{"access":"unknown","bicycle_pa":"loops","capacity":6,"covered":"no","fee":"no","operator":"","nameSource":"junction"},"sourceId":"osm"},{"id":"osm:node:12040283257","latitude":53.2062185,"longitude":-0.5516612,"name":"Newark Road near Urban Street","properties":{"access":"unknown","bicycle_pa":"sheffield_stand","capacity":10,"covered":"no","fee":"","operator":"Aldi","nameSource":"junction"},"sourceId":"osm"},{"id":"osm:node:12113222310","latitude":53.2136593,"longitude":-0.5289798,"name":"Chadwick Centre cycle parking","properties":{"access":"unknown","bicycle_pa":"loops","capacity":12,"covered":"no","fee":"","operator":"","nameSource":"landmark"},"sourceId":"osm"},{"id":"osm:node:13136645177","latitude":53.1968567,"longitude":-0.6146812,"name":"Teal Park Road cycle parking","properties":{"access":"unknown","bicycle_pa":"","capacity":0,"covered":"yes","fee":"","operator":"","nameSource":"street"},"sourceId":"osm"},{"id":"osm:node:13680254322","latitude":53.2049419,"longitude":-0.5799143,"name":"Moorland Close by ATM at Sainsbury's","properties":{"access":"unknown","bicycle_pa":"","capacity":0,"covered":"","fee":"","operator":"","nameSource":"landmark"},"sourceId":"osm"},{"id":"osm:node:2119799367","latitude":53.2175682,"longitude":-0.5456357,"name":"High Street near Shakespeare Street","properties":{"access":"unknown","bicycle_pa":"stands","capacity":8,"covered":"no","fee":"","operator":"","nameSource":"junction"},"sourceId":"osm"},{"id":"osm:node:2119801260","latitude":53.219582,"longitude":-0.5451867,"name":"High Street near Peel Street","properties":{"access":"unknown","bicycle_pa":"","capacity":0,"covered":"","fee":"","operator":"","nameSource":"junction"},"sourceId":"osm"},{"id":"osm:node:2121450565","latitude":53.2252309,"longitude":-0.544585,"name":"Station Street near Saint Mark's Square","properties":{"access":"unknown","bicycle_pa":"stands","capacity":6,"covered":"no","fee":"","operator":"","nameSource":"junction"},"sourceId":"osm"},{"id":"osm:node:2121463419","latitude":53.2245022,"longitude":-0.5426647,"name":"High Street near Firth Road","properties":{"access":"unknown","bicycle_pa":"","capacity":3,"covered":"","fee":"","operator":"","nameSource":"junction"},"sourceId":"osm"},{"id":"osm:node:2137850848","latitude":53.1953834,"longitude":-0.5346764,"name":"Grantham Road by Tesco Express","properties":{"access":"unknown","bicycle_pa":"","capacity":0,"covered":"","fee":"","operator":"","nameSource":"landmark"},"sourceId":"osm"},{"id":"osm:node:2489369328","latitude":53.2252915,"longitude":-0.5451992,"name":"Saint Mark's Square near Station Street","properties":{"access":"unknown","bicycle_pa":"","capacity":0,"covered":"","fee":"","operator":"","nameSource":"junction"},"sourceId":"osm"},{"id":"osm:node:2632395655","latitude":53.1944087,"longitude":-0.5805832,"name":"A1434 by Coffee Culture","properties":{"access":"unknown","bicycle_pa":"","capacity":0,"covered":"","fee":"","operator":"","nameSource":"landmark"},"sourceId":"osm"},{"id":"osm:node:2632404349","latitude":53.1868909,"longitude":-0.5975615,"name":"Terry O'Toole Theatre cycle parking","properties":{"access":"unknown","bicycle_pa":"","capacity":0,"covered":"","fee":"","operator":"","nameSource":"landmark"},"sourceId":"osm"},{"id":"osm:node:2632502519","latitude":53.196533,"longitude":-0.5747748,"name":"Pavillion Gardens by Ruston Sports & Social Club","properties":{"access":"unknown","bicycle_pa":"","capacity":0,"covered":"","fee":"","operator":"","nameSource":"landmark"},"sourceId":"osm"},{"id":"osm:node:2632502863","latitude":53.188842,"longitude":-0.5951422,"name":"Lindum Mews near Newark Road","properties":{"access":"unknown","bicycle_pa":"","capacity":0,"covered":"","fee":"","operator":"","nameSource":"junction"},"sourceId":"osm"},{"id":"osm:node:2632502864","latitude":53.1876624,"longitude":-0.5961346,"name":"Moor Lane near Newark Road","properties":{"access":"unknown","bicycle_pa":"","capacity":0,"covered":"","fee":"","operator":"","nameSource":"junction"},"sourceId":"osm"},{"id":"osm:node:2632502865","latitude":53.1876318,"longitude":-0.5970707,"name":"Newark Road near Moor Lane","properties":{"access":"unknown","bicycle_pa":"","capacity":0,"covered":"","fee":"","operator":"","nameSource":"junction"},"sourceId":"osm"},{"id":"osm:node:2633852557","latitude":53.1828486,"longitude":-0.5883401,"name":"Moor Lane near Lincoln Road","properties":{"access":"unknown","bicycle_pa":"","capacity":0,"covered":"","fee":"","operator":"","nameSource":"junction"},"sourceId":"osm"},{"id":"osm:node:2633852558","latitude":53.1889384,"longitude":-0.5903008,"name":"Hathersage Avenue cycle parking","properties":{"access":"unknown","bicycle_pa":"","capacity":0,"covered":"","fee":"","operator":"","nameSource":"street"},"sourceId":"osm"},{"id":"osm:node:2633852559","latitude":53.1865534,"longitude":-0.5974516,"name":"Terry O'Toole Theatre cycle parking","properties":{"access":"unknown","bicycle_pa":"","capacity":0,"covered":"","fee":"","operator":"","nameSource":"landmark"},"sourceId":"osm"},{"id":"osm:node:4759659135","latitude":53.1951116,"longitude":-0.6004313,"name":"Station Road by Hykeham Rail Station","properties":{"access":"unknown","bicycle_pa":"stands","capacity":0,"covered":"","fee":"","operator":"","nameSource":"landmark"},"sourceId":"osm"},{"id":"osm:node:5028186386","latitude":53.1783006,"longitude":-0.6014827,"name":"Severus Crescent near Valerian Place","properties":{"access":"unknown","bicycle_pa":"stands","capacity":3,"covered":"","fee":"","operator":"","nameSource":"junction"},"sourceId":"osm"},{"id":"osm:node:9376853815","latitude":53.222401,"longitude":-0.5574364,"name":"Valentine Road by George","properties":{"access":"unknown","bicycle_pa":"loops","capacity":8,"covered":"yes","fee":"","operator":"","nameSource":"landmark"},"sourceId":"osm"},{"id":"osm:way:1089907285","latitude":53.17600278,"longitude":-0.5304382200000001,"name":"Waddington Heath cycle parking","properties":{"access":"no","bicycle_pa":"shed","capacity":0,"covered":"","fee":"","operator":"","nameSource":"place"},"sourceId":"osm"},{"id":"osm:way:1089907286","latitude":53.1757951,"longitude":-0.5314812800000001,"name":"High Dike cycle parking","properties":{"access":"no","bicycle_pa":"shed","capacity":0,"covered":"","fee":"","operator":"","nameSource":"street"},"sourceId":"osm"},{"id":"osm:way:1089907293","latitude":53.17615038,"longitude":-0.53324338,"name":"High Dike cycle parking","properties":{"access":"no","bicycle_pa":"shed","capacity":0,"covered":"","fee":"","operator":"","nameSource":"street"},"sourceId":"osm"},{"id":"osm:way:1089907294","latitude":53.17673248,"longitude":-0.53336188,"name":"Waddington Heath cycle parking","properties":{"access":"no","bicycle_pa":"shed","capacity":0,"covered":"","fee":"","operator":"","nameSource":"place"},"sourceId":"osm"},{"id":"osm:way:1090291709","latitude":53.17375538,"longitude":-0.5306452,"name":"Waddington Heath cycle parking","properties":{"access":"no","bicycle_pa":"shed","capacity":0,"covered":"","fee":"","operator":"","nameSource":"place"},"sourceId":"osm"},{"id":"osm:way:1280990715","latitude":53.22497568,"longitude":-0.55104078,"name":"Beevor Street near Tritton Road","properties":{"access":"private","bicycle_pa":"shed","capacity":0,"covered":"yes","fee":"no","operator":"","nameSource":"junction"},"sourceId":"osm"},{"id":"osm:way:1280990716","latitude":53.22490992,"longitude":-0.5506985799999999,"name":"Beevor Street by St Marks Laundry Site A","properties":{"access":"private","bicycle_pa":"shed","capacity":0,"covered":"yes","fee":"","operator":"","nameSource":"landmark"},"sourceId":"osm"},{"id":"osm:way:1280990717","latitude":53.22474032,"longitude":-0.5503274800000001,"name":"Beevor Street by St Marks Laundry Site A","properties":{"access":"private","bicycle_pa":"shed","capacity":0,"covered":"yes","fee":"","operator":"","nameSource":"landmark"},"sourceId":"osm"},{"id":"osm:way:1280990719","latitude":53.22526402,"longitude":-0.54941572,"name":"Firth Road cycle parking","properties":{"access":"private","bicycle_pa":"shed","capacity":0,"covered":"yes","fee":"","operator":"","nameSource":"street"},"sourceId":"osm"},{"id":"osm:way:241245714","latitude":53.2256784,"longitude":-0.5449524333333333,"name":"Saint Mark's Square near St Mark Street","properties":{"access":"yes","bicycle_pa":"","capacity":0,"covered":"","fee":"","operator":"","nameSource":"junction"},"sourceId":"osm"},{"id":"osm:way:866115569","latitude":53.17653796,"longitude":-0.53013408,"name":"Waddington Heath cycle parking","properties":{"access":"no","bicycle_pa":"shed","capacity":0,"covered":"","fee":"","operator":"","nameSource":"place"},"sourceId":"osm"},{"id":"osm:way:866115595","latitude":53.174264140000005,"longitude":-0.5316566399999999,"name":"High Dike near Slessor Street","properties":{"access":"unknown","bicycle_pa":"shed","capacity":0,"covered":"","fee":"","operator":"","nameSource":"junction"},"sourceId":"osm"},{"id":"osm:way:866115931","latitude":53.17647772,"longitude":-0.5317302399999999,"name":"Waddington Heath cycle parking","properties":{"access":"no","bicycle_pa":"shed","capacity":0,"covered":"","fee":"","operator":"","nameSource":"place"},"sourceId":"osm"}],"schemaVersion":2}
