{"key":"12/2041/1357","points":[{"id":"osm:node:11186393627","latitude":51.761748,"longitude":-0.5688606,"name":"High Street near Park View Road","properties":{"access":"unknown","bicycle_pa":"stands","capacity":6,"covered":"no","fee":"no","operator":"","nameSource":"junction"},"sourceId":"osm"},{"id":"osm:node:13378538236","latitude":51.7637299,"longitude":-0.562625,"name":"Greenes Court by Berkhamsted","properties":{"access":"unknown","bicycle_pa":"two-tier","capacity":0,"covered":"yes","fee":"","operator":"","nameSource":"landmark"},"sourceId":"osm"},{"id":"osm:node:3868313076","latitude":51.7631188,"longitude":-0.5614429,"name":"Lower Kings Road near Brownlow Road","properties":{"access":"unknown","bicycle_pa":"stands","capacity":48,"covered":"yes","fee":"","operator":"","nameSource":"junction"},"sourceId":"osm"},{"id":"osm:node:3952650272","latitude":51.7668741,"longitude":-0.5777375,"name":"Billet Lane near Northbridge Road","properties":{"access":"unknown","bicycle_pa":"","capacity":10,"covered":"","fee":"","operator":"","nameSource":"junction"},"sourceId":"osm"},{"id":"osm:node:4185277693","latitude":51.7638181,"longitude":-0.5631376,"name":"Greenes Court by Berkhamsted","properties":{"access":"unknown","bicycle_pa":"stands","capacity":0,"covered":"yes","fee":"","operator":"","nameSource":"landmark"},"sourceId":"osm"},{"id":"osm:node:4608364542","latitude":51.7613146,"longitude":-0.5675781,"name":"Cowper Road near High Street","properties":{"access":"unknown","bicycle_pa":"stands","capacity":4,"covered":"no","fee":"","operator":"","nameSource":"junction"},"sourceId":"osm"},{"id":"osm:node:6326922168","latitude":51.7601808,"longitude":-0.5640506,"name":"High Street near Dwight's Yard","properties":{"access":"unknown","bicycle_pa":"","capacity":0,"covered":"","fee":"","operator":"","nameSource":"junction"},"sourceId":"osm"},{"id":"osm:node:6781306608","latitude":51.7632678,"longitude":-0.573746,"name":"High Street near Stag Lane","properties":{"access":"unknown","bicycle_pa":"stands","capacity":6,"covered":"no","fee":"","operator":"","nameSource":"junction"},"sourceId":"osm"},{"id":"osm:node:6781331695","latitude":51.7625043,"longitude":-0.5698516,"name":"St. John's Well Lane near High Street","properties":{"access":"unknown","bicycle_pa":"stands","capacity":10,"covered":"no","fee":"","operator":"","nameSource":"junction"},"sourceId":"osm"},{"id":"osm:way:498395713","latitude":51.7624669,"longitude":-0.5718704923076923,"name":"Kitsbury Road near High Street","properties":{"access":"private","bicycle_pa":"","capacity":0,"covered":"","fee":"","operator":"","nameSource":"junction"},"sourceId":"osm"}],"schemaVersion":2}
