{"key":"12/2041/1363","points":[{"id":"osm:node:10838097562","latitude":51.4254521,"longitude":-0.5614889,"name":"Shilling Auditorium cycle parking","properties":{"access":"unknown","bicycle_pa":"stands","capacity":0,"covered":"yes","fee":"","operator":"","nameSource":"landmark"},"sourceId":"osm"},{"id":"osm:node:10863048408","latitude":51.4255176,"longitude":-0.5606219,"name":"Shilling Auditorium cycle parking","properties":{"access":"private","bicycle_pa":"wall_loops","capacity":8,"covered":"yes","fee":"","operator":"","nameSource":"landmark"},"sourceId":"osm"},{"id":"osm:node:10863048409","latitude":51.4255217,"longitude":-0.5607536,"name":"Shilling Auditorium cycle parking","properties":{"access":"private","bicycle_pa":"wall_loops","capacity":8,"covered":"yes","fee":"","operator":"","nameSource":"landmark"},"sourceId":"osm"},{"id":"osm:node:11044045325","latitude":51.4104958,"longitude":-0.5925445,"name":"Virginia Water Café cycle parking","properties":{"access":"unknown","bicycle_pa":"stands","capacity":12,"covered":"no","fee":"","operator":"","nameSource":"landmark"},"sourceId":"osm"},{"id":"osm:node:12346745796","latitude":51.4406988,"longitude":-0.5500937,"name":"Windsor Road by Runnymede Cafe","properties":{"access":"unknown","bicycle_pa":"stands","capacity":10,"covered":"yes","fee":"","operator":"","nameSource":"landmark"},"sourceId":"osm"},{"id":"osm:node:12471404886","latitude":51.4330833,"longitude":-0.5442903,"name":"Hummer Road near The Old Bakery","properties":{"access":"unknown","bicycle_pa":"shed","capacity":0,"covered":"","fee":"","operator":"","nameSource":"junction"},"sourceId":"osm"},{"id":"osm:node:13267322947","latitude":51.4484081,"longitude":-0.5677279,"name":"Windsor Road by Magna Carta Tea Room at Runnymede","properties":{"access":"unknown","bicycle_pa":"stands","capacity":8,"covered":"no","fee":"","operator":"","nameSource":"landmark"},"sourceId":"osm"},{"id":"osm:node:13313357596","latitude":51.4321625,"longitude":-0.5522111,"name":"Fairhaven near Fairhaven Court","properties":{"access":"yes","bicycle_pa":"stands","capacity":5,"covered":"no","fee":"","operator":"","nameSource":"junction"},"sourceId":"osm"},{"id":"osm:node:13615243884","latitude":51.4153869,"longitude":-0.5727378,"name":"Callow Hill cycle parking","properties":{"access":"private","bicycle_pa":"","capacity":0,"covered":"yes","fee":"","operator":"","nameSource":"street"},"sourceId":"osm"},{"id":"osm:node:1537649677","latitude":51.4261222,"longitude":-0.5610951,"name":"Shilling Auditorium cycle parking","properties":{"access":"unknown","bicycle_pa":"stands","capacity":15,"covered":"yes","fee":"","operator":"","nameSource":"landmark"},"sourceId":"osm"},{"id":"osm:node:1614361128","latitude":51.4253114,"longitude":-0.5612319,"name":"Shilling Auditorium cycle parking","properties":{"access":"unknown","bicycle_pa":"","capacity":0,"covered":"","fee":"","operator":"","nameSource":"landmark"},"sourceId":"osm"},{"id":"osm:node:1614377263","latitude":51.4261011,"longitude":-0.5636715,"name":"Victor Little cycle parking","properties":{"access":"unknown","bicycle_pa":"stands","capacity":20,"covered":"no","fee":"","operator":"","nameSource":"landmark"},"sourceId":"osm"},{"id":"osm:node:1614377309","latitude":51.4274515,"longitude":-0.563909,"name":"Union Plaza cycle parking","properties":{"access":"unknown","bicycle_pa":"stands","capacity":24,"covered":"no","fee":"","operator":"","nameSource":"street"},"sourceId":"osm"},{"id":"osm:node:1652244781","latitude":51.4300821,"longitude":-0.553697,"name":"Spring Rise near Milton Road","properties":{"access":"unknown","bicycle_pa":"stands","capacity":4,"covered":"no","fee":"","operator":"","nameSource":"junction"},"sourceId":"osm"},{"id":"osm:node:254021216","latitude":51.4018775,"longitude":-0.5623655,"name":"Christchurch Road by Costa","properties":{"access":"unknown","bicycle_pa":"","capacity":10,"covered":"","fee":"","operator":"","nameSource":"landmark"},"sourceId":"osm"},{"id":"osm:node:254021348","latitude":51.4035682,"longitude":-0.5671776,"name":"Christchurch Road near Station Approach","properties":{"access":"unknown","bicycle_pa":"stands","capacity":10,"covered":"no","fee":"","operator":"","nameSource":"junction"},"sourceId":"osm"},{"id":"osm:node:2558952174","latitude":51.4484095,"longitude":-0.5680974,"name":"Windsor Road by Magna Carta Tea Room at Runnymede","properties":{"access":"unknown","bicycle_pa":"stands","capacity":8,"covered":"no","fee":"","operator":"","nameSource":"landmark"},"sourceId":"osm"},{"id":"osm:node:261771134","latitude":51.426298,"longitude":-0.5646095,"name":"Founder's Steam Tunnel by Victor Little","properties":{"access":"unknown","bicycle_pa":"","capacity":10,"covered":"","fee":"","operator":"","nameSource":"landmark"},"sourceId":"osm"},{"id":"osm:node:262022001","latitude":51.425697,"longitude":-0.5599755,"name":"Senate House Depository Library cycle parking","properties":{"access":"unknown","bicycle_pa":"","capacity":0,"covered":"yes","fee":"no","operator":"","nameSource":"landmark"},"sourceId":"osm"},{"id":"osm:node:262022099","latitude":51.4252301,"longitude":-0.5602185,"name":"Senate House Depository Library cycle parking","properties":{"access":"unknown","bicycle_pa":"stands","capacity":12,"covered":"no","fee":"","operator":"","nameSource":"landmark"},"sourceId":"osm"},{"id":"osm:node:262022131","latitude":51.4249345,"longitude":-0.561308,"name":"Pearls Bubble Tea cycle parking","properties":{"access":"unknown","bicycle_pa":"stands","capacity":8,"covered":"no","fee":"","operator":"","nameSource":"landmark"},"sourceId":"osm"},{"id":"osm:node:3707199908","latitude":51.4290988,"longitude":-0.5469004,"name":"Rusham Park Avenue near Station Road","properties":{"access":"unknown","bicycle_pa":"stands","capacity":0,"covered":"no","fee":"","operator":"","nameSource":"junction"},"sourceId":"osm"},{"id":"osm:node:4081638538","latitude":51.4263688,"longitude":-0.5967168,"name":"Rhododendron Ride by The Savill Garden","properties":{"access":"unknown","bicycle_pa":"stands","capacity":8,"covered":"no","fee":"","operator":"","nameSource":"landmark"},"sourceId":"osm"},{"id":"osm:node:4081638543","latitude":51.4264502,"longitude":-0.596677,"name":"Rhododendron Ride by The Savill Garden","properties":{"access":"unknown","bicycle_pa":"stands","capacity":8,"covered":"no","fee":"","operator":"","nameSource":"landmark"},"sourceId":"osm"},{"id":"osm:node:4211150837","latitude":51.4318282,"longitude":-0.5463887,"name":"High Street near Town Walk","properties":{"access":"unknown","bicycle_pa":"stands","capacity":20,"covered":"yes","fee":"","operator":"","nameSource":"junction"},"sourceId":"osm"},{"id":"osm:node:4211150838","latitude":51.431406,"longitude":-0.5467179,"name":"Church Road near St. Johns Court","properties":{"access":"unknown","bicycle_pa":"stands","capacity":20,"covered":"yes","fee":"","operator":"","nameSource":"junction"},"sourceId":"osm"},{"id":"osm:node:4495225267","latitude":51.4316452,"longitude":-0.5482858,"name":"High Street near Wetton Place","properties":{"access":"yes","bicycle_pa":"stands","capacity":6,"covered":"no","fee":"","operator":"","nameSource":"junction"},"sourceId":"osm"},{"id":"osm:node:4495225271","latitude":51.4322878,"longitude":-0.5460629,"name":"High Street near Town Walk","properties":{"access":"unknown","bicycle_pa":"stands","capacity":4,"covered":"no","fee":"","operator":"","nameSource":"junction"},"sourceId":"osm"},{"id":"osm:node:6326506561","latitude":51.4323717,"longitude":-0.5452154,"name":"High Street near Church Road","properties":{"access":"unknown","bicycle_pa":"stands","capacity":18,"covered":"no","fee":"","operator":"","nameSource":"junction"},"sourceId":"osm"},{"id":"osm:node:7175338526","latitude":51.4245013,"longitude":-0.5583208,"name":"Nobles Way by Spring Rise Play Area","properties":{"access":"unknown","bicycle_pa":"stands","capacity":12,"covered":"no","fee":"no","operator":"","nameSource":"landmark"},"sourceId":"osm"},{"id":"osm:node:8171756935","latitude":51.4249456,"longitude":-0.5599049,"name":"Senate House Depository Library cycle parking","properties":{"access":"unknown","bicycle_pa":"stands","capacity":10,"covered":"no","fee":"","operator":"","nameSource":"landmark"},"sourceId":"osm"},{"id":"osm:node:8171756936","latitude":51.4249359,"longitude":-0.5605382,"name":"Pearls Bubble Tea cycle parking","properties":{"access":"unknown","bicycle_pa":"stands","capacity":6,"covered":"no","fee":"","operator":"","nameSource":"landmark"},"sourceId":"osm"},{"id":"osm:node:8435152378","latitude":51.4257343,"longitude":-0.5599734,"name":"Senate House Depository Library cycle parking","properties":{"access":"unknown","bicycle_pa":"","capacity":0,"covered":"yes","fee":"no","operator":"","nameSource":"landmark"},"sourceId":"osm"},{"id":"osm:node:8758175995","latitude":51.4322069,"longitude":-0.5463175,"name":"High Street near Town Walk","properties":{"access":"yes","bicycle_pa":"stands","capacity":4,"covered":"no","fee":"","operator":"","nameSource":"junction"},"sourceId":"osm"},{"id":"osm:node:9074666890","latitude":51.4352344,"longitude":-0.5387075,"name":"The Avenue near Green Lane","properties":{"access":"unknown","bicycle_pa":"stands","capacity":8,"covered":"no","fee":"no","operator":"","nameSource":"junction"},"sourceId":"osm"},{"id":"osm:node:9532182903","latitude":51.4291704,"longitude":-0.5374315,"name":"Vicarage Road near Vicarage Road cycle path","properties":{"access":"yes","bicycle_pa":"stands","capacity":20,"covered":"yes","fee":"no","operator":"","nameSource":"junction"},"sourceId":"osm"},{"id":"osm:node:9830831011","latitude":51.4316194,"longitude":-0.5483946,"name":"High Street near Wetton Place","properties":{"access":"unknown","bicycle_pa":"stands","capacity":8,"covered":"no","fee":"no","operator":"","nameSource":"junction"},"sourceId":"osm"},{"id":"osm:node:9830862256","latitude":51.4310002,"longitude":-0.549073,"name":"Church Road near Grange Road","properties":{"access":"unknown","bicycle_pa":"stands","capacity":6,"covered":"no","fee":"no","operator":"","nameSource":"junction"},"sourceId":"osm"},{"id":"osm:node:9845150952","latitude":51.4265109,"longitude":-0.5631964,"name":"Union Plaza cycle parking","properties":{"access":"unknown","bicycle_pa":"wall_loops","capacity":20,"covered":"yes","fee":"","operator":"","nameSource":"street"},"sourceId":"osm"},{"id":"osm:node:986813519","latitude":51.4294264,"longitude":-0.5468039,"name":"Nicholson Walk near School Lane","properties":{"access":"unknown","bicycle_pa":"rack","capacity":32,"covered":"yes","fee":"","operator":"","nameSource":"junction"},"sourceId":"osm"},{"id":"osm:node:9952720414","latitude":51.430564,"longitude":-0.5496185,"name":"Grange Road near Blue Ball Lane","properties":{"access":"customers","bicycle_pa":"stands","capacity":2,"covered":"no","fee":"","operator":"","nameSource":"junction"},"sourceId":"osm"},{"id":"osm:node:9952729252","latitude":51.4315189,"longitude":-0.5488201,"name":"High Street near Station Road North","properties":{"access":"unknown","bicycle_pa":"stands","capacity":6,"covered":"no","fee":"","operator":"","nameSource":"junction"},"sourceId":"osm"},{"id":"osm:node:9961086937","latitude":51.4308333,"longitude":-0.5481838,"name":"Magna Square by Starbucks","properties":{"access":"unknown","bicycle_pa":"stands","capacity":16,"covered":"no","fee":"no","operator":"","nameSource":"landmark"},"sourceId":"osm"},{"id":"osm:way:1231778389","latitude":51.427730600000004,"longitude":-0.56538918,"name":"Egham Hill near Chestnut Drive","properties":{"access":"unknown","bicycle_pa":"shed","capacity":0,"covered":"","fee":"","operator":"","nameSource":"junction"},"sourceId":"osm"},{"id":"osm:way:1231778394","latitude":51.427511319999994,"longitude":-0.56615768,"name":"Egham Hill cycle parking","properties":{"access":"unknown","bicycle_pa":"shed","capacity":0,"covered":"","fee":"","operator":"","nameSource":"street"},"sourceId":"osm"},{"id":"osm:way:1231778398","latitude":51.42737654,"longitude":-0.56661538,"name":"Harvest Road near South Road","properties":{"access":"unknown","bicycle_pa":"shed","capacity":0,"covered":"","fee":"","operator":"","nameSource":"junction"},"sourceId":"osm"},{"id":"osm:way:1231778399","latitude":51.42724124,"longitude":-0.56687004,"name":"Harvest Road near South Road","properties":{"access":"unknown","bicycle_pa":"shed","capacity":0,"covered":"","fee":"","operator":"","nameSource":"junction"},"sourceId":"osm"},{"id":"osm:way:1231778409","latitude":51.4277061,"longitude":-0.5665826600000001,"name":"Harvest Road near South Road","properties":{"access":"unknown","bicycle_pa":"shed","capacity":0,"covered":"","fee":"","operator":"","nameSource":"junction"},"sourceId":"osm"},{"id":"osm:way:1493527165","latitude":51.42555534,"longitude":-0.56438048,"name":"Founder's Square cycle parking","properties":{"access":"unknown","bicycle_pa":"stands","capacity":32,"covered":"yes","fee":"","operator":"","nameSource":"street"},"sourceId":"osm"},{"id":"osm:way:260278992","latitude":51.426278100000005,"longitude":-0.57040238,"name":"Highfield Road near Highfield Court","properties":{"access":"private","bicycle_pa":"wall_loops","capacity":10,"covered":"","fee":"","operator":"","nameSource":"junction"},"sourceId":"osm"},{"id":"osm:way:777498486","latitude":51.434814180000004,"longitude":-0.5344234,"name":"The Glanty cycle parking","properties":{"access":"unknown","bicycle_pa":"two_tier","capacity":0,"covered":"yes","fee":"","operator":"","nameSource":"street"},"sourceId":"osm"}],"schemaVersion":2}
