{"key":"12/2041/1367","points":[{"id":"osm:node:11850001668","latitude":51.1858143,"longitude":-0.6106011,"name":"High Street near Bridge Street","properties":{"access":"unknown","bicycle_pa":"stands","capacity":8,"covered":"no","fee":"","operator":"","nameSource":"junction"},"sourceId":"osm"},{"id":"osm:node:12533724447","latitude":51.1932933,"longitude":-0.5570889,"name":"High Street near Windrush Close","properties":{"access":"unknown","bicycle_pa":"wall_loops","capacity":3,"covered":"no","fee":"","operator":"","nameSource":"junction"},"sourceId":"osm"},{"id":"osm:node:12533728505","latitude":51.1932998,"longitude":-0.557221,"name":"High Street near Windrush Close","properties":{"access":"unknown","bicycle_pa":"stands","capacity":6,"covered":"no","fee":"","operator":"","nameSource":"junction"},"sourceId":"osm"},{"id":"osm:node:13877595511","latitude":51.2048549,"longitude":-0.5652539,"name":"Downs Link cycle parking","properties":{"access":"unknown","bicycle_pa":"hoop","capacity":4,"covered":"","fee":"","operator":"","nameSource":"street"},"sourceId":"osm"},{"id":"osm:node:258901661","latitude":51.1859927,"longitude":-0.6103719,"name":"Bridge Street near High Street","properties":{"access":"unknown","bicycle_pa":"","capacity":4,"covered":"","fee":"","operator":"","nameSource":"junction"},"sourceId":"osm"},{"id":"osm:node:268466685","latitude":51.2325011,"longitude":-0.5756788,"name":"Porridge Pot Alley near Millmead","properties":{"access":"unknown","bicycle_pa":"","capacity":0,"covered":"","fee":"","operator":"","nameSource":"junction"},"sourceId":"osm"},{"id":"osm:node:343038862","latitude":51.2342339,"longitude":-0.5747594,"name":"Mill Lane near Millbrook","properties":{"access":"unknown","bicycle_pa":"","capacity":4,"covered":"","fee":"","operator":"","nameSource":"junction"},"sourceId":"osm"},{"id":"osm:node:486172709","latitude":51.1867261,"longitude":-0.6040565,"name":"Godalming Business Centre cycle parking","properties":{"access":"unknown","bicycle_pa":"","capacity":7,"covered":"","fee":"","operator":"","nameSource":"street"},"sourceId":"osm"},{"id":"osm:node:5145326035","latitude":51.1960857,"longitude":-0.6044387,"name":"Farncombe Street near Saint John's Street","properties":{"access":"unknown","bicycle_pa":"post_hoop","capacity":4,"covered":"no","fee":"","operator":"","nameSource":"junction"},"sourceId":"osm"},{"id":"osm:node:564773747","latitude":51.1962685,"longitude":-0.6061683,"name":"Farncombe Street near Station Road","properties":{"access":"unknown","bicycle_pa":"","capacity":4,"covered":"","fee":"","operator":"","nameSource":"junction"},"sourceId":"osm"},{"id":"osm:node:7273895371","latitude":51.2144381,"longitude":-0.5666883,"name":"Station Yard near Station Approach","properties":{"access":"unknown","bicycle_pa":"stands","capacity":10,"covered":"yes","fee":"","operator":"","nameSource":"junction"},"sourceId":"osm"},{"id":"osm:node:929242892","latitude":51.2180959,"longitude":-0.5799901,"name":"Old Portsmouth Road cycle parking","properties":{"access":"unknown","bicycle_pa":"","capacity":6,"covered":"no","fee":"","operator":"","nameSource":"street"},"sourceId":"osm"},{"id":"osm:node:9536935054","latitude":51.1956057,"longitude":-0.6043458,"name":"Owen Road near Saint John's Street","properties":{"access":"unknown","bicycle_pa":"post_hoop","capacity":4,"covered":"no","fee":"","operator":"","nameSource":"junction"},"sourceId":"osm"},{"id":"osm:node:9536935055","latitude":51.1968382,"longitude":-0.6040955,"name":"White Star Close near Summers Road","properties":{"access":"unknown","bicycle_pa":"post_hoop","capacity":4,"covered":"no","fee":"","operator":"","nameSource":"junction"},"sourceId":"osm"},{"id":"osm:node:9670242950","latitude":51.2338097,"longitude":-0.5735842,"name":"Castle Hill near Quarry Street","properties":{"access":"unknown","bicycle_pa":"wall_loops","capacity":12,"covered":"yes","fee":"","operator":"","nameSource":"junction"},"sourceId":"osm"},{"id":"osm:way:1062981979","latitude":51.21428968,"longitude":-0.56723458,"name":"Station Yard near Station Approach","properties":{"access":"yes","bicycle_pa":"stands","capacity":10,"covered":"yes","fee":"no","operator":"Great Western Railway","nameSource":"junction"},"sourceId":"osm"},{"id":"osm:way:1075038065","latitude":51.18629838,"longitude":-0.61195988,"name":"Crown Court near High Street","properties":{"access":"unknown","bicycle_pa":"stands","capacity":0,"covered":"yes","fee":"","operator":"","nameSource":"junction"},"sourceId":"osm"},{"id":"osm:way:952487209","latitude":51.18761664,"longitude":-0.60913784,"name":"The Burys near Bridge Street","properties":{"access":"unknown","bicycle_pa":"stands","capacity":8,"covered":"no","fee":"","operator":"","nameSource":"junction"},"sourceId":"osm"}],"schemaVersion":2}
