{"key":"12/2038/1525","points":[{"categories":["hire"],"id":"osm:node:1273425502","latitude":41.6588331,"longitude":-0.8742536,"name":"Sobrarbe: Ribera","properties":{"brand":"BiZi","network":"BiZi","openingHours":"24/7"},"sourceId":"osm"},{"categories":["hire"],"id":"osm:node:1273425507","latitude":41.6541433,"longitude":-0.8703581,"name":"Puerta del Sol","properties":{"brand":"BiZi","network":"BiZi","operator":"UTE Bicicletas Zaragoza"},"sourceId":"osm"},{"categories":["hire"],"id":"osm:node:1273425509","latitude":41.6564668,"longitude":-0.8695911,"name":"Ribera: Pte. del Pilar","properties":{"brand":"BiZi","network":"BiZi","operator":"UTE Bicicletas Zaragoza"},"sourceId":"osm"},{"categories":["hire"],"id":"osm:node:1273425521","latitude":41.6531201,"longitude":-0.8581082,"name":"Ribera. Azud","properties":{"brand":"BiZi","network":"BiZi","operator":"UTE Bicicletas Zaragoza"},"sourceId":"osm"},{"categories":["hire"],"id":"osm:node:1273425525","latitude":41.6569313,"longitude":-0.8775572,"name":"Echegaray: El Pilar","properties":{"brand":"BiZi","network":"BiZi","operator":"UTE Bicicletas Zaragoza"},"sourceId":"osm"},{"categories":["hire"],"id":"osm:node:1273425526","latitude":41.6527587,"longitude":-0.8661319,"name":"Pº Echegaray y Caballero - Pasarela del Huerva","properties":{"brand":"BiZi","network":"BiZi","operator":"Clear Channel"},"sourceId":"osm"},{"categories":["hire"],"id":"osm:node:1273425527","latitude":41.6512854,"longitude":-0.8605685,"name":"Clear Channel","properties":{"brand":"BiZi","network":"BiZi","operator":"Clear Channel"},"sourceId":"osm"},{"categories":["hire"],"id":"osm:node:1273425528","latitude":41.6589885,"longitude":-0.865304,"name":"UTE Bicicletas Zaragoza","properties":{"brand":"BiZi","network":"BiZi","operator":"UTE Bicicletas Zaragoza"},"sourceId":"osm"},{"categories":["hire"],"id":"osm:node:1273425552","latitude":41.6559784,"longitude":-0.8754429,"name":"Echegaray. Pte. Piedra","properties":{"brand":"BiZi","network":"BiZi","operator":"UTE Bicicletas Zaragoza"},"sourceId":"osm"},{"categories":["hire"],"id":"osm:node:1273483389","latitude":41.6517066,"longitude":-0.8735,"name":"Coso Bajo","properties":{"brand":"BiZi","network":"BiZi","openingHours":"24/7","operator":"UTE Bicicletas Zaragoza"},"sourceId":"osm"},{"categories":["hire"],"id":"osm:node:12947151347","latitude":41.6879977,"longitude":-0.875483,"name":"Majas de Goya","properties":{"network":"BiZi","operator":"UTE Bicicletas Zaragoza"},"sourceId":"osm"},{"categories":["hire"],"id":"osm:node:12947151348","latitude":41.6865736,"longitude":-0.8711442,"name":"Majas de Goya","properties":{"brand":"BiZi","network":"BiZi","operator":"UTE Bicicletas Zaragoza"},"sourceId":"osm"},{"categories":["hire"],"id":"osm:node:12967265163","latitude":41.6403251,"longitude":-0.8668649,"name":"UTE Bicicletas Zaragoza","properties":{"brand":"BiZi","network":"BiZi","operator":"UTE Bicicletas Zaragoza"},"sourceId":"osm"},{"categories":["hire"],"id":"osm:node:13064993508","latitude":41.6657466,"longitude":-0.8561416,"name":"Cataluña: Sta. Fe","properties":{"brand":"BiZi","network":"BiZi","operator":"UTE Bicicletas Zaragoza"},"sourceId":"osm"},{"categories":["hire"],"id":"osm:node:13064993516","latitude":41.6568863,"longitude":-0.8551747,"name":"Burriel: Zapater","properties":{"brand":"BiZi","network":"BiZi","operator":"UTE Bicicletas Zaragoza"},"sourceId":"osm"},{"categories":["hire"],"id":"osm:node:13088992944","latitude":41.6451245,"longitude":-0.859179,"name":"F. Luis Urbano: Caspe","properties":{"brand":"BiZi","network":"BiZi","operator":"UTE Bicicletas Zaragoza"},"sourceId":"osm"},{"categories":["hire"],"id":"osm:node:13088992979","latitude":41.6454458,"longitude":-0.8663475,"name":"Batalla Pavía: Caspe","properties":{"brand":"BiZi","network":"BiZi","operator":"UTE Bicicletas Zaragoza"},"sourceId":"osm"},{"categories":["hire"],"id":"osm:node:13089007413","latitude":41.6562448,"longitude":-0.863233,"name":"Cosuenda: Longares","properties":{"brand":"BiZi","network":"BiZi","operator":"UTE Bicicletas Zaragoza"},"sourceId":"osm"},{"categories":["hire"],"id":"osm:node:13101177740","latitude":41.6668763,"longitude":-0.8312421,"name":"Pza. Serrano Berges","properties":{"brand":"BiZi","network":"BiZi","operator":"UTE Bicicletas Zaragoza"},"sourceId":"osm"},{"categories":["hire"],"id":"osm:node:13101182297","latitude":41.6690822,"longitude":-0.8337255,"name":"Ostáriz Forcén: Brazal","properties":{"brand":"BiZi","network":"BiZi","operator":"UTE Bicicletas Zaragoza"},"sourceId":"osm"},{"categories":["hire"],"id":"osm:node:13101883603","latitude":41.6669709,"longitude":-0.8231215,"name":"Avda. Real Zaragoza","properties":{"brand":"BiZi","network":"BiZi","operator":"UTE Bicicletas Zaragoza"},"sourceId":"osm"},{"categories":["hire"],"id":"osm:node:13171641836","latitude":41.6693436,"longitude":-0.8384009,"name":"Santa Isabel: Víctor Jara","properties":{"brand":"BiZi","network":"BiZi","operator":"UTE Bicicletas Zaragoza"},"sourceId":"osm"},{"categories":["hire"],"id":"osm:node:13324960889","latitude":41.6693215,"longitude":-0.8302209,"name":"Norte: Iglesia","properties":{"brand":"BiZi","network":"BiZi","operator":"UTE Bicicletas Zaragoza"},"sourceId":"osm"},{"categories":["hire"],"id":"osm:node:13440227790","latitude":41.6475555,"longitude":-0.8641442,"name":"Mrio. Siresa: Dr. Iranzo","properties":{"network":"BiZi","openingHours":"24/7"},"sourceId":"osm"},{"categories":["hire"],"id":"osm:node:13460418262","latitude":41.667467,"longitude":-0.8528746,"name":"Cataluña: I. Sto. Domingo","properties":{"brand":"BiZi","network":"BiZi","openingHours":"24/7","operator":"UTE Bicicletas Zaragoza"},"sourceId":"osm"},{"categories":["shop"],"id":"osm:node:1404929348","latitude":41.6497489,"longitude":-0.8707668,"name":"Recicleta","properties":{},"sourceId":"osm"},{"categories":["hire"],"id":"osm:node:1985107531","latitude":41.6629888,"longitude":-0.871137,"name":"C/ Sangüesa Castañosa - C/ F. Oliván Bayle","properties":{"brand":"BiZi","network":"BiZi","operator":"Clear Channel"},"sourceId":"osm"},{"categories":["shop","repair","hire"],"id":"osm:node:2142850508","latitude":41.6535096,"longitude":-0.8739116,"name":"La Ciclería Social Club","properties":{"openingHours":"Mo-Fr 09:00-14:00,17:00-22:00; Sa 10:00-22:00","serviceRental":"yes","serviceRepair":"yes"},"sourceId":"osm"},{"categories":["hire"],"id":"osm:node:2683629607","latitude":41.6865862,"longitude":-0.8743084,"name":"Majas de Goya","properties":{"network":"BiZi","operator":"UTE Bicicletas Zaragoza"},"sourceId":"osm"},{"categories":["shop"],"id":"osm:node:3044045333","latitude":41.6423449,"longitude":-0.8655589,"name":"Motocampo","properties":{},"sourceId":"osm"},{"categories":["shop"],"id":"osm:node:3049218523","latitude":41.6453181,"longitude":-0.8745678,"name":"Ciclos Marcen","properties":{"brand":"Merida","openingHours":"Mo-Fr 09:00-13:00,17:00-20:00"},"sourceId":"osm"},{"categories":["hire"],"id":"osm:node:3090582939","latitude":41.6449167,"longitude":-0.8711848,"name":"Matadero","properties":{"brand":"BiZi","network":"BiZi","operator":"UTE Bicicletas Zaragoza"},"sourceId":"osm"},{"categories":["hire"],"id":"osm:node:3090582940","latitude":41.6470373,"longitude":-0.8723022,"name":"Roger Tur","properties":{"brand":"BiZi","network":"BiZi","openingHours":"24/7","operator":"UTE Bicicletas Zaragoza"},"sourceId":"osm"},{"categories":["hire"],"id":"osm:node:410451461","latitude":41.6525733,"longitude":-0.8771402,"name":"S. Pedro Nolasco","properties":{"brand":"BiZi","network":"BiZi","operator":"UTE Bicicletas Zaragoza"},"sourceId":"osm"},{"categories":["hire"],"id":"osm:node:410453505","latitude":41.6489641,"longitude":-0.8755964,"name":"Asalto. Servet","properties":{"brand":"BiZi","network":"BiZi","openingHours":"24/7","operator":"UTE Bicicletas Zaragoza"},"sourceId":"osm"},{"categories":["hire"],"id":"osm:node:419267078","latitude":41.6421359,"longitude":-0.8750977,"name":"Alierta: Burriel","properties":{"brand":"BiZi","network":"BiZi","operator":"UTE Bicicletas Zaragoza"},"sourceId":"osm"},{"categories":["hire"],"id":"osm:node:4244268304","latitude":41.6616862,"longitude":-0.8654503,"name":"Plaza Mozart","properties":{"brand":"BiZi","network":"BiZi","openingHours":"24/7","operator":"UTE Bicicletas Zaragoza"},"sourceId":"osm"},{"categories":["shop"],"id":"osm:node:4370346462","latitude":41.6765615,"longitude":-0.8664081,"name":"Ciclos Albacar","properties":{},"sourceId":"osm"},{"categories":["hire"],"id":"osm:node:4396699733","latitude":41.6663607,"longitude":-0.8763324,"name":"Avda. Valle de Broto - Parque Tío Jorge","properties":{"brand":"BiZi","network":"BiZi","operator":"Clear Channel"},"sourceId":"osm"},{"categories":["hire"],"id":"osm:node:4396699745","latitude":41.669378,"longitude":-0.8765126,"name":"Avda. Salvador Allende - C/ Rubio de Francia","properties":{"brand":"BiZi","network":"BiZi","operator":"Clear Channel"},"sourceId":"osm"},{"categories":["hire"],"id":"osm:node:4406184498","latitude":41.6512811,"longitude":-0.8777517,"name":"Teatro Romano","properties":{"brand":"BiZi","network":"BiZi","openingHours":"24/7","operator":"UTE Bicicletas Zaragoza"},"sourceId":"osm"},{"categories":["hire"],"id":"osm:node:4466317489","latitude":41.6735161,"longitude":-0.8773215,"name":"Allende: Picasso","properties":{"brand":"BiZi","network":"BiZi","operator":"UTE Bicicletas Zaragoza"},"sourceId":"osm"},{"categories":["hire"],"id":"osm:node:4547754667","latitude":41.655483,"longitude":-0.8589126,"name":"C/ Balbino Orensanz - C/ Carmelo Betoré Bergua","properties":{"brand":"BiZi","network":"BiZi","operator":"Clear Channel"},"sourceId":"osm"},{"categories":["hire"],"id":"osm:node:4548119482","latitude":41.6702395,"longitude":-0.8712782,"name":"S. Juan Peña: Juslibol","properties":{"brand":"BiZi","network":"BiZi","operator":"UTE Bicicletas Zaragoza"},"sourceId":"osm"},{"categories":["hire"],"id":"osm:node:4586011368","latitude":41.6667252,"longitude":-0.8717129,"name":"Avda. Marqués de la Cadena - Avda. San Juan de la Peña","properties":{"brand":"BiZi","network":"BiZi","operator":"Clear Channel"},"sourceId":"osm"},{"categories":["hire"],"id":"osm:node:4608475298","latitude":41.6638594,"longitude":-0.8754156,"name":"C/ Sixto Celorrio - C/ Peña Oroel","properties":{"brand":"BiZi","network":"BiZi","operator":"Clear Channel"},"sourceId":"osm"},{"categories":["hire"],"id":"osm:node:4657137601","latitude":41.6453935,"longitude":-0.8776263,"name":"UTE Bicicletas Zaragoza","properties":{"brand":"BiZi","network":"BiZi","operator":"UTE Bicicletas Zaragoza"},"sourceId":"osm"},{"categories":["hire"],"id":"osm:node:4695652212","latitude":41.6739513,"longitude":-0.8713607,"name":"Jardines Concordia","properties":{"brand":"BiZi","network":"BiZi","operator":"UTE Bicicletas Zaragoza"},"sourceId":"osm"},{"categories":["hire"],"id":"osm:node:4695658150","latitude":41.6779478,"longitude":-0.8713141,"name":"Academia Gral: Allende","properties":{"brand":"BiZi","network":"BiZi","operator":"UTE Bicicletas Zaragoza"},"sourceId":"osm"},{"categories":["hire"],"id":"osm:node:4709891890","latitude":41.6480499,"longitude":-0.8772689,"name":"Pº de la Mina - C/ Pomarón","properties":{"brand":"BiZi","network":"BiZi","operator":"Clear Channel"},"sourceId":"osm"},{"categories":["hire"],"id":"osm:node:4787211087","latitude":41.6588266,"longitude":-0.8617646,"name":"UTE Bicicletas Zaragoza","properties":{"brand":"BiZi","network":"BiZi","operator":"UTE Bicicletas Zaragoza"},"sourceId":"osm"},{"categories":["hire"],"id":"osm:node:4787251396","latitude":41.6484434,"longitude":-0.8667946,"name":"Silvestre Pérez","properties":{"brand":"BiZi","network":"BiZi","operator":"UTE Bicicletas Zaragoza"},"sourceId":"osm"},{"categories":["hire"],"id":"osm:node:4803520608","latitude":41.6603794,"longitude":-0.8696831,"name":"UTE Bicicletas Zaragoza","properties":{"brand":"BiZi","network":"BiZi","operator":"UTE Bicicletas Zaragoza"},"sourceId":"osm"},{"categories":["hire"],"id":"osm:node:5220513018","latitude":41.6514779,"longitude":-0.8697386,"name":"UTE Bicicletas Zaragoza","properties":{"brand":"BiZi","network":"BiZi","operator":"UTE Bicicletas Zaragoza"},"sourceId":"osm"},{"categories":["hire"],"id":"osm:node:5225493540","latitude":41.6826436,"longitude":-0.8711922,"name":"Tauromaquia","properties":{"brand":"BiZi","network":"BiZi","operator":"UTE Bicicletas Zaragoza"},"sourceId":"osm"},{"categories":["hire"],"id":"osm:node:5352460722","latitude":41.6499466,"longitude":-0.8634562,"name":"Dr. Iranzo: Belliure","properties":{"brand":"BiZi","network":"BiZi","operator":"UTE Bicicletas Zaragoza"},"sourceId":"osm"},{"categories":["hire"],"id":"osm:node:5370279295","latitude":41.6449203,"longitude":-0.8685709,"name":"Ballesteros","properties":{"brand":"BiZi","network":"BiZi","operator":"UTE Bicicletas Zaragoza"},"sourceId":"osm"},{"categories":["shop"],"id":"osm:node:5486482838","latitude":41.6440632,"longitude":-0.8763616,"name":"Adrenalina","properties":{},"sourceId":"osm"},{"categories":["shop"],"id":"osm:node:5810708166","latitude":41.6424587,"longitude":-0.8726218,"name":"Ciclos Rubio","properties":{},"sourceId":"osm"}],"schemaVersion":2}
