{"key":"12/2083/1516","points":[{"id":"osm:node:10730252675","latitude":42.2584939,"longitude":3.077231,"name":"Carrer de Marín near Carrer de Monturiol","properties":{"access":"unknown","bicycle_pa":"stands","capacity":2,"covered":"no","fee":"","operator":"","nameSource":"junction"},"sourceId":"osm"},{"id":"osm:node:10731395439","latitude":42.2556908,"longitude":3.0773775,"name":"Carrer d'Ettenheim near Carrer de la Mugueta","properties":{"access":"unknown","bicycle_pa":"stands","capacity":10,"covered":"no","fee":"","operator":"","nameSource":"junction"},"sourceId":"osm"},{"id":"osm:node:11104846168","latitude":42.2449034,"longitude":3.131636,"name":"Passeig Marítim cycle parking","properties":{"access":"unknown","bicycle_pa":"stands","capacity":12,"covered":"no","fee":"","operator":"","nameSource":"street"},"sourceId":"osm"},{"id":"osm:node:12058077563","latitude":42.2505101,"longitude":3.1141784,"name":"Avinguda de la República Catalana cycle parking","properties":{"access":"unknown","bicycle_pa":"wall_loops","capacity":5,"covered":"no","fee":"","operator":"","nameSource":"street"},"sourceId":"osm"},{"id":"osm:node:12378804336","latitude":42.2587103,"longitude":3.0762973,"name":"Plaça de les Monges near Carrer de Sant Francesc","properties":{"access":"unknown","bicycle_pa":"wall_loops","capacity":12,"covered":"no","fee":"","operator":"","nameSource":"junction"},"sourceId":"osm"},{"id":"osm:node:13946292708","latitude":42.243921,"longitude":3.1306897,"name":"Passeig Marítim cycle parking","properties":{"access":"unknown","bicycle_pa":"stands","capacity":12,"covered":"no","fee":"","operator":"","nameSource":"street"},"sourceId":"osm"},{"id":"osm:node:13982473327","latitude":42.2462094,"longitude":3.1122486,"name":"Sector Alberes near Carrer Alberes","properties":{"access":"unknown","bicycle_pa":"stands","capacity":8,"covered":"","fee":"","operator":"","nameSource":"junction"},"sourceId":"osm"},{"id":"osm:node:13982473328","latitude":42.246486,"longitude":3.1121231,"name":"Sector Alberes cycle parking","properties":{"access":"unknown","bicycle_pa":"stands","capacity":8,"covered":"","fee":"","operator":"","nameSource":"street"},"sourceId":"osm"},{"id":"osm:node:4454110318","latitude":42.243129,"longitude":3.1249076,"name":"Avinguda de Carles Fages de Climent near Carrer de Joan Maragall","properties":{"access":"unknown","bicycle_pa":"","capacity":0,"covered":"","fee":"","operator":"","nameSource":"junction"},"sourceId":"osm"},{"id":"osm:node:4454694340","latitude":42.2621209,"longitude":3.1037928,"name":"Passeig Pla de Roses near Avinguda de Tramuntana","properties":{"access":"unknown","bicycle_pa":"wall_loops","capacity":25,"covered":"no","fee":"","operator":"","nameSource":"junction"},"sourceId":"osm"},{"id":"osm:node:4729795465","latitude":42.2631316,"longitude":3.1565502,"name":"Avinguda de la Gola de l'Estany by Denok Platja","properties":{"access":"unknown","bicycle_pa":"","capacity":4,"covered":"","fee":"","operator":"","nameSource":"landmark"},"sourceId":"osm"},{"id":"osm:node:9790959485","latitude":42.263164,"longitude":3.1032789,"name":"Carretera Olot a Roses near C-260","properties":{"access":"unknown","bicycle_pa":"","capacity":0,"covered":"","fee":"","operator":"","nameSource":"junction"},"sourceId":"osm"},{"id":"osm:way:1272901137","latitude":42.25607908333333,"longitude":3.107295666666667,"name":"Sector Sant Maurici C near Avinguda de la República Catalana","properties":{"access":"unknown","bicycle_pa":"stands","capacity":18,"covered":"no","fee":"","operator":"","nameSource":"junction"},"sourceId":"osm"},{"id":"osm:way:1482983776","latitude":42.24584336,"longitude":3.13136024,"name":"Passeig Marítim cycle parking","properties":{"access":"yes","bicycle_pa":"stands","capacity":4,"covered":"no","fee":"","operator":"","nameSource":"street"},"sourceId":"osm"},{"id":"osm:way:1482983777","latitude":42.24722104,"longitude":3.1328488599999997,"name":"Passeig Marítim cycle parking","properties":{"access":"yes","bicycle_pa":"stands","capacity":4,"covered":"no","fee":"","operator":"","nameSource":"street"},"sourceId":"osm"}],"schemaVersion":2}
