{"key":"12/2083/1522","points":[{"id":"osm:node:10726468516","latitude":41.8527528,"longitude":3.1183122,"name":"Avinguda de Catalunya near Carrer del Mar","properties":{"access":"unknown","bicycle_pa":"stands","capacity":10,"covered":"no","fee":"","operator":"","nameSource":"junction"},"sourceId":"osm"},{"id":"osm:node:10726468528","latitude":41.8528325,"longitude":3.1184503,"name":"Avinguda de Catalunya near Carrer del Mar","properties":{"access":"unknown","bicycle_pa":"stands","capacity":10,"covered":"no","fee":"","operator":"","nameSource":"junction"},"sourceId":"osm"},{"id":"osm:node:11771262788","latitude":41.8630343,"longitude":3.1553891,"name":"GR 92 cycle parking","properties":{"access":"yes","bicycle_pa":"stands","capacity":0,"covered":"no","fee":"no","operator":"","nameSource":"street"},"sourceId":"osm"},{"id":"osm:node:11771348772","latitude":41.8628783,"longitude":3.1572618,"name":"Cap de Castell cycle parking","properties":{"access":"unknown","bicycle_pa":"stands","capacity":0,"covered":"no","fee":"","operator":"","nameSource":"place"},"sourceId":"osm"},{"id":"osm:node:12138743848","latitude":41.8467251,"longitude":3.1314893,"name":"Carrer del Pedró near Carrer del Convent dels Agustins","properties":{"access":"yes","bicycle_pa":"stands","capacity":4,"covered":"no","fee":"no","operator":"","nameSource":"junction"},"sourceId":"osm"},{"id":"osm:node:12138743850","latitude":41.8489228,"longitude":3.1191062,"name":"Passeig del Mar near Carrer del Rosselló","properties":{"access":"yes","bicycle_pa":"stands","capacity":12,"covered":"no","fee":"no","operator":"","nameSource":"junction"},"sourceId":"osm"},{"id":"osm:node:12138743856","latitude":41.8415536,"longitude":3.1289532,"name":"Carrer de l'Ametlla de Mar near Punta del Molí","properties":{"access":"yes","bicycle_pa":"stands","capacity":8,"covered":"no","fee":"no","operator":"","nameSource":"junction"},"sourceId":"osm"},{"id":"osm:node:12861192819","latitude":41.8589282,"longitude":3.1443551,"name":"Carrer del Rec near Carretera Fosca","properties":{"access":"unknown","bicycle_pa":"stands","capacity":4,"covered":"no","fee":"","operator":"","nameSource":"junction"},"sourceId":"osm"},{"id":"osm:node:12973181260","latitude":41.8586332,"longitude":3.1441785,"name":"Carrer del Rec near Carretera Fosca","properties":{"access":"yes","bicycle_pa":"","capacity":10,"covered":"no","fee":"no","operator":"","nameSource":"junction"},"sourceId":"osm"},{"id":"osm:node:13200496548","latitude":41.8471365,"longitude":3.1277741,"name":"Avinguda de l'Onze de Setembre near Carrer del Perill","properties":{"access":"yes","bicycle_pa":"stands","capacity":10,"covered":"no","fee":"no","operator":"","nameSource":"junction"},"sourceId":"osm"},{"id":"osm:node:13200496549","latitude":41.8488787,"longitude":3.1287034,"name":"Avinguda de l'Onze de Setembre near Carrer de Santa Bàrbara","properties":{"access":"yes","bicycle_pa":"stands","capacity":8,"covered":"no","fee":"no","operator":"","nameSource":"junction"},"sourceId":"osm"},{"id":"osm:node:13200496551","latitude":41.8472133,"longitude":3.1278563,"name":"Avinguda de l'Onze de Setembre near Carrer del Perill","properties":{"access":"yes","bicycle_pa":"stands","capacity":20,"covered":"no","fee":"no","operator":"","nameSource":"junction"},"sourceId":"osm"},{"id":"osm:node:13644722358","latitude":41.8576022,"longitude":3.1429584,"name":"Carrer de la Roca Negra by Sansibar","properties":{"access":"unknown","bicycle_pa":"stands","capacity":5,"covered":"no","fee":"","operator":"","nameSource":"landmark"},"sourceId":"osm"},{"id":"osm:node:13646998897","latitude":41.8590377,"longitude":3.1456796,"name":"Camí de Ronda by Maroni Beach","properties":{"access":"yes","bicycle_pa":"stands","capacity":13,"covered":"no","fee":"no","operator":"","nameSource":"landmark"},"sourceId":"osm"},{"id":"osm:node:6321688952","latitude":41.8474064,"longitude":3.1262561,"name":"Carrer del Carmel near Passeig del Mar","properties":{"access":"unknown","bicycle_pa":"stands","capacity":3,"covered":"no","fee":"","operator":"","nameSource":"junction"},"sourceId":"osm"},{"id":"osm:node:6321688953","latitude":41.8474214,"longitude":3.1262155,"name":"Carrer del Carmel near Passeig del Mar","properties":{"access":"unknown","bicycle_pa":"stands","capacity":2,"covered":"no","fee":"","operator":"","nameSource":"junction"},"sourceId":"osm"},{"id":"osm:node:6442295186","latitude":41.8602537,"longitude":3.1500807,"name":"Camí de Ronda cycle parking","properties":{"access":"unknown","bicycle_pa":"anchors","capacity":0,"covered":"","fee":"","operator":"","nameSource":"street"},"sourceId":"osm"},{"id":"osm:node:9919371076","latitude":41.84842,"longitude":3.1122638,"name":"Passeig Josep Mundet near Carrer de l'Aubi","properties":{"access":"yes","bicycle_pa":"wall_loops","capacity":6,"covered":"no","fee":"no","operator":"","nameSource":"junction"},"sourceId":"osm"}],"schemaVersion":2}
