{"key":"12/2052/1360","points":[{"id":"osm:node:12324075051","latitude":51.5680602,"longitude":0.4236805,"name":"Station Approach near Hatterill","properties":{"access":"unknown","bicycle_pa":"","capacity":0,"covered":"","fee":"","operator":"","nameSource":"junction"},"sourceId":"osm"},{"id":"osm:node:12324075057","latitude":51.5680852,"longitude":0.4236878,"name":"Station Approach near Hatterill","properties":{"access":"unknown","bicycle_pa":"","capacity":0,"covered":"","fee":"","operator":"","nameSource":"junction"},"sourceId":"osm"},{"id":"osm:node:6592378363","latitude":51.5676985,"longitude":0.4243594,"name":"Station Approach near Hatterill","properties":{"access":"unknown","bicycle_pa":"stands","capacity":0,"covered":"yes","fee":"","operator":"","nameSource":"junction"},"sourceId":"osm"},{"id":"osm:node:9264162642","latitude":51.5834404,"longitude":0.3530684,"name":"The Pavillion Cafe cycle parking","properties":{"access":"yes","bicycle_pa":"stands","capacity":8,"covered":"no","fee":"","operator":"","nameSource":"landmark"},"sourceId":"osm"},{"id":"osm:way:1228495321","latitude":51.57948694,"longitude":0.4047244,"name":"Special Surfaces Test Track cycle parking","properties":{"access":"unknown","bicycle_pa":"","capacity":0,"covered":"","fee":"","operator":"","nameSource":"street"},"sourceId":"osm"},{"id":"osm:way:1228495325","latitude":51.58304384,"longitude":0.40327952,"name":"High Speed Test Track cycle parking","properties":{"access":"unknown","bicycle_pa":"","capacity":0,"covered":"","fee":"","operator":"","nameSource":"street"},"sourceId":"osm"},{"id":"osm:way:1237378997","latitude":51.580925560000004,"longitude":0.40967123999999994,"name":"Steeple View cycle parking","properties":{"access":"private","bicycle_pa":"rack","capacity":0,"covered":"","fee":"","operator":"","nameSource":"place"},"sourceId":"osm"}],"schemaVersion":2}
