{"key":"12/2052/1374","points":[{"id":"osm:node:11817359778","latitude":50.8449467,"longitude":0.4375716,"name":"Hillborough Close by Little Common School","properties":{"access":"private","bicycle_pa":"anchors","capacity":0,"covered":"","fee":"","operator":"Little Common Primary School","nameSource":"landmark"},"sourceId":"osm"},{"id":"osm:node:4411370459","latitude":50.8438746,"longitude":0.4341947,"name":"Eastway near Cooden Sea Road","properties":{"access":"private","bicycle_pa":"stands","capacity":4,"covered":"yes","fee":"","operator":"","nameSource":"junction"},"sourceId":"osm"},{"id":"osm:node:4411370471","latitude":50.843961,"longitude":0.434186,"name":"Shepherds Close near Church Hill Avenue","properties":{"access":"private","bicycle_pa":"stands","capacity":4,"covered":"yes","fee":"","operator":"","nameSource":"junction"},"sourceId":"osm"},{"id":"osm:node:4411370480","latitude":50.8440217,"longitude":0.4337135,"name":"Cooden Sea Road near Meads Road","properties":{"access":"customers","bicycle_pa":"wall_loops","capacity":8,"covered":"no","fee":"","operator":"Tesco","nameSource":"junction"},"sourceId":"osm"},{"id":"osm:node:6396356385","latitude":50.8328998,"longitude":0.4266429,"name":"Herbrand Walk cycle parking","properties":{"access":"yes","bicycle_pa":"wall_loops","capacity":3,"covered":"no","fee":"","operator":"The Relais Cooden Beach","nameSource":"street"},"sourceId":"osm"}],"schemaVersion":2}
