{"key":"12/2011/1275","points":[{"id":"cec:1028","latitude":55.9780404684206,"longitude":-3.17685231924911,"name":"Commercial Quay cycle parking","properties":{"FID":1028,"eastings":326659,"northings":676743,"bicycle_pa":"stands","capacity":10,"covered":"yes","access":"private","fee":" ","operator":" ","CECLand":" ","nameSource":"street"},"sourceId":"cec"},{"id":"cec:106","latitude":55.9760907113754,"longitude":-3.17307545425714,"name":"Sandport Way near Sandport Place","properties":{"FID":106,"eastings":326891,"northings":676522,"bicycle_pa":"stands","capacity":6,"covered":"no","access":" ","fee":" ","operator":" ","CECLand":" ","nameSource":"junction"},"sourceId":"cec"},{"id":"cec:1066","latitude":55.9765803552753,"longitude":-3.17260953730774,"name":"Sandport Street near Sandport Way","properties":{"FID":1066,"eastings":326921,"northings":676576,"bicycle_pa":"stands","capacity":10,"covered":"yes","access":"yes","fee":" ","operator":" ","CECLand":" ","nameSource":"junction"},"sourceId":"cec"},{"id":"cec:1079","latitude":55.9821636281128,"longitude":-3.17508637528,"name":"Whisky Quay cycle parking","properties":{"FID":1079,"eastings":326777,"northings":677200,"bicycle_pa":"stands","capacity":6,"covered":"yes","access":" ","fee":" ","operator":" ","CECLand":" ","nameSource":"street"},"sourceId":"cec"},{"id":"cec:1080","latitude":55.9823772274956,"longitude":-3.17530120535036,"name":"Whisky Quay cycle parking","properties":{"FID":1080,"eastings":326764,"northings":677224,"bicycle_pa":"stands","capacity":6,"covered":"yes","access":" ","fee":" ","operator":" ","CECLand":" ","nameSource":"street"},"sourceId":"cec"},{"id":"cec:1081","latitude":55.9824821161523,"longitude":-3.17560890234134,"name":"Whisky Quay by Port of Leith Distillery Bar","properties":{"FID":1081,"eastings":326745,"northings":677236,"bicycle_pa":"stands","capacity":6,"covered":"yes","access":" ","fee":" ","operator":" ","CECLand":" ","nameSource":"landmark"},"sourceId":"cec"},{"id":"cec:1095","latitude":55.9758449615202,"longitude":-3.16867737082461,"name":"Carpet Lane near Bernard Street","properties":{"FID":1095,"eastings":327165,"northings":676490,"bicycle_pa":"stands","capacity":2,"covered":"no","access":" ","fee":" ","operator":" ","CECLand":"Y","nameSource":"junction"},"sourceId":"cec"},{"id":"cec:1096","latitude":55.9755978673838,"longitude":-3.16915064563742,"name":"Carpet Lane near Chapel Lane","properties":{"FID":1096,"eastings":327135,"northings":676463,"bicycle_pa":"wall_loops","capacity":6,"covered":" ","access":"customers","fee":" ","operator":" ","CECLand":" ","nameSource":"junction"},"sourceId":"cec"},{"id":"cec:1224","latitude":55.9747699896796,"longitude":-3.25072019235043,"name":"Granton Mill Park near Granton Mill Road","properties":{"FID":1224,"eastings":322043,"northings":676460,"bicycle_pa":"stands","capacity":6,"covered":"no","access":" ","fee":" ","operator":" ","CECLand":" ","nameSource":"junction"},"sourceId":"cec"},{"id":"cec:1250","latitude":55.9815292134943,"longitude":-3.17471454750977,"name":"Whisky Quay cycle parking","properties":{"FID":1250,"eastings":326799,"northings":677129,"bicycle_pa":"lockers","capacity":12,"covered":" ","access":"private","fee":" ","operator":" ","CECLand":" ","nameSource":"street"},"sourceId":"cec"},{"id":"cec:1256","latitude":55.9771781313873,"longitude":-3.24627880971155,"name":"Granton Mains Avenue by Edinburgh College - Granton Campus","properties":{"FID":1256,"eastings":322325,"northings":676723,"bicycle_pa":"stands","capacity":15,"covered":"yes","access":"customers","fee":"no","operator":" ","CECLand":" ","nameSource":"landmark"},"sourceId":"cec"},{"id":"cec:1268","latitude":55.9813647128029,"longitude":-3.23652480456583,"name":"Saltire Square near Upper Strand Walk","properties":{"FID":1268,"eastings":322942,"northings":677178,"bicycle_pa":"stands","capacity":14,"covered":" ","access":" ","fee":" ","operator":" ","CECLand":"Y","nameSource":"junction"},"sourceId":"cec"},{"id":"cec:1269","latitude":55.9787312711722,"longitude":-3.24285114298575,"name":"Waterfront Avenue near Waterfront Broadway","properties":{"FID":1269,"eastings":322542,"northings":676892,"bicycle_pa":"stands","capacity":16,"covered":"no","access":"yes","fee":" ","operator":" ","CECLand":" ","nameSource":"junction"},"sourceId":"cec"},{"id":"cec:1271","latitude":55.9750347114876,"longitude":-3.17168146129684,"name":"Shore near Henderson Gardens","properties":{"FID":1271,"eastings":326976,"northings":676403,"bicycle_pa":"stands","capacity":3,"covered":"no","access":"yes","fee":"no","operator":" ","CECLand":"Y","nameSource":"junction"},"sourceId":"cec"},{"id":"cec:1286","latitude":55.978960878984,"longitude":-3.18675199429729,"name":"North Fort Street near Lindsay Road","properties":{"FID":1286,"eastings":326043,"northings":676856,"bicycle_pa":"stands","capacity":6,"covered":"no","access":" ","fee":" ","operator":" ","CECLand":"Y","nameSource":"junction"},"sourceId":"cec"},{"id":"cec:1287","latitude":55.9805412657401,"longitude":-3.23262003479862,"name":"Madelvic Square near Granton Park Avenue North","properties":{"FID":1287,"eastings":323184,"northings":677082,"bicycle_pa":"stands","capacity":4,"covered":"no","access":"yes","fee":" ","operator":" ","CECLand":" ","nameSource":"junction"},"sourceId":"cec"},{"id":"cec:1296","latitude":55.9750090200871,"longitude":-3.1658639716414,"name":"Assembly Street near Cadiz Street","properties":{"FID":1296,"eastings":327339,"northings":676394,"bicycle_pa":"stands","capacity":6,"covered":"no","access":"yes","fee":"no","operator":" ","CECLand":" ","nameSource":"junction"},"sourceId":"cec"},{"id":"cec:1300","latitude":55.9759508524605,"longitude":-3.1764363256747,"name":"Coburg Street near Couper Street","properties":{"FID":1300,"eastings":326681,"northings":676510,"bicycle_pa":"stands","capacity":10,"covered":"no","access":"yes","fee":"no","operator":" ","CECLand":" ","nameSource":"junction"},"sourceId":"cec"},{"id":"cec:1301","latitude":55.9759977539092,"longitude":-3.17622943316744,"name":"East Cromwell Street near Coburg Street","properties":{"FID":1301,"eastings":326694,"northings":676515,"bicycle_pa":"stands","capacity":8,"covered":"no","access":"yes","fee":"no","operator":" ","CECLand":" ","nameSource":"junction"},"sourceId":"cec"},{"id":"cec:1302","latitude":55.975961272639,"longitude":-3.1744015542413,"name":"Coburg Wharf near Coburg Street","properties":{"FID":1302,"eastings":326808,"northings":676509,"bicycle_pa":"stands","capacity":8,"covered":"no","access":"yes","fee":"no","operator":" ","CECLand":" ","nameSource":"junction"},"sourceId":"cec"},{"id":"cec:1308","latitude":55.9802097514286,"longitude":-3.2061976037124,"name":"Trinity Crescent near McKelvie Parade","properties":{"FID":1308,"eastings":324832,"northings":677016,"bicycle_pa":"stands","capacity":6,"covered":"no","access":"yes","fee":"no","operator":" ","CECLand":"Y","nameSource":"junction"},"sourceId":"cec"},{"id":"cec:1309","latitude":55.9802999964155,"longitude":-3.19786677825135,"name":"A901 near Craighall Road","properties":{"FID":1309,"eastings":325352,"northings":677017,"bicycle_pa":"stands","capacity":8,"covered":"no","access":"yes","fee":"no","operator":" ","CECLand":"Y","nameSource":"junction"},"sourceId":"cec"},{"id":"cec:1313","latitude":55.9811735553897,"longitude":-3.23228755854584,"name":"Granton Park Avenue North near Kingsburgh Crescent","properties":{"FID":1313,"eastings":323206,"northings":677152,"bicycle_pa":"stands","capacity":8,"covered":"no","access":" ","fee":" ","operator":" ","CECLand":" ","nameSource":"junction"},"sourceId":"cec"},{"id":"cec:1322","latitude":55.978564227866,"longitude":-3.24159576066021,"name":"Granton Station Square cycle parking","properties":{"FID":1322,"eastings":322620,"northings":676872,"bicycle_pa":"stands","capacity":10,"covered":" ","access":" ","fee":" ","operator":" ","CECLand":" ","nameSource":"street"},"sourceId":"cec"},{"id":"cec:1334","latitude":55.9810451952246,"longitude":-3.19514936950099,"name":"Pier Place near Wester Close","properties":{"FID":1334,"eastings":325523,"northings":677097,"bicycle_pa":"stands","capacity":8,"covered":"no","access":"yes","fee":"no","operator":" ","CECLand":" ","nameSource":"junction"},"sourceId":"cec"},{"id":"cec:1336","latitude":55.9796967175758,"longitude":-3.18778413938815,"name":"Hawthornvale near Lindsay Road","properties":{"FID":1336,"eastings":325980,"northings":676939,"bicycle_pa":"stands","capacity":3,"covered":"no","access":"yes","fee":"no","operator":" ","CECLand":"Y","nameSource":"junction"},"sourceId":"cec"},{"id":"cec:1350","latitude":55.9752974933526,"longitude":-3.17050362746595,"name":"Burgess Street near Shore","properties":{"FID":1350,"eastings":327050,"northings":676431,"bicycle_pa":"wide_stands","capacity":1,"covered":"no","access":" ","fee":"no","operator":" ","CECLand":"Y","nameSource":"junction"},"sourceId":"cec"},{"id":"cec:1351","latitude":55.9752886626759,"longitude":-3.1704873367934,"name":"Burgess Street near Shore","properties":{"FID":1351,"eastings":327051,"northings":676430,"bicycle_pa":"stands","capacity":2,"covered":"no","access":" ","fee":"no","operator":" ","CECLand":"Y","nameSource":"junction"},"sourceId":"cec"},{"id":"cec:1356","latitude":55.9753611530029,"longitude":-3.17984757346367,"name":"Ferry Road near Coburg Street","properties":{"FID":1356,"eastings":326467,"northings":676448,"bicycle_pa":"stands","capacity":4,"covered":" ","access":" ","fee":" ","operator":" ","CECLand":"Y","nameSource":"junction"},"sourceId":"cec"},{"id":"cec:1366","latitude":55.9749107648329,"longitude":-3.17337624326865,"name":"Sheriff Brae near Coalhill","properties":{"FID":1366,"eastings":326870,"northings":676391,"bicycle_pa":"streetpod","capacity":6,"covered":"yes","access":" ","fee":" ","operator":" ","CECLand":"Y","nameSource":"junction"},"sourceId":"cec"},{"id":"cec:1367","latitude":55.9749113748109,"longitude":-3.17331216630509,"name":"Coalhill near Parliament Street","properties":{"FID":1367,"eastings":326874,"northings":676391,"bicycle_pa":"streetpod","capacity":6,"covered":"yes","access":" ","fee":" ","operator":" ","CECLand":"Y","nameSource":"junction"},"sourceId":"cec"},{"id":"cec:1369","latitude":55.9800002870985,"longitude":-3.17862663215254,"name":"Ocean Drive by HMV","properties":{"FID":1369,"eastings":326552,"northings":676963,"bicycle_pa":"stands","capacity":10,"covered":"no","access":"yes","fee":"no","operator":" ","CECLand":" ","nameSource":"landmark"},"sourceId":"cec"},{"id":"cec:1416","latitude":55.9814527667365,"longitude":-3.2367039140529,"name":"Saltire Square near Upper Strand Walk","properties":{"FID":1416,"eastings":322931,"northings":677188,"bicycle_pa":"shed","capacity":0,"covered":" ","access":"private","fee":" ","operator":" ","CECLand":" ","nameSource":"junction"},"sourceId":"cec"},{"id":"cec:148","latitude":55.9773852109023,"longitude":-3.24623739643569,"name":"Granton Mains Avenue by Edinburgh College - Granton Campus","properties":{"FID":148,"eastings":322328,"northings":676746,"bicycle_pa":"stands","capacity":160,"covered":"no","access":" ","fee":" ","operator":" ","CECLand":" ","nameSource":"landmark"},"sourceId":"cec"},{"id":"cec:163","latitude":55.9803307125652,"longitude":-3.17789947883372,"name":"Ocean Drive by Ocean Terminal","properties":{"FID":163,"eastings":326598,"northings":676999,"bicycle_pa":"stands","capacity":40,"covered":"no","access":" ","fee":" ","operator":" ","CECLand":" ","nameSource":"landmark"},"sourceId":"cec"},{"id":"cec:227","latitude":55.9778092538558,"longitude":-3.24339848101074,"name":"Waterfront Broadway by West Granton Dental Care","properties":{"FID":227,"eastings":322506,"northings":676790,"bicycle_pa":"stands","capacity":16,"covered":"no","access":"yes","fee":" ","operator":" ","CECLand":" ","nameSource":"landmark"},"sourceId":"cec"},{"id":"cec:259","latitude":55.9833893489361,"longitude":-3.24159016689039,"name":"West Shore Road by Lazeez","properties":{"FID":259,"eastings":322630,"northings":677409,"bicycle_pa":"stands","capacity":4,"covered":"no","access":" ","fee":" ","operator":" ","CECLand":" ","nameSource":"landmark"},"sourceId":"cec"},{"id":"cec:264","latitude":55.9834261843229,"longitude":-3.24239274727211,"name":"West Shore Road by Longshot Coffee","properties":{"FID":264,"eastings":322580,"northings":677414,"bicycle_pa":"stands","capacity":4,"covered":" ","access":" ","fee":" ","operator":" ","CECLand":" ","nameSource":"landmark"},"sourceId":"cec"},{"id":"cec:265","latitude":55.9836659609578,"longitude":-3.24623115382402,"name":"West Granton cycle parking","properties":{"FID":265,"eastings":322341,"northings":677445,"bicycle_pa":"stands","capacity":4,"covered":" ","access":" ","fee":" ","operator":" ","CECLand":" ","nameSource":"place"},"sourceId":"cec"},{"id":"cec:266","latitude":55.9836771526079,"longitude":-3.2504469073492,"name":"West Granton cycle parking","properties":{"FID":266,"eastings":322078,"northings":677451,"bicycle_pa":"stands","capacity":4,"covered":"no","access":" ","fee":" ","operator":" ","CECLand":" ","nameSource":"place"},"sourceId":"cec"},{"id":"cec:267","latitude":55.9837360447816,"longitude":-3.24907038875475,"name":"West Granton cycle parking","properties":{"FID":267,"eastings":322164,"northings":677456,"bicycle_pa":"stands","capacity":4,"covered":" ","access":" ","fee":" ","operator":" ","CECLand":" ","nameSource":"place"},"sourceId":"cec"},{"id":"cec:278","latitude":55.9811936431521,"longitude":-3.17504093185443,"name":"Ocean Drive cycle parking","properties":{"FID":278,"eastings":326778,"northings":677092,"bicycle_pa":"building","capacity":20,"covered":"yes","access":"private","fee":" ","operator":" ","CECLand":" ","nameSource":"street"},"sourceId":"cec"},{"id":"cec:279","latitude":55.9812356534866,"longitude":-3.17534671092007,"name":"Ocean Drive cycle parking","properties":{"FID":279,"eastings":326759,"northings":677097,"bicycle_pa":"building","capacity":4,"covered":"yes","access":"private","fee":" ","operator":" ","CECLand":" ","nameSource":"street"},"sourceId":"cec"},{"id":"cec:405","latitude":55.9811217498993,"longitude":-3.19002339960213,"name":"Melrose Drive near Fairbairn Place","properties":{"FID":405,"eastings":325843,"northings":677100,"bicycle_pa":"stands","capacity":24,"covered":"no","access":" ","fee":" ","operator":" ","CECLand":" ","nameSource":"junction"},"sourceId":"cec"},{"id":"cec:420","latitude":55.9773362811763,"longitude":-3.17248818433832,"name":"Commercial Quay near Dock Place","properties":{"FID":420,"eastings":326930,"northings":676660,"bicycle_pa":"stands","capacity":29,"covered":"no","access":"permissive","fee":" ","operator":" ","CECLand":" ","nameSource":"junction"},"sourceId":"cec"},{"id":"cec:421","latitude":55.9789493448267,"longitude":-3.21103028179914,"name":"Netherby Road near Boswall Road","properties":{"FID":421,"eastings":324528,"northings":676881,"bicycle_pa":"stands","capacity":6,"covered":"no","access":" ","fee":" ","operator":" ","CECLand":" ","nameSource":"junction"},"sourceId":"cec"},{"id":"cec:447","latitude":55.9744205179011,"longitude":-3.16917923030879,"name":"Maritime Street near Queen Charlotte Street","properties":{"FID":447,"eastings":327131,"northings":676332,"bicycle_pa":"stands","capacity":0,"covered":" ","access":" ","fee":" ","operator":" ","CECLand":" ","nameSource":"junction"},"sourceId":"cec"},{"id":"cec:458","latitude":55.9760442834751,"longitude":-3.17228885622568,"name":"Sandport Way near Sandport Street","properties":{"FID":458,"eastings":326940,"northings":676516,"bicycle_pa":"shed","capacity":0,"covered":" ","access":"private","fee":" ","operator":" ","CECLand":" ","nameSource":"junction"},"sourceId":"cec"},{"id":"cec:459","latitude":55.9760710794734,"longitude":-3.17230569104578,"name":"Sandport Way near Sandport Street","properties":{"FID":459,"eastings":326939,"northings":676519,"bicycle_pa":"shed","capacity":0,"covered":" ","access":"private","fee":" ","operator":" ","CECLand":" ","nameSource":"junction"},"sourceId":"cec"},{"id":"cec:460","latitude":55.9760887402982,"longitude":-3.17233827394253,"name":"Sandport Street near Sandport Way","properties":{"FID":460,"eastings":326937,"northings":676521,"bicycle_pa":"shed","capacity":0,"covered":" ","access":"private","fee":" ","operator":" ","CECLand":" ","nameSource":"junction"},"sourceId":"cec"},{"id":"cec:461","latitude":55.9761065534975,"longitude":-3.17235483711045,"name":"Sandport Street near Sandport Way","properties":{"FID":461,"eastings":326936,"northings":676523,"bicycle_pa":"shed","capacity":0,"covered":"no","access":"private","fee":" ","operator":" ","CECLand":" ","nameSource":"junction"},"sourceId":"cec"},{"id":"cec:462","latitude":55.9761331970978,"longitude":-3.1723876917777,"name":"Sandport Street near Sandport Way","properties":{"FID":462,"eastings":326934,"northings":676526,"bicycle_pa":"shed","capacity":0,"covered":"no","access":"private","fee":" ","operator":" ","CECLand":" ","nameSource":"junction"},"sourceId":"cec"},{"id":"cec:468","latitude":55.9764425253024,"longitude":-3.17481675055364,"name":"Coburg Street near Coburg Wharf","properties":{"FID":468,"eastings":326783,"northings":676563,"bicycle_pa":"stands","capacity":0,"covered":" ","access":" ","fee":" ","operator":" ","CECLand":" ","nameSource":"junction"},"sourceId":"cec"},{"id":"cec:617","latitude":55.9775568872645,"longitude":-3.1729115081448,"name":"Commercial Quay cycle parking","properties":{"FID":617,"eastings":326904,"northings":676685,"bicycle_pa":"stands","capacity":6,"covered":"yes","access":"private","fee":" ","operator":" ","CECLand":" ","nameSource":"street"},"sourceId":"cec"},{"id":"cec:618","latitude":55.977483967919,"longitude":-3.17207600327279,"name":"Dock Place near Rennie's Lock","properties":{"FID":618,"eastings":326956,"northings":676676,"bicycle_pa":"stands","capacity":6,"covered":"no","access":"private","fee":" ","operator":" ","CECLand":" ","nameSource":"junction"},"sourceId":"cec"},{"id":"cec:67","latitude":55.9779926208296,"longitude":-3.17338942578137,"name":"Victoria Quay cycle parking","properties":{"FID":67,"eastings":326875,"northings":676734,"bicycle_pa":" ","capacity":14,"covered":" ","access":" ","fee":" ","operator":" ","CECLand":" ","nameSource":"street"},"sourceId":"cec"},{"id":"cec:684","latitude":55.9825219694892,"longitude":-3.22591940152962,"name":"Oxcraig Street by Go Outdoors","properties":{"FID":684,"eastings":323606,"northings":677295,"bicycle_pa":"wall_loops","capacity":10,"covered":" ","access":" ","fee":" ","operator":" ","CECLand":" ","nameSource":"landmark"},"sourceId":"cec"},{"id":"cec:689","latitude":55.981628008512,"longitude":-3.18877287907591,"name":"Sandpiper Drive by Asda Opticians","properties":{"FID":689,"eastings":325922,"northings":677155,"bicycle_pa":"stands","capacity":12,"covered":"yes","access":" ","fee":" ","operator":" ","CECLand":" ","nameSource":"landmark"},"sourceId":"cec"},{"id":"cec:799","latitude":55.9755527906993,"longitude":-3.18047835023543,"name":"Ferry Road near Largo Place","properties":{"FID":799,"eastings":326428,"northings":676470,"bicycle_pa":"stands","capacity":4,"covered":" ","access":" ","fee":" ","operator":" ","CECLand":" ","nameSource":"junction"},"sourceId":"cec"},{"id":"cec:81","latitude":55.9754475167146,"longitude":-3.17927333543897,"name":"Ferry Road near Coburg Street","properties":{"FID":81,"eastings":326503,"northings":676457,"bicycle_pa":"stands","capacity":4,"covered":"no","access":" ","fee":" ","operator":" ","CECLand":"Y","nameSource":"junction"},"sourceId":"cec"},{"id":"cec:82","latitude":55.9781313202487,"longitude":-3.17768839153819,"name":"Commercial Quay cycle parking","properties":{"FID":82,"eastings":326607,"northings":676754,"bicycle_pa":"stands","capacity":10,"covered":"yes","access":"private","fee":" ","operator":" ","CECLand":" ","nameSource":"street"},"sourceId":"cec"},{"id":"cec:83","latitude":55.9779044708463,"longitude":-3.17321048022523,"name":"Victoria Quay cycle parking","properties":{"FID":83,"eastings":326886,"northings":676724,"bicycle_pa":" ","capacity":24,"covered":" ","access":" ","fee":" ","operator":" ","CECLand":" ","nameSource":"street"},"sourceId":"cec"},{"id":"cec:84","latitude":55.9779461814421,"longitude":-3.17354827134,"name":"Victoria Quay cycle parking","properties":{"FID":84,"eastings":326865,"northings":676729,"bicycle_pa":" ","capacity":24,"covered":" ","access":" ","fee":" ","operator":" ","CECLand":" ","nameSource":"street"},"sourceId":"cec"},{"id":"cec:85","latitude":55.9780833437643,"longitude":-3.17424150947457,"name":"Victoria Quay cycle parking","properties":{"FID":85,"eastings":326822,"northings":676745,"bicycle_pa":" ","capacity":24,"covered":" ","access":" ","fee":" ","operator":" ","CECLand":" ","nameSource":"street"},"sourceId":"cec"},{"id":"cec:86","latitude":55.9781638833861,"longitude":-3.17427600039782,"name":"Victoria Quay cycle parking","properties":{"FID":86,"eastings":326820,"northings":676754,"bicycle_pa":" ","capacity":12,"covered":" ","access":" ","fee":" ","operator":" ","CECLand":" ","nameSource":"street"},"sourceId":"cec"},{"id":"cec:87","latitude":55.978189152336,"longitude":-3.17445304405404,"name":"Victoria Quay cycle parking","properties":{"FID":87,"eastings":326809,"northings":676757,"bicycle_pa":" ","capacity":14,"covered":" ","access":" ","fee":" ","operator":" ","CECLand":" ","nameSource":"street"},"sourceId":"cec"},{"id":"cec:88","latitude":55.978134339611,"longitude":-3.17454753435716,"name":"Victoria Quay cycle parking","properties":{"FID":88,"eastings":326803,"northings":676751,"bicycle_pa":" ","capacity":24,"covered":" ","access":" ","fee":" ","operator":" ","CECLand":" ","nameSource":"street"},"sourceId":"cec"},{"id":"cec:900","latitude":55.9842905894602,"longitude":-3.19404746256242,"name":"Western Harbour Place cycle parking","properties":{"FID":900,"eastings":325598,"northings":677457,"bicycle_pa":"stands","capacity":40,"covered":"no","access":" ","fee":" ","operator":" ","CECLand":" ","nameSource":"street"},"sourceId":"cec"},{"id":"cec:918","latitude":55.9798241113634,"longitude":-3.22072156988442,"name":"Granton Terrace near Granton View","properties":{"FID":918,"eastings":323925,"northings":676989,"bicycle_pa":"stands","capacity":4,"covered":"no","access":" ","fee":" ","operator":" ","CECLand":"Y","nameSource":"junction"},"sourceId":"cec"},{"id":"cec:971","latitude":55.980817433235,"longitude":-3.19176087545481,"name":"Lindsay Road near Newhaven Place","properties":{"FID":971,"eastings":325734,"northings":677068,"bicycle_pa":"stands","capacity":2,"covered":"no","access":" ","fee":" ","operator":" ","CECLand":"Y","nameSource":"junction"},"sourceId":"cec"},{"id":"cec:972","latitude":55.9784708036277,"longitude":-3.19098359412238,"name":"Hawthornvale near Jessfield Terrace","properties":{"FID":972,"eastings":325778,"northings":676806,"bicycle_pa":"stands","capacity":6,"covered":"no","access":" ","fee":" ","operator":" ","CECLand":" ","nameSource":"junction"},"sourceId":"cec"},{"id":"cec:977","latitude":55.9810771186001,"longitude":-3.22393440554247,"name":"Lower Granton Road near West Harbour Road","properties":{"FID":977,"eastings":323727,"northings":677132,"bicycle_pa":"stands","capacity":4,"covered":"no","access":"yes","fee":"no","operator":" ","CECLand":"Y","nameSource":"junction"},"sourceId":"cec"},{"id":"cec:978","latitude":55.9799943115638,"longitude":-3.21805049661886,"name":"Lower Granton Road near Wardie Square","properties":{"FID":978,"eastings":324092,"northings":677005,"bicycle_pa":"stands","capacity":8,"covered":"no","access":"yes","fee":"no","operator":" ","CECLand":" ","nameSource":"junction"},"sourceId":"cec"},{"id":"osm:node:11951784579","latitude":55.9755787,"longitude":-3.1774609,"name":"Water of Leith Path by Coalie Park","properties":{"access":"unknown","bicycle_pa":"stands","capacity":3,"covered":"no","fee":"","operator":"","nameSource":"landmark"},"sourceId":"osm"},{"id":"osm:node:12052827577","latitude":55.9796932,"longitude":-3.1777726,"name":"Geissler Drive by Jan Liu","properties":{"access":"unknown","bicycle_pa":"stands","capacity":6,"covered":"no","fee":"","operator":"","nameSource":"landmark"},"sourceId":"osm"},{"id":"osm:node:12091804965","latitude":55.9763301,"longitude":-3.1679755,"name":"Timber Bush near Bernard Street","properties":{"access":"unknown","bicycle_pa":"stands","capacity":2,"covered":"","fee":"no","operator":"","nameSource":"junction"},"sourceId":"osm"},{"id":"osm:node:12351040898","latitude":55.9750858,"longitude":-3.2383476,"name":"Boswall Parkway near Crewe Road North","properties":{"access":"yes","bicycle_pa":"stands","capacity":6,"covered":"no","fee":"no","operator":"","nameSource":"junction"},"sourceId":"osm"},{"id":"osm:node:12351040899","latitude":55.9746688,"longitude":-3.238462,"name":"Crewe Road North near Boswall Parkway","properties":{"access":"yes","bicycle_pa":"stands","capacity":6,"covered":"no","fee":"no","operator":"","nameSource":"junction"},"sourceId":"osm"},{"id":"osm:node:12505454483","latitude":55.9802117,"longitude":-3.244333,"name":"Caroline Park Avenue by Gasholder 1","properties":{"access":"unknown","bicycle_pa":"stands","capacity":6,"covered":"no","fee":"","operator":"","nameSource":"landmark"},"sourceId":"osm"},{"id":"osm:node:12505454484","latitude":55.980286,"longitude":-3.2449083,"name":"Gasholder 1 cycle parking","properties":{"access":"unknown","bicycle_pa":"stands","capacity":6,"covered":"no","fee":"","operator":"","nameSource":"landmark"},"sourceId":"osm"},{"id":"osm:node:12505454485","latitude":55.9806522,"longitude":-3.2450223,"name":"Gasholder 1 cycle parking","properties":{"access":"unknown","bicycle_pa":"stands","capacity":6,"covered":"no","fee":"","operator":"","nameSource":"landmark"},"sourceId":"osm"},{"id":"osm:node:12505454486","latitude":55.9808292,"longitude":-3.244451,"name":"Gasholder 1 cycle parking","properties":{"access":"unknown","bicycle_pa":"stands","capacity":6,"covered":"no","fee":"","operator":"","nameSource":"landmark"},"sourceId":"osm"},{"id":"osm:node:12505454487","latitude":55.9807047,"longitude":-3.2440688,"name":"Caroline Park Avenue by Gasholder 1","properties":{"access":"unknown","bicycle_pa":"stands","capacity":6,"covered":"no","fee":"","operator":"","nameSource":"landmark"},"sourceId":"osm"},{"id":"osm:node:12505454499","latitude":55.9803835,"longitude":-3.2438877,"name":"Caroline Park Avenue near Waterfront Broadway","properties":{"access":"unknown","bicycle_pa":"stands","capacity":10,"covered":"no","fee":"","operator":"","nameSource":"junction"},"sourceId":"osm"},{"id":"osm:node:12945283050","latitude":55.9829629,"longitude":-3.2411605,"name":"West Shore Road cycle parking","properties":{"access":"yes","bicycle_pa":"wide_stands","capacity":6,"covered":"no","fee":"no","operator":"","nameSource":"street"},"sourceId":"osm"},{"id":"osm:node:12945291803","latitude":55.9833749,"longitude":-3.2430376,"name":"Speirs Bruce Way by The Pitt","properties":{"access":"yes","bicycle_pa":"stands","capacity":0,"covered":"no","fee":"no","operator":"","nameSource":"landmark"},"sourceId":"osm"},{"id":"osm:node:13355909043","latitude":55.9787491,"longitude":-3.1905746,"name":"Hawthornvale near Jessfield Terrace","properties":{"access":"customers","bicycle_pa":"stands","capacity":12,"covered":"yes","fee":"yes","operator":"Cyclehoop","nameSource":"junction"},"sourceId":"osm"},{"id":"osm:node:13375676792","latitude":55.9755035,"longitude":-3.1684258,"name":"Carpet Lane near Seaport Street","properties":{"access":"customers","bicycle_pa":"stands","capacity":12,"covered":"yes","fee":"yes","operator":"Grease Monkey Infrastructure","nameSource":"junction"},"sourceId":"osm"},{"id":"osm:node:13514067263","latitude":55.9750229,"longitude":-3.1723827,"name":"Coalhill near Parliament Street","properties":{"access":"yes","bicycle_pa":"stands","capacity":4,"covered":"no","fee":"no","operator":"","nameSource":"junction"},"sourceId":"osm"},{"id":"osm:node:13625663784","latitude":55.9835122,"longitude":-3.1914854,"name":"Windrush Drive cycle parking","properties":{"access":"unknown","bicycle_pa":"stands","capacity":2,"covered":"","fee":"","operator":"","nameSource":"street"},"sourceId":"osm"},{"id":"osm:node:13625663785","latitude":55.9835528,"longitude":-3.1916302,"name":"Windrush Drive cycle parking","properties":{"access":"unknown","bicycle_pa":"stands","capacity":6,"covered":"","fee":"","operator":"","nameSource":"street"},"sourceId":"osm"},{"id":"osm:node:13647769733","latitude":55.9789377,"longitude":-3.240492,"name":"Granton Station Square near Waterfront Avenue","properties":{"access":"yes","bicycle_pa":"stands","capacity":8,"covered":"no","fee":"","operator":"","nameSource":"junction"},"sourceId":"osm"},{"id":"osm:node:13669646493","latitude":55.9741975,"longitude":-3.1726653,"name":"Parliament Street near Henderson Gardens","properties":{"access":"unknown","bicycle_pa":"stands","capacity":8,"covered":"no","fee":"","operator":"","nameSource":"junction"},"sourceId":"osm"},{"id":"osm:node:13709814049","latitude":55.9767224,"longitude":-3.1722501,"name":"Commercial Street near Dock Place","properties":{"access":"yes","bicycle_pa":"stands","capacity":8,"covered":"no","fee":"no","operator":"","nameSource":"junction"},"sourceId":"osm"},{"id":"osm:node:13709821765","latitude":55.9771289,"longitude":-3.1751963,"name":"Commercial Street near Dock Street","properties":{"access":"unknown","bicycle_pa":"stands","capacity":0,"covered":"no","fee":"no","operator":"","nameSource":"junction"},"sourceId":"osm"},{"id":"osm:node:13723042025","latitude":55.9816645,"longitude":-3.2428313,"name":"Speirs Bruce Way cycle parking","properties":{"access":"yes","bicycle_pa":"stands","capacity":8,"covered":"no","fee":"no","operator":"","nameSource":"street"},"sourceId":"osm"},{"id":"osm:node:13793822491","latitude":55.9785489,"longitude":-3.1909141,"name":"Hawthornvale near Jessfield Terrace","properties":{"access":"yes","bicycle_pa":"wall_loops","capacity":5,"covered":"no","fee":"no","operator":"","nameSource":"junction"},"sourceId":"osm"},{"id":"osm:node:13808209367","latitude":55.9791512,"longitude":-3.240926,"name":"Waterfront Avenue near Granton Station Square","properties":{"access":"unknown","bicycle_pa":"stands","capacity":8,"covered":"no","fee":"","operator":"","nameSource":"junction"},"sourceId":"osm"},{"id":"osm:node:13912635534","latitude":55.9755202,"longitude":-3.1722878,"name":"Ronaldson's Wharf near Sandport Place","properties":{"access":"unknown","bicycle_pa":"stands","capacity":2,"covered":"no","fee":"","operator":"","nameSource":"junction"},"sourceId":"osm"},{"id":"osm:node:13919580447","latitude":55.9794512,"longitude":-3.2125713,"name":"Boswall Road by Studio 15","properties":{"access":"permissive","bicycle_pa":"stands","capacity":6,"covered":"no","fee":"no","operator":"","nameSource":"landmark"},"sourceId":"osm"},{"id":"osm:node:1707008744","latitude":55.9833527,"longitude":-3.2420672,"name":"West Shore Road by Longshot Coffee","properties":{"access":"unknown","bicycle_pa":"stands","capacity":4,"covered":"no","fee":"","operator":"","nameSource":"landmark"},"sourceId":"osm"},{"id":"osm:node:7992829509","latitude":55.9748809,"longitude":-3.1858746,"name":"Dudley Avenue near Dudley Avenue South","properties":{"access":"customers","bicycle_pa":"stands","capacity":12,"covered":"yes","fee":"yes","operator":"Cyclehoop","nameSource":"junction"},"sourceId":"osm"},{"id":"osm:node:7992900795","latitude":55.9770216,"longitude":-3.1974683,"name":"Craighall Crescent near Craighall Road","properties":{"access":"customers","bicycle_pa":"stands","capacity":6,"covered":"yes","fee":"yes","operator":"Cyclehoop","nameSource":"junction"},"sourceId":"osm"},{"id":"osm:node:8118549897","latitude":55.9811847,"longitude":-3.1759934,"name":"Ocean Drive by Porta Pups Dog Creche","properties":{"access":"unknown","bicycle_pa":"stands","capacity":26,"covered":"no","fee":"","operator":"","nameSource":"landmark"},"sourceId":"osm"},{"id":"osm:node:8118549899","latitude":55.9828505,"longitude":-3.1755061,"name":"Whisky Quay by Port of Leith Distillery Bar","properties":{"access":"yes","bicycle_pa":"stands","capacity":14,"covered":"no","fee":"","operator":"","nameSource":"landmark"},"sourceId":"osm"}],"schemaVersion":1}
