{"key":"12/2011/1282","points":[{"id":"osm:node:10944124606","latitude":55.6523323,"longitude":-3.1897819,"name":"Bridgegate near Deans Wynd","properties":{"access":"unknown","bicycle_pa":"wall_loops","capacity":3,"covered":"no","fee":"","operator":"","nameSource":"junction"},"sourceId":"osm"},{"id":"osm:node:9197477957","latitude":55.6513961,"longitude":-3.1913208,"name":"High Street near A72","properties":{"access":"yes","bicycle_pa":"stands","capacity":6,"covered":"no","fee":"no","operator":"","nameSource":"junction"},"sourceId":"osm"},{"id":"osm:node:9197523010","latitude":55.651954,"longitude":-3.1892756,"name":"High Street near Eastgate","properties":{"access":"yes","bicycle_pa":"stands","capacity":4,"covered":"no","fee":"","operator":"","nameSource":"junction"},"sourceId":"osm"},{"id":"osm:way:772191189","latitude":55.64562446,"longitude":-3.1895725999999995,"name":"Bonnington Road near Kingsmuir Hall","properties":{"access":"unknown","bicycle_pa":"shed","capacity":0,"covered":"yes","fee":"no","operator":"","nameSource":"junction"},"sourceId":"osm"},{"id":"osm:way:934336647","latitude":55.657068779999996,"longitude":-3.1959691599999998,"name":"George Place near George Terrace","properties":{"access":"unknown","bicycle_pa":"","capacity":0,"covered":"","fee":"","operator":"","nameSource":"junction"},"sourceId":"osm"}],"schemaVersion":1}
