{"key":"12/2016/1339","points":[{"categories":["repair"],"id":"osm:node:12976418083","latitude":52.7094097,"longitude":-2.7941105,"name":"Bicycle repair station","properties":{"fee":"no","openingHours":"24/7"},"sourceId":"osm"},{"categories":["shop"],"id":"osm:node:8488632938","latitude":52.7043533,"longitude":-2.7462307,"name":"Velo Fit","properties":{"website":"https://velofit.co.uk/"},"sourceId":"osm"},{"categories":["shop","repair"],"id":"osm:relation:7600526","latitude":52.70592669999999,"longitude":-2.749209326315789,"name":"Trek","properties":{"brand":"Trek","openingHours":"Mo-Sa 09:00-18:00; Su 11:00-16:00","serviceRepair":"yes","website":"https://trekbikes.com/shrewsbury"},"sourceId":"osm"},{"categories":["repair"],"id":"osm:way:1037132362","latitude":52.70912545833334,"longitude":-2.7517396416666666,"name":"Oath Coffee","properties":{"serviceRepair":"yes","website":"https://oathcoffee.co.uk/"},"sourceId":"osm"},{"categories":["shop"],"id":"osm:way:366855310","latitude":52.723910260000004,"longitude":-2.73885588,"name":"Cyclelife - Shrewsbury Cycles","properties":{"website":"https://shrewsburycycles.co.uk/"},"sourceId":"osm"},{"categories":["shop"],"id":"osm:way:846410462","latitude":52.711149266666666,"longitude":-2.760758144444444,"name":"Dave Mellor Cycles","properties":{"openingHours":"Mo-Fr 09:00-17:00; Sa 09:00-13:00","website":"https://www.davemellorcycles.com/"},"sourceId":"osm"},{"categories":["shop","repair"],"id":"osm:way:860435713","latitude":52.71120102857144,"longitude":-2.760046457142857,"name":"The Trailhead Bicycle Company","properties":{"serviceRepair":"yes","website":"https://www.thetrailhead.co.uk/"},"sourceId":"osm"}],"schemaVersion":2}
