{"key":"12/2004/1275","points":[{"id":"osm:node:10962547251","latitude":56.0052472,"longitude":-3.8203252,"name":"Glasgow Road near Redbrae Road","properties":{"access":"customers","bicycle_pa":"stands","capacity":10,"covered":"yes","fee":"","operator":"","nameSource":"junction"},"sourceId":"osm"},{"id":"osm:node:10962547271","latitude":56.0056254,"longitude":-3.821271,"name":"Glasgow Road cycle parking","properties":{"access":"customers","bicycle_pa":"stands","capacity":8,"covered":"yes","fee":"no","operator":"Tesco","nameSource":"street"},"sourceId":"osm"},{"id":"osm:node:12151973398","latitude":56.0066267,"longitude":-3.839841,"name":"Millennium Wheel Drive near Three Bridges","properties":{"access":"yes","bicycle_pa":"stands","capacity":10,"covered":"partial","fee":"","operator":"Falkirk Council","nameSource":"junction"},"sourceId":"osm"},{"id":"osm:node:12465461031","latitude":56.0051263,"longitude":-3.8177205,"name":"Glasgow Road by Mariner Centre","properties":{"access":"unknown","bicycle_pa":"stands","capacity":20,"covered":"yes","fee":"","operator":"","nameSource":"landmark"},"sourceId":"osm"},{"id":"osm:node:12512566931","latitude":56.0030037,"longitude":-3.8299825,"name":"Mariner Street near Mariner Drive","properties":{"access":"unknown","bicycle_pa":"stands","capacity":6,"covered":"no","fee":"","operator":"","nameSource":"junction"},"sourceId":"osm"},{"id":"osm:node:12531987373","latitude":56.0024552,"longitude":-3.817212,"name":"Carmuirs Street near Roman Drive","properties":{"access":"customers","bicycle_pa":"stands","capacity":10,"covered":"no","fee":"no","operator":"","nameSource":"junction"},"sourceId":"osm"},{"id":"osm:node:12609290390","latitude":56.0228339,"longitude":-3.8097346,"name":"Carrongrange Avenue by Larbert High School","properties":{"access":"unknown","bicycle_pa":"wall_loops","capacity":9,"covered":"no","fee":"","operator":"","nameSource":"landmark"},"sourceId":"osm"},{"id":"osm:node:12612842515","latitude":56.0046365,"longitude":-3.817215,"name":"Glasgow Road near Main Street","properties":{"access":"yes","bicycle_pa":"stands","capacity":8,"covered":"yes","fee":"no","operator":"","nameSource":"junction"},"sourceId":"osm"},{"id":"osm:node:12647918415","latitude":56.0005723,"longitude":-3.7866344,"name":"Lint Riggs near Upper Newmarket Street","properties":{"access":"yes","bicycle_pa":"stands","capacity":8,"covered":"no","fee":"no","operator":"","nameSource":"junction"},"sourceId":"osm"},{"id":"osm:node:12647976448","latitude":56.0005102,"longitude":-3.786781,"name":"Lint Riggs near Upper Newmarket Street","properties":{"access":"yes","bicycle_pa":"stands","capacity":4,"covered":"no","fee":"no","operator":"","nameSource":"junction"},"sourceId":"osm"},{"id":"osm:node:12724327128","latitude":55.9955559,"longitude":-3.8326242,"name":"Union Canal Towpath near Lime Road","properties":{"access":"yes","bicycle_pa":"wall_loops","capacity":2,"covered":"no","fee":"no","operator":"","nameSource":"junction"},"sourceId":"osm"},{"id":"osm:node:12724358680","latitude":55.9937667,"longitude":-3.8132466,"name":"Union Canal Towpath cycle parking","properties":{"access":"yes","bicycle_pa":"wall_loops","capacity":2,"covered":"no","fee":"no","operator":"","nameSource":"street"},"sourceId":"osm"},{"id":"osm:node:13048942492","latitude":56.0064726,"longitude":-3.7938917,"name":"Forth and Clyde Canal Towpath cycle parking","properties":{"access":"customers","bicycle_pa":"stands","capacity":20,"covered":"no","fee":"","operator":"","nameSource":"street"},"sourceId":"osm"},{"id":"osm:node:13308274820","latitude":56.0023257,"longitude":-3.785716,"name":"Garrison Place near Glebe Street","properties":{"access":"unknown","bicycle_pa":"stands","capacity":8,"covered":"no","fee":"no","operator":"","nameSource":"junction"},"sourceId":"osm"},{"id":"osm:node:13380544008","latitude":55.9919993,"longitude":-3.7928406,"name":"High Station Road by Falkirk High","properties":{"access":"unknown","bicycle_pa":"stands","capacity":12,"covered":"yes","fee":"no","operator":"","nameSource":"landmark"},"sourceId":"osm"},{"id":"osm:node:13380544009","latitude":55.9921415,"longitude":-3.7927608,"name":"High Station Road near High Station Court","properties":{"access":"unknown","bicycle_pa":"two-tier","capacity":24,"covered":"yes","fee":"no","operator":"","nameSource":"junction"},"sourceId":"osm"},{"id":"osm:node:13413340791","latitude":56.0004864,"longitude":-3.7863551,"name":"Upper Newmarket Street near Lint Riggs","properties":{"access":"unknown","bicycle_pa":"stands","capacity":4,"covered":"no","fee":"","operator":"","nameSource":"junction"},"sourceId":"osm"},{"id":"osm:node:13721796108","latitude":55.9981287,"longitude":-3.807663,"name":"Westburn Avenue cycle parking","properties":{"access":"customers","bicycle_pa":"stands","capacity":20,"covered":"yes","fee":"","operator":"","nameSource":"street"},"sourceId":"osm"},{"id":"osm:node:13764697320","latitude":56.0163029,"longitude":-3.7933882,"name":"Ronades Road near Muirhead Avenue","properties":{"access":"unknown","bicycle_pa":"stands","capacity":4,"covered":"no","fee":"","operator":"","nameSource":"junction"},"sourceId":"osm"},{"id":"osm:node:1438594145","latitude":56.0003371,"longitude":-3.7865764,"name":"Lint Riggs near Upper Newmarket Street","properties":{"access":"yes","bicycle_pa":"stands","capacity":10,"covered":"no","fee":"no","operator":"","nameSource":"junction"},"sourceId":"osm"},{"id":"osm:node:1438608171","latitude":55.9985545,"longitude":-3.7833306,"name":"Barnton Lane near Cow Wynd","properties":{"access":"unknown","bicycle_pa":"stands","capacity":4,"covered":"no","fee":"","operator":"","nameSource":"junction"},"sourceId":"osm"},{"id":"osm:node:1438608175","latitude":55.9985604,"longitude":-3.7832696,"name":"Barnton Lane near Cow Wynd","properties":{"access":"unknown","bicycle_pa":"stands","capacity":4,"covered":"no","fee":"","operator":"","nameSource":"junction"},"sourceId":"osm"},{"id":"osm:node:1620167668","latitude":56.0060742,"longitude":-3.8174693,"name":"Redbrae Road cycle parking","properties":{"access":"unknown","bicycle_pa":"stands","capacity":8,"covered":"no","fee":"","operator":"","nameSource":"street"},"sourceId":"osm"},{"id":"osm:node:1620184919","latitude":55.9918607,"longitude":-3.792371,"name":"High Station Road near High Station Court","properties":{"access":"yes","bicycle_pa":"stands","capacity":6,"covered":"yes","fee":"no","operator":"","nameSource":"junction"},"sourceId":"osm"},{"id":"osm:node:2012217659","latitude":56.0223098,"longitude":-3.8294406,"name":"Main Street near South Broomage Avenue","properties":{"access":"yes","bicycle_pa":"two-tier","capacity":36,"covered":"yes","fee":"no","operator":"ScotRail","nameSource":"junction"},"sourceId":"osm"},{"id":"osm:node:2012220288","latitude":56.0229239,"longitude":-3.8097558,"name":"Carrongrange Avenue by Larbert High School","properties":{"access":"unknown","bicycle_pa":"stands","capacity":18,"covered":"yes","fee":"","operator":"","nameSource":"landmark"},"sourceId":"osm"},{"id":"osm:node:2012649599","latitude":56.0221786,"longitude":-3.8300343,"name":"Foundry Loan near Main Street","properties":{"access":"yes","bicycle_pa":"two-tier","capacity":26,"covered":"yes","fee":"no","operator":"Scotrail","nameSource":"junction"},"sourceId":"osm"},{"id":"osm:node:2074775488","latitude":56.0006922,"longitude":-3.84088,"name":"Forth and Clyde Canal Towpath by Falkirk Wheel Cafe","properties":{"access":"yes","bicycle_pa":"stands","capacity":20,"covered":"no","fee":"no","operator":"","nameSource":"landmark"},"sourceId":"osm"},{"id":"osm:node:2074775498","latitude":56.0029258,"longitude":-3.8410071,"name":"Millennium Wheel Drive cycle parking","properties":{"access":"unknown","bicycle_pa":"anchors","capacity":20,"covered":"no","fee":"","operator":"","nameSource":"street"},"sourceId":"osm"},{"id":"osm:node:2752810534","latitude":55.9985025,"longitude":-3.7804931,"name":"Callendar Riggs near High Street","properties":{"access":"unknown","bicycle_pa":"stands","capacity":10,"covered":"no","fee":"","operator":"","nameSource":"junction"},"sourceId":"osm"},{"id":"osm:node:3676968565","latitude":55.992439,"longitude":-3.7944814,"name":"Drossie Road near Glenochil Road","properties":{"access":"yes","bicycle_pa":"stands","capacity":6,"covered":"no","fee":"no","operator":"","nameSource":"junction"},"sourceId":"osm"},{"id":"osm:node:4456948301","latitude":55.995047,"longitude":-3.7856718,"name":"High Station Road near Pleasance Road","properties":{"access":"unknown","bicycle_pa":"","capacity":0,"covered":"","fee":"no","operator":"","nameSource":"junction"},"sourceId":"osm"},{"id":"osm:node:5991333062","latitude":55.9916436,"longitude":-3.7946891,"name":"McKell Court cycle parking","properties":{"access":"yes","bicycle_pa":"two-tier","capacity":24,"covered":"yes","fee":"no","operator":"ScotRail","nameSource":"street"},"sourceId":"osm"},{"id":"osm:node:6321981687","latitude":56.0000276,"longitude":-3.7872738,"name":"High Street near Lint Riggs","properties":{"access":"yes","bicycle_pa":"stands","capacity":8,"covered":"no","fee":"no","operator":"","nameSource":"junction"},"sourceId":"osm"},{"id":"osm:node:6754468896","latitude":56.017584,"longitude":-3.7815823,"name":"David's Loan by Community Surplus Foodshare","properties":{"access":"unknown","bicycle_pa":"","capacity":0,"covered":"","fee":"","operator":"","nameSource":"landmark"},"sourceId":"osm"},{"id":"osm:node:7996965185","latitude":56.0009769,"longitude":-3.8410245,"name":"Forth and Clyde Canal Towpath cycle parking","properties":{"access":"yes","bicycle_pa":"stands","capacity":8,"covered":"yes","fee":"","operator":"","nameSource":"street"},"sourceId":"osm"},{"id":"osm:way:1480404879","latitude":56.002457019999994,"longitude":-3.78538222,"name":"Meeks Road by Falkirk Grahamston","properties":{"access":"yes","bicycle_pa":"two-tier","capacity":24,"covered":"yes","fee":"no","operator":"","nameSource":"landmark"},"sourceId":"osm"}],"schemaVersion":1}
