{"key":"12/2004/1280","points":[{"id":"osm:node:4420845603","latitude":55.7338157,"longitude":-3.8372204,"name":"Hamilton Street near Cassells Lane","properties":{"access":"unknown","bicycle_pa":"stands","capacity":4,"covered":"no","fee":"","operator":"","nameSource":"junction"},"sourceId":"osm"},{"id":"osm:node:4420845604","latitude":55.7349063,"longitude":-3.8400957,"name":"Market Place Road near Clyde Street","properties":{"access":"unknown","bicycle_pa":"stands","capacity":4,"covered":"no","fee":"","operator":"","nameSource":"junction"},"sourceId":"osm"},{"id":"osm:node:4423628935","latitude":55.7308712,"longitude":-3.8486913,"name":"Station Road by Carluke","properties":{"access":"unknown","bicycle_pa":"stands","capacity":10,"covered":"yes","fee":"","operator":"","nameSource":"landmark"},"sourceId":"osm"},{"id":"osm:node:4423634379","latitude":55.7289816,"longitude":-3.8377107,"name":"Shieldhill Court by Tesco","properties":{"access":"unknown","bicycle_pa":"stands","capacity":10,"covered":"yes","fee":"","operator":"","nameSource":"landmark"},"sourceId":"osm"},{"id":"osm:node:4425376695","latitude":55.7401536,"longitude":-3.8321588,"name":"Belstane Mews near Belstane Road","properties":{"access":"private","bicycle_pa":"stands","capacity":10,"covered":"yes","fee":"","operator":"","nameSource":"junction"},"sourceId":"osm"},{"id":"osm:node:4425376696","latitude":55.7403452,"longitude":-3.832141,"name":"Belstane Road near Belstane Mews","properties":{"access":"private","bicycle_pa":"stands","capacity":10,"covered":"no","fee":"","operator":"","nameSource":"junction"},"sourceId":"osm"},{"id":"osm:node:4471802755","latitude":55.7312654,"longitude":-3.8487538,"name":"Station Road by Carluke","properties":{"access":"unknown","bicycle_pa":"stands","capacity":10,"covered":"no","fee":"","operator":"","nameSource":"landmark"},"sourceId":"osm"},{"id":"osm:node:5275748003","latitude":55.7330822,"longitude":-3.8354139,"name":"John Street near A721","properties":{"access":"unknown","bicycle_pa":"stands","capacity":16,"covered":"no","fee":"","operator":"","nameSource":"junction"},"sourceId":"osm"},{"id":"osm:node:5569244841","latitude":55.7351157,"longitude":-3.8400782,"name":"Mount Stewart Street near Stewart Street","properties":{"access":"unknown","bicycle_pa":"stands","capacity":8,"covered":"yes","fee":"","operator":"","nameSource":"junction"},"sourceId":"osm"}],"schemaVersion":1}
