{"key":"12/2035/1303","points":[{"id":"osm:node:10118995362","latitude":54.6204261,"longitude":-1.0767718,"name":"Majuba Road by Tuned In!","properties":{"access":"unknown","bicycle_pa":"stands","capacity":0,"covered":"","fee":"no","operator":"","nameSource":"landmark"},"sourceId":"osm"},{"id":"osm:node:10585448529","latitude":54.5866322,"longitude":-1.0809332,"name":"Plantation Road by Kirkleatham Walled Garden Tea Rooms","properties":{"access":"customers","bicycle_pa":"stands","capacity":10,"covered":"no","fee":"no","operator":"","nameSource":"landmark"},"sourceId":"osm"},{"id":"osm:node:10585448561","latitude":54.5865914,"longitude":-1.0851261,"name":"Kirkleatham Lane near Sir William Turners Court","properties":{"access":"unknown","bicycle_pa":"stands","capacity":4,"covered":"no","fee":"no","operator":"","nameSource":"junction"},"sourceId":"osm"},{"id":"osm:node:10585448562","latitude":54.5866614,"longitude":-1.085735,"name":"Kirkleatham Lane by Kirkleatham Museum","properties":{"access":"unknown","bicycle_pa":"wall_loops","capacity":6,"covered":"no","fee":"no","operator":"","nameSource":"landmark"},"sourceId":"osm"},{"id":"osm:node:10585448563","latitude":54.5866847,"longitude":-1.0857712,"name":"Kirkleatham Lane by Kirkleatham Museum","properties":{"access":"unknown","bicycle_pa":"stands","capacity":14,"covered":"no","fee":"no","operator":"","nameSource":"landmark"},"sourceId":"osm"},{"id":"osm:node:11177943363","latitude":54.617161,"longitude":-1.0665887,"name":"Regent Walk near Wilton Street","properties":{"access":"yes","bicycle_pa":"stands","capacity":20,"covered":"","fee":"no","operator":"","nameSource":"junction"},"sourceId":"osm"},{"id":"osm:node:1381078300","latitude":54.6157563,"longitude":-1.0685687,"name":"West Dyke Road near Birdsall Row","properties":{"access":"permit","bicycle_pa":"lockers","capacity":6,"covered":"","fee":"","operator":"","nameSource":"junction"},"sourceId":"osm"},{"id":"osm:node:3752169201","latitude":54.6179122,"longitude":-1.0640262,"name":"High Street near High Street East","properties":{"access":"unknown","bicycle_pa":"stands","capacity":12,"covered":"no","fee":"","operator":"","nameSource":"junction"},"sourceId":"osm"},{"id":"osm:node:8477431914","latitude":54.620042,"longitude":-1.0684547,"name":"Newcomen Terrace near Esplanade","properties":{"access":"unknown","bicycle_pa":"stands","capacity":12,"covered":"no","fee":"","operator":"","nameSource":"junction"},"sourceId":"osm"},{"id":"osm:node:8477431915","latitude":54.6198855,"longitude":-1.0680483,"name":"Esplanade near Newcomen Terrace","properties":{"access":"unknown","bicycle_pa":"stands","capacity":12,"covered":"no","fee":"","operator":"","nameSource":"junction"},"sourceId":"osm"},{"id":"osm:node:9454418225","latitude":54.6031591,"longitude":-1.0768977,"name":"Roseberry Road near Mersey Road","properties":{"access":"unknown","bicycle_pa":"stands","capacity":4,"covered":"no","fee":"","operator":"","nameSource":"junction"},"sourceId":"osm"},{"id":"osm:way:1093080014","latitude":54.62017184,"longitude":-1.07672082,"name":"Majuba Road by Tuned In!","properties":{"access":"unknown","bicycle_pa":"stands","capacity":20,"covered":"","fee":"no","operator":"","nameSource":"landmark"},"sourceId":"osm"}],"schemaVersion":2}
