{"key":"12/2035/1305","points":[{"id":"osm:node:12192353128","latitude":54.4861011,"longitude":-1.1177494,"name":"Fletchers' Farm Coffee Shop cycle parking","properties":{"access":"customers","bicycle_pa":"wall_loops","capacity":10,"covered":"no","fee":"","operator":"","nameSource":"landmark"},"sourceId":"osm"},{"id":"osm:node:1560676048","latitude":54.4883344,"longitude":-1.1339099,"name":"High Green near High Street","properties":{"access":"unknown","bicycle_pa":"stands","capacity":4,"covered":"no","fee":"","operator":"","nameSource":"junction"},"sourceId":"osm"},{"id":"osm:node:1560676059","latitude":54.4885078,"longitude":-1.1318018,"name":"High Street near Newton Road","properties":{"access":"unknown","bicycle_pa":"stands","capacity":4,"covered":"","fee":"","operator":"","nameSource":"junction"},"sourceId":"osm"},{"id":"osm:node:1560676072","latitude":54.4886813,"longitude":-1.1323054,"name":"High Street near Park Rise","properties":{"access":"unknown","bicycle_pa":"stands","capacity":4,"covered":"","fee":"","operator":"","nameSource":"junction"},"sourceId":"osm"},{"id":"osm:node:1560676107","latitude":54.4895867,"longitude":-1.1155236,"name":"Station Road by Amazon Locker","properties":{"access":"unknown","bicycle_pa":"lockers","capacity":2,"covered":"yes","fee":"","operator":"","nameSource":"landmark"},"sourceId":"osm"}],"schemaVersion":2}
