{"key":"12/2035/1315","points":[{"id":"osm:node:10107461243","latitude":53.9691107,"longitude":-1.0807545,"name":"Clarence Gardens by Clarence Gardens","properties":{"access":"yes","bicycle_pa":"stands","capacity":6,"covered":"no","fee":"","operator":"","nameSource":"landmark"},"sourceId":"osm"},{"id":"osm:node:10207846789","latitude":53.9732911,"longitude":-1.1052657,"name":"Shipton Road near Galtres Grove","properties":{"access":"customers","bicycle_pa":"stands","capacity":20,"covered":"yes","fee":"","operator":"","nameSource":"junction"},"sourceId":"osm"},{"id":"osm:node:10231584486","latitude":53.9638169,"longitude":-1.1032837,"name":"Jubilee Terrace near Regents Court","properties":{"access":"customers","bicycle_pa":"stands","capacity":8,"covered":"no","fee":"","operator":"","nameSource":"junction"},"sourceId":"osm"},{"id":"osm:node:10563857831","latitude":53.9923639,"longitude":-1.1042206,"name":"Ring Road by Greggs","properties":{"access":"yes","bicycle_pa":"stands","capacity":6,"covered":"no","fee":"","operator":"","nameSource":"landmark"},"sourceId":"osm"},{"id":"osm:node:10658056997","latitude":53.9917148,"longitude":-1.1060263,"name":"Clifton Moor Gate by Burger King","properties":{"access":"yes","bicycle_pa":"stands","capacity":12,"covered":"no","fee":"no","operator":"","nameSource":"landmark"},"sourceId":"osm"},{"id":"osm:node:10815534957","latitude":53.9615302,"longitude":-1.0807749,"name":"Deangate near Minster Yard","properties":{"access":"yes","bicycle_pa":"stands","capacity":32,"covered":"no","fee":"","operator":"","nameSource":"junction"},"sourceId":"osm"},{"id":"osm:node:11036116504","latitude":53.9879015,"longitude":-1.1034333,"name":"Aviator Court cycle parking","properties":{"access":"private","bicycle_pa":"stands","capacity":20,"covered":"yes","fee":"","operator":"","nameSource":"street"},"sourceId":"osm"},{"id":"osm:node:11209139621","latitude":53.9902816,"longitude":-1.0971928,"name":"Audax Close cycle parking","properties":{"access":"yes","bicycle_pa":"stands","capacity":28,"covered":"no","fee":"","operator":"","nameSource":"street"},"sourceId":"osm"},{"id":"osm:node:11209206240","latitude":53.981338,"longitude":-1.1314386,"name":"Ring Road by Bannatyne's Health Club","properties":{"access":"customers","bicycle_pa":"stands","capacity":36,"covered":"no","fee":"no","operator":"","nameSource":"landmark"},"sourceId":"osm"},{"id":"osm:node:11209221871","latitude":53.9933424,"longitude":-1.0946807,"name":"Stirling Road cycle parking","properties":{"access":"customers","bicycle_pa":"stands","capacity":24,"covered":"yes","fee":"no","operator":"","nameSource":"street"},"sourceId":"osm"},{"id":"osm:node:11209224544","latitude":53.9634733,"longitude":-1.0735961,"name":"Foss Bank cycle parking","properties":{"access":"unknown","bicycle_pa":"stands","capacity":8,"covered":"yes","fee":"no","operator":"","nameSource":"street"},"sourceId":"osm"},{"id":"osm:node:11211194341","latitude":53.9765471,"longitude":-1.1283862,"name":"Rose Avenue cycle parking","properties":{"access":"unknown","bicycle_pa":"stands","capacity":10,"covered":"no","fee":"","operator":"","nameSource":"street"},"sourceId":"osm"},{"id":"osm:node:11589058265","latitude":53.9747593,"longitude":-1.1358506,"name":"Midfield Way by Manor School","properties":{"access":"unknown","bicycle_pa":"","capacity":0,"covered":"yes","fee":"","operator":"","nameSource":"landmark"},"sourceId":"osm"},{"id":"osm:node:11807238187","latitude":53.9776603,"longitude":-1.1148539,"name":"Fylingdale Avenue near Frazer Court","properties":{"access":"unknown","bicycle_pa":"stands","capacity":10,"covered":"no","fee":"","operator":"","nameSource":"junction"},"sourceId":"osm"},{"id":"osm:node:11807238188","latitude":53.9775517,"longitude":-1.1146835,"name":"Fylingdale Avenue near Frazer Court","properties":{"access":"unknown","bicycle_pa":"stands","capacity":24,"covered":"yes","fee":"","operator":"","nameSource":"junction"},"sourceId":"osm"},{"id":"osm:node:11807238189","latitude":53.9784075,"longitude":-1.1134103,"name":"Blue Beck Drive near Fylingdale Avenue","properties":{"access":"unknown","bicycle_pa":"stands","capacity":12,"covered":"no","fee":"","operator":"","nameSource":"junction"},"sourceId":"osm"},{"id":"osm:node:11809283936","latitude":53.9635006,"longitude":-1.0868621,"name":"Bootham near Photographic Lane","properties":{"access":"yes","bicycle_pa":"wall_loops","capacity":2,"covered":"no","fee":"no","operator":"","nameSource":"junction"},"sourceId":"osm"},{"id":"osm:node:11809784446","latitude":53.9863704,"longitude":-1.1104991,"name":"St Mark's Grove by Bob Eccles Pavillion","properties":{"access":"unknown","bicycle_pa":"stands","capacity":12,"covered":"no","fee":"no","operator":"","nameSource":"landmark"},"sourceId":"osm"},{"id":"osm:node:11809784449","latitude":53.9862546,"longitude":-1.1097117,"name":"Boothwood Road by Bob Eccles Pavillion","properties":{"access":"unknown","bicycle_pa":"stands","capacity":2,"covered":"no","fee":"","operator":"","nameSource":"landmark"},"sourceId":"osm"},{"id":"osm:node:11811925771","latitude":53.9685282,"longitude":-1.0948121,"name":"Clifton near Pulleyn Mews","properties":{"access":"yes","bicycle_pa":"stands","capacity":5,"covered":"yes","fee":"","operator":"","nameSource":"junction"},"sourceId":"osm"},{"id":"osm:node:11811931482","latitude":53.967095,"longitude":-1.0927222,"name":"Burton Stone Lane near Clifton","properties":{"access":"customers","bicycle_pa":"stands","capacity":6,"covered":"no","fee":"","operator":"","nameSource":"junction"},"sourceId":"osm"},{"id":"osm:node:11816489068","latitude":53.9591551,"longitude":-1.0789832,"name":"The Stonebow near Pavement","properties":{"access":"yes","bicycle_pa":"stands","capacity":2,"covered":"no","fee":"","operator":"","nameSource":"junction"},"sourceId":"osm"},{"id":"osm:node:11816500469","latitude":53.95902,"longitude":-1.0793486,"name":"Fossgate near Pavement","properties":{"access":"yes","bicycle_pa":"stands","capacity":8,"covered":"no","fee":"","operator":"","nameSource":"junction"},"sourceId":"osm"},{"id":"osm:node:11822439099","latitude":53.9596085,"longitude":-1.0817941,"name":"Saint Sampson's Square near Church Street","properties":{"access":"unknown","bicycle_pa":"stands","capacity":8,"covered":"no","fee":"","operator":"","nameSource":"junction"},"sourceId":"osm"},{"id":"osm:node:11822485310","latitude":53.9593313,"longitude":-1.0819526,"name":"Parliament Street near St Sampson's Square","properties":{"access":"yes","bicycle_pa":"stands","capacity":8,"covered":"no","fee":"","operator":"","nameSource":"junction"},"sourceId":"osm"},{"id":"osm:node:11822485311","latitude":53.9592551,"longitude":-1.0818956,"name":"Parliament Street near St Sampson's Square","properties":{"access":"yes","bicycle_pa":"stands","capacity":6,"covered":"no","fee":"","operator":"","nameSource":"junction"},"sourceId":"osm"},{"id":"osm:node:11822485312","latitude":53.9592225,"longitude":-1.081844,"name":"Parliament Street near St Sampson's Square","properties":{"access":"yes","bicycle_pa":"stands","capacity":8,"covered":"no","fee":"","operator":"","nameSource":"junction"},"sourceId":"osm"},{"id":"osm:node:11830370717","latitude":53.9709051,"longitude":-1.0973279,"name":"Clifton near Clifton Place","properties":{"access":"customers","bicycle_pa":"wall_loops","capacity":6,"covered":"no","fee":"","operator":"","nameSource":"junction"},"sourceId":"osm"},{"id":"osm:node:11830519744","latitude":53.956817,"longitude":-1.0892762,"name":"Micklegate near Trinity Lane","properties":{"access":"yes","bicycle_pa":"anchors","capacity":2,"covered":"no","fee":"","operator":"","nameSource":"junction"},"sourceId":"osm"},{"id":"osm:node:11841758942","latitude":53.9886468,"longitude":-1.0934112,"name":"Kettlestring Lane near Lysander Close","properties":{"access":"yes","bicycle_pa":"stands","capacity":2,"covered":"no","fee":"","operator":"","nameSource":"junction"},"sourceId":"osm"},{"id":"osm:node:11841772503","latitude":53.986599,"longitude":-1.0975951,"name":"Cayley Court near George Cayley Drive","properties":{"access":"customers","bicycle_pa":"stands","capacity":4,"covered":"no","fee":"","operator":"","nameSource":"junction"},"sourceId":"osm"},{"id":"osm:node:11841782016","latitude":53.9879875,"longitude":-1.0943025,"name":"Auster Road near Kettlestring Lane","properties":{"access":"yes","bicycle_pa":"stands","capacity":20,"covered":"yes","fee":"","operator":"","nameSource":"junction"},"sourceId":"osm"},{"id":"osm:node:11841782017","latitude":53.987728,"longitude":-1.0934314,"name":"Clifton Moor Gate near Kettlestring Lane","properties":{"access":"customers","bicycle_pa":"stands","capacity":6,"covered":"no","fee":"","operator":"","nameSource":"junction"},"sourceId":"osm"},{"id":"osm:node:11847929723","latitude":53.9799173,"longitude":-1.1304528,"name":"Opus Avenue cycle parking","properties":{"access":"customers","bicycle_pa":"stands","capacity":18,"covered":"yes","fee":"","operator":"","nameSource":"street"},"sourceId":"osm"},{"id":"osm:node:11847929724","latitude":53.9794032,"longitude":-1.129671,"name":"Opus Avenue cycle parking","properties":{"access":"customers","bicycle_pa":"stands","capacity":8,"covered":"no","fee":"","operator":"","nameSource":"street"},"sourceId":"osm"},{"id":"osm:node:11847929725","latitude":53.9806049,"longitude":-1.1329294,"name":"White Rose Close by Millfield","properties":{"access":"customers","bicycle_pa":"stands","capacity":10,"covered":"no","fee":"","operator":"","nameSource":"landmark"},"sourceId":"osm"},{"id":"osm:node:11849825060","latitude":53.9907518,"longitude":-1.0974812,"name":"Audax Close by Happy Jays Nursery","properties":{"access":"customers","bicycle_pa":"stands","capacity":26,"covered":"no","fee":"","operator":"","nameSource":"landmark"},"sourceId":"osm"},{"id":"osm:node:11849825061","latitude":53.9901663,"longitude":-1.0975575,"name":"Audax Close by Brandon Hire Station","properties":{"access":"customers","bicycle_pa":"stands","capacity":20,"covered":"yes","fee":"","operator":"","nameSource":"landmark"},"sourceId":"osm"},{"id":"osm:node:11849825062","latitude":53.9906588,"longitude":-1.097073,"name":"Audax Close by Happy Jays Nursery","properties":{"access":"customers","bicycle_pa":"stands","capacity":8,"covered":"yes","fee":"","operator":"","nameSource":"landmark"},"sourceId":"osm"},{"id":"osm:node:11873794309","latitude":53.9630673,"longitude":-1.088265,"name":"Marygate near Galmanhoe Lane","properties":{"access":"yes","bicycle_pa":"anchors","capacity":3,"covered":"no","fee":"","operator":"","nameSource":"junction"},"sourceId":"osm"},{"id":"osm:node:11878686602","latitude":53.9589438,"longitude":-1.0814109,"name":"Parliament Street near Market Street","properties":{"access":"yes","bicycle_pa":"stands","capacity":8,"covered":"no","fee":"","operator":"","nameSource":"junction"},"sourceId":"osm"},{"id":"osm:node:11878686603","latitude":53.9588127,"longitude":-1.0812223,"name":"Parliament Street near Market Street","properties":{"access":"yes","bicycle_pa":"stands","capacity":6,"covered":"no","fee":"","operator":"","nameSource":"junction"},"sourceId":"osm"},{"id":"osm:node:11879347151","latitude":53.9943425,"longitude":-1.0937278,"name":"Stirling Road by BO*AB Hair & Beauty","properties":{"access":"customers","bicycle_pa":"wall_loops","capacity":8,"covered":"no","fee":"","operator":"","nameSource":"landmark"},"sourceId":"osm"},{"id":"osm:node:11881531012","latitude":53.9914255,"longitude":-1.1079295,"name":"Clifton Moor Gate cycle parking","properties":{"access":"customers","bicycle_pa":"stands","capacity":4,"covered":"yes","fee":"","operator":"","nameSource":"street"},"sourceId":"osm"},{"id":"osm:node:11888702843","latitude":53.9845411,"longitude":-1.113267,"name":"Manor Park Close near Howard Drive","properties":{"access":"customers","bicycle_pa":"stands","capacity":4,"covered":"no","fee":"","operator":"","nameSource":"junction"},"sourceId":"osm"},{"id":"osm:node:11891129790","latitude":53.9915896,"longitude":-1.104018,"name":"Tesco cycle parking","properties":{"access":"customers","bicycle_pa":"stands","capacity":18,"covered":"yes","fee":"","operator":"","nameSource":"landmark"},"sourceId":"osm"},{"id":"osm:node:11891129791","latitude":53.9914311,"longitude":-1.1044309,"name":"Tesco Extra cycle parking","properties":{"access":"yes","bicycle_pa":"stands","capacity":12,"covered":"yes","fee":"","operator":"","nameSource":"landmark"},"sourceId":"osm"},{"id":"osm:node:11891129792","latitude":53.9914791,"longitude":-1.1042368,"name":"Tesco cycle parking","properties":{"access":"yes","bicycle_pa":"stands","capacity":6,"covered":"yes","fee":"","operator":"","nameSource":"landmark"},"sourceId":"osm"},{"id":"osm:node:11896512175","latitude":53.9898843,"longitude":-1.1080642,"name":"Hurricane Way by Brewers Decorator Centre","properties":{"access":"customers","bicycle_pa":"stands","capacity":8,"covered":"yes","fee":"","operator":"","nameSource":"landmark"},"sourceId":"osm"},{"id":"osm:node:11904549752","latitude":53.9882335,"longitude":-1.1003483,"name":"Kettlestring Lane cycle parking","properties":{"access":"unknown","bicycle_pa":"stands","capacity":6,"covered":"no","fee":"","operator":"","nameSource":"street"},"sourceId":"osm"},{"id":"osm:node:11904549753","latitude":53.988086,"longitude":-1.1023036,"name":"Amy Johnson Way near Aviator Court","properties":{"access":"customers","bicycle_pa":"stands","capacity":4,"covered":"no","fee":"","operator":"","nameSource":"junction"},"sourceId":"osm"},{"id":"osm:node:11909890854","latitude":53.9638516,"longitude":-1.0770425,"name":"Monkgate near Monkgate Cloisters","properties":{"access":"customers","bicycle_pa":"stands","capacity":4,"covered":"no","fee":"","operator":"","nameSource":"junction"},"sourceId":"osm"},{"id":"osm:node:11909890855","latitude":53.9639391,"longitude":-1.0760739,"name":"Monkgate near Agar Street","properties":{"access":"yes","bicycle_pa":"stands","capacity":4,"covered":"no","fee":"","operator":"","nameSource":"junction"},"sourceId":"osm"},{"id":"osm:node:11909890856","latitude":53.9641003,"longitude":-1.0757269,"name":"Agar Street near Monkgate","properties":{"access":"yes","bicycle_pa":"stands","capacity":4,"covered":"no","fee":"","operator":"","nameSource":"junction"},"sourceId":"osm"},{"id":"osm:node:11909890857","latitude":53.9642449,"longitude":-1.0757412,"name":"Monkgate near Agar Street","properties":{"access":"yes","bicycle_pa":"stands","capacity":4,"covered":"no","fee":"","operator":"","nameSource":"junction"},"sourceId":"osm"},{"id":"osm:node:11909890858","latitude":53.9585884,"longitude":-1.08089,"name":"Parliament Street near High Ousegate","properties":{"access":"yes","bicycle_pa":"stands","capacity":8,"covered":"no","fee":"","operator":"","nameSource":"junction"},"sourceId":"osm"},{"id":"osm:node:11909985771","latitude":53.9637777,"longitude":-1.0766996,"name":"Monkgate near Monkgate Cloisters","properties":{"access":"customers","bicycle_pa":"wall_loops","capacity":10,"covered":"no","fee":"","operator":"","nameSource":"junction"},"sourceId":"osm"},{"id":"osm:node:11926331467","latitude":53.9654981,"longitude":-1.0731095,"name":"Foss Fairy Trail cycle parking","properties":{"access":"yes","bicycle_pa":"stands","capacity":6,"covered":"no","fee":"","operator":"","nameSource":"street"},"sourceId":"osm"},{"id":"osm:node:11930659993","latitude":53.9839402,"longitude":-1.0960104,"name":"Green Lane by Aldi","properties":{"access":"yes","bicycle_pa":"stands","capacity":18,"covered":"yes","fee":"","operator":"","nameSource":"landmark"},"sourceId":"osm"},{"id":"osm:node:11935220715","latitude":53.9669242,"longitude":-1.0845798,"name":"Bootham cycle parking","properties":{"access":"unknown","bicycle_pa":"wall_loops","capacity":3,"covered":"no","fee":"","operator":"","nameSource":"place"},"sourceId":"osm"},{"id":"osm:node:11942904217","latitude":53.9659242,"longitude":-1.1243609,"name":"Boroughbridge Road by Church of the Holy Redeemer","properties":{"access":"customers","bicycle_pa":"stands","capacity":4,"covered":"no","fee":"","operator":"","nameSource":"landmark"},"sourceId":"osm"},{"id":"osm:node:11968570000","latitude":53.992025,"longitude":-1.1005118,"name":"Stirling Road by HSL","properties":{"access":"yes","bicycle_pa":"stands","capacity":8,"covered":"yes","fee":"","operator":"","nameSource":"landmark"},"sourceId":"osm"},{"id":"osm:node:11983468192","latitude":53.9908222,"longitude":-1.1111367,"name":"Ring Road by Home Bargains","properties":{"access":"customers","bicycle_pa":"stands","capacity":8,"covered":"yes","fee":"","operator":"","nameSource":"landmark"},"sourceId":"osm"},{"id":"osm:node:11983468193","latitude":53.9915881,"longitude":-1.109913,"name":"Ring Road by McDonald's","properties":{"access":"yes","bicycle_pa":"stands","capacity":14,"covered":"no","fee":"","operator":"","nameSource":"landmark"},"sourceId":"osm"},{"id":"osm:node:11990896020","latitude":53.9636111,"longitude":-1.0855467,"name":"Bootham Row near Bootham Place","properties":{"access":"yes","bicycle_pa":"stands","capacity":8,"covered":"no","fee":"","operator":"","nameSource":"junction"},"sourceId":"osm"},{"id":"osm:node:11991929846","latitude":53.9602537,"longitude":-1.0775704,"name":"St Saviourgate near Spen Lane","properties":{"access":"customers","bicycle_pa":"stands","capacity":6,"covered":"no","fee":"","operator":"","nameSource":"junction"},"sourceId":"osm"},{"id":"osm:node:11991929849","latitude":53.9618267,"longitude":-1.0827017,"name":"Minster Yard near Minster Gates","properties":{"access":"permissive","bicycle_pa":"informal","capacity":0,"covered":"no","fee":"","operator":"","nameSource":"junction"},"sourceId":"osm"},{"id":"osm:node:11991929850","latitude":53.9608774,"longitude":-1.0752092,"name":"Peasholme Green near Kings Pool","properties":{"access":"yes","bicycle_pa":"wall_loops","capacity":20,"covered":"no","fee":"","operator":"","nameSource":"junction"},"sourceId":"osm"},{"id":"osm:node:12003191243","latitude":53.9619882,"longitude":-1.0774073,"name":"City Walls cycle parking","properties":{"access":"customers","bicycle_pa":"wall_loops","capacity":6,"covered":"no","fee":"","operator":"","nameSource":"street"},"sourceId":"osm"},{"id":"osm:node:12003191248","latitude":53.9723692,"longitude":-1.0875766,"name":"Garth Terrace near Burton Stone Lane","properties":{"access":"yes","bicycle_pa":"stands","capacity":8,"covered":"no","fee":"","operator":"","nameSource":"junction"},"sourceId":"osm"},{"id":"osm:node:12003191249","latitude":53.9598731,"longitude":-1.0764369,"name":"Dundas Street near The Stonebow","properties":{"access":"customers","bicycle_pa":"wall_loops","capacity":5,"covered":"no","fee":"","operator":"","nameSource":"junction"},"sourceId":"osm"},{"id":"osm:node:12007549601","latitude":53.9644319,"longitude":-1.0656008,"name":"Glen Road near Emmerson Street","properties":{"access":"yes","bicycle_pa":"stands","capacity":4,"covered":"no","fee":"","operator":"","nameSource":"junction"},"sourceId":"osm"},{"id":"osm:node:12007549602","latitude":53.9633578,"longitude":-1.0642743,"name":"Poplar Tree Gardens near Sixth Avenue","properties":{"access":"unknown","bicycle_pa":"stands","capacity":4,"covered":"no","fee":"","operator":"","nameSource":"junction"},"sourceId":"osm"},{"id":"osm:node:12010040373","latitude":53.9637897,"longitude":-1.1192033,"name":"Boroughbridge Road near Malvern Avenue","properties":{"access":"yes","bicycle_pa":"","capacity":1,"covered":"no","fee":"","operator":"","nameSource":"junction"},"sourceId":"osm"},{"id":"osm:node:12010040374","latitude":53.9638021,"longitude":-1.1192652,"name":"Boroughbridge Road near Malvern Avenue","properties":{"access":"yes","bicycle_pa":"","capacity":1,"covered":"no","fee":"","operator":"","nameSource":"junction"},"sourceId":"osm"},{"id":"osm:node:12016665544","latitude":53.9577889,"longitude":-1.0893467,"name":"Tanner Row near St Gregory's Mews","properties":{"access":"yes","bicycle_pa":"crossbar","capacity":16,"covered":"yes","fee":"","operator":"","nameSource":"junction"},"sourceId":"osm"},{"id":"osm:node:12016665545","latitude":53.9578432,"longitude":-1.0893222,"name":"Tanner Row near St Gregory's Mews","properties":{"access":"yes","bicycle_pa":"stands","capacity":8,"covered":"no","fee":"","operator":"","nameSource":"junction"},"sourceId":"osm"},{"id":"osm:node:12208679306","latitude":53.9687714,"longitude":-1.1028642,"name":"Government House Road by YHA Cafe","properties":{"access":"customers","bicycle_pa":"wall_loops","capacity":8,"covered":"no","fee":"","operator":"","nameSource":"landmark"},"sourceId":"osm"},{"id":"osm:node:12590122657","latitude":53.9591265,"longitude":-1.0711608,"name":"Foss Islands Road near Navigation Road","properties":{"access":"yes","bicycle_pa":"rack","capacity":6,"covered":"no","fee":"","operator":"","nameSource":"junction"},"sourceId":"osm"},{"id":"osm:node:12590123955","latitude":53.9586279,"longitude":-1.0675112,"name":"Geralds Court near Hazel Court","properties":{"access":"yes","bicycle_pa":"rack","capacity":6,"covered":"yes","fee":"","operator":"","nameSource":"junction"},"sourceId":"osm"},{"id":"osm:node:1270372662","latitude":53.9664961,"longitude":-1.0594738,"name":"Heworth Road near East Parade","properties":{"access":"yes","bicycle_pa":"stands","capacity":8,"covered":"no","fee":"","operator":"","nameSource":"junction"},"sourceId":"osm"},{"id":"osm:node:12709671696","latitude":53.9561475,"longitude":-1.063301,"name":"Bull Lane near Arthur Street","properties":{"access":"customers","bicycle_pa":"stands","capacity":22,"covered":"no","fee":"","operator":"","nameSource":"junction"},"sourceId":"osm"},{"id":"osm:node:1275850226","latitude":53.9647954,"longitude":-1.0638747,"name":"Bull Lane near Sixth Avenue","properties":{"access":"yes","bicycle_pa":"stands","capacity":6,"covered":"no","fee":"","operator":"","nameSource":"junction"},"sourceId":"osm"},{"id":"osm:node:12803976210","latitude":53.9640289,"longitude":-1.1207206,"name":"Boroughbridge Road near Carr Lane","properties":{"access":"customers","bicycle_pa":"wall_loops","capacity":6,"covered":"no","fee":"","operator":"","nameSource":"junction"},"sourceId":"osm"},{"id":"osm:node:12803976211","latitude":53.9672624,"longitude":-1.1286973,"name":"A59 near Boroughbridge Road","properties":{"access":"customers","bicycle_pa":"stands","capacity":4,"covered":"no","fee":"","operator":"","nameSource":"junction"},"sourceId":"osm"},{"id":"osm:node:12869203581","latitude":53.9899109,"longitude":-1.1046566,"name":"Stirling Road by Flying Legends","properties":{"access":"unknown","bicycle_pa":"stands","capacity":8,"covered":"","fee":"","operator":"","nameSource":"landmark"},"sourceId":"osm"},{"id":"osm:node:12895113404","latitude":53.9654673,"longitude":-1.0795834,"name":"Garden Street near Abbot Street","properties":{"access":"unknown","bicycle_pa":"stands","capacity":10,"covered":"yes","fee":"","operator":"","nameSource":"junction"},"sourceId":"osm"},{"id":"osm:node:12895113405","latitude":53.966007,"longitude":-1.0801109,"name":"Garden Street near Del Pyke","properties":{"access":"unknown","bicycle_pa":"stands","capacity":8,"covered":"no","fee":"","operator":"","nameSource":"junction"},"sourceId":"osm"},{"id":"osm:node:12895113406","latitude":53.9657349,"longitude":-1.080472,"name":"Garden Street by YSJ Kitchen","properties":{"access":"unknown","bicycle_pa":"stands","capacity":6,"covered":"no","fee":"","operator":"","nameSource":"landmark"},"sourceId":"osm"},{"id":"osm:node:12895113407","latitude":53.9658654,"longitude":-1.0821036,"name":"De Grey Street near De Grey Terrace","properties":{"access":"unknown","bicycle_pa":"stands","capacity":40,"covered":"yes","fee":"","operator":"","nameSource":"junction"},"sourceId":"osm"},{"id":"osm:node:12956615721","latitude":53.9863525,"longitude":-1.0988017,"name":"Cayley Court near George Cayley Drive","properties":{"access":"customers","bicycle_pa":"stands","capacity":8,"covered":"yes","fee":"","operator":"","nameSource":"junction"},"sourceId":"osm"},{"id":"osm:node:12980652749","latitude":53.9608423,"longitude":-1.0975881,"name":"Leeman Road near Foundry Way","properties":{"access":"yes","bicycle_pa":"stands","capacity":8,"covered":"yes","fee":"","operator":"","nameSource":"junction"},"sourceId":"osm"},{"id":"osm:node:13589231272","latitude":53.9616178,"longitude":-1.1146653,"name":"Poppleton Road near Yarburgh Grove","properties":{"access":"customers","bicycle_pa":"wall_loops","capacity":16,"covered":"no","fee":"","operator":"","nameSource":"junction"},"sourceId":"osm"},{"id":"osm:node:13758717817","latitude":53.9660298,"longitude":-1.0658694,"name":"Cinder Lane near Hyrst Mews","properties":{"access":"customers","bicycle_pa":"stands","capacity":10,"covered":"no","fee":"","operator":"","nameSource":"junction"},"sourceId":"osm"},{"id":"osm:node:1427303094","latitude":53.9595556,"longitude":-1.0702198,"name":"Foss Islands Road by GeniePoint","properties":{"access":"yes","bicycle_pa":"stands","capacity":6,"covered":"yes","fee":"","operator":"","nameSource":"landmark"},"sourceId":"osm"},{"id":"osm:node:1430554977","latitude":53.9569877,"longitude":-1.0819923,"name":"Cumberland Street near Clifford Street","properties":{"access":"yes","bicycle_pa":"stands","capacity":15,"covered":"no","fee":"","operator":"","nameSource":"junction"},"sourceId":"osm"},{"id":"osm:node:1432474303","latitude":53.9591835,"longitude":-1.0845224,"name":"Coney Street near New Street","properties":{"access":"yes","bicycle_pa":"stands","capacity":20,"covered":"no","fee":"","operator":"","nameSource":"junction"},"sourceId":"osm"},{"id":"osm:node:1432474305","latitude":53.9608534,"longitude":-1.0799276,"name":"Goodramgate near Church Street","properties":{"access":"yes","bicycle_pa":"stands","capacity":4,"covered":"no","fee":"","operator":"","nameSource":"junction"},"sourceId":"osm"},{"id":"osm:node:1432738847","latitude":53.9605288,"longitude":-1.0859152,"name":"Lendal","properties":{"access":"yes","bicycle_pa":"stands","capacity":14,"covered":"no","fee":"no","operator":"","nameSource":"source"},"sourceId":"osm"},{"id":"osm:node:1433148276","latitude":53.9727106,"longitude":-1.0871759,"name":"Burton Stone Lane near Ratcliffe Street","properties":{"access":"yes","bicycle_pa":"stands","capacity":4,"covered":"no","fee":"","operator":"","nameSource":"junction"},"sourceId":"osm"},{"id":"osm:node:1433148277","latitude":53.9722026,"longitude":-1.0877284,"name":"Surtees Street near Burton Stone Lane","properties":{"access":"unknown","bicycle_pa":"stands","capacity":6,"covered":"no","fee":"","operator":"","nameSource":"junction"},"sourceId":"osm"},{"id":"osm:node:1446529865","latitude":53.9564991,"longitude":-1.0798144,"name":"Castlegate","properties":{"access":"yes","bicycle_pa":"stands","capacity":8,"covered":"no","fee":"","operator":"","nameSource":"source"},"sourceId":"osm"},{"id":"osm:node:1448566775","latitude":53.956257,"longitude":-1.0826725,"name":"King's Staith near Lower Friargate","properties":{"access":"yes","bicycle_pa":"stands","capacity":24,"covered":"no","fee":"","operator":"","nameSource":"junction"},"sourceId":"osm"},{"id":"osm:node:1467556505","latitude":53.9627152,"longitude":-1.0861131,"name":"St Leonard's Place near Bootham","properties":{"access":"yes","bicycle_pa":"stands","capacity":20,"covered":"no","fee":"no","operator":"","nameSource":"junction"},"sourceId":"osm"},{"id":"osm:node:1467556526","latitude":53.9630289,"longitude":-1.0859366,"name":"Bootham near Gillygate","properties":{"access":"unknown","bicycle_pa":"","capacity":8,"covered":"no","fee":"","operator":"","nameSource":"junction"},"sourceId":"osm"},{"id":"osm:node:1467556592","latitude":53.9593632,"longitude":-1.0881897,"name":"Tanner’s Moat","properties":{"access":"yes","bicycle_pa":"stands","capacity":34,"covered":"no","fee":"no","operator":"","nameSource":"source"},"sourceId":"osm"},{"id":"osm:node:1474366308","latitude":53.9598412,"longitude":-1.0879978,"name":"Esplanade / Rowing Club","properties":{"access":"yes","bicycle_pa":"stands","capacity":16,"covered":"no","fee":"","operator":"","nameSource":"source"},"sourceId":"osm"},{"id":"osm:node:1489257988","latitude":53.9663032,"longitude":-1.0826939,"name":"Clarence Street near Union Terrace","properties":{"access":"customers","bicycle_pa":"stands","capacity":6,"covered":"no","fee":"","operator":"","nameSource":"junction"},"sourceId":"osm"},{"id":"osm:node:1514932841","latitude":53.9566816,"longitude":-1.0702878,"name":"Foss Islands Road by Waitrose","properties":{"access":"yes","bicycle_pa":"stands","capacity":24,"covered":"no","fee":"no","operator":"","nameSource":"landmark"},"sourceId":"osm"},{"id":"osm:node:1600404142","latitude":53.9691701,"longitude":-1.0837198,"name":"Bridge Lane cycle parking","properties":{"access":"private","bicycle_pa":"lockers","capacity":15,"covered":"yes","fee":"","operator":"","nameSource":"street"},"sourceId":"osm"},{"id":"osm:node:1600404147","latitude":53.9702937,"longitude":-1.0835683,"name":"Corridor B by York Against Cancer","properties":{"access":"yes","bicycle_pa":"stands","capacity":30,"covered":"yes","fee":"","operator":"","nameSource":"landmark"},"sourceId":"osm"},{"id":"osm:node:1600404159","latitude":53.9707228,"longitude":-1.0833618,"name":"Corridor A by Pharmacy Department","properties":{"access":"yes","bicycle_pa":"stands","capacity":48,"covered":"no","fee":"","operator":"","nameSource":"landmark"},"sourceId":"osm"},{"id":"osm:node:1600404160","latitude":53.9710305,"longitude":-1.0826886,"name":"Wigginton Road near Fountayne Street","properties":{"access":"unknown","bicycle_pa":"stands","capacity":26,"covered":"yes","fee":"","operator":"","nameSource":"junction"},"sourceId":"osm"},{"id":"osm:node:1640036365","latitude":53.9574711,"longitude":-1.0786897,"name":"Piccadilly near Piccadilly Bridge","properties":{"access":"yes","bicycle_pa":"stands","capacity":30,"covered":"no","fee":"","operator":"","nameSource":"junction"},"sourceId":"osm"},{"id":"osm:node:1699857186","latitude":53.9602478,"longitude":-1.0839624,"name":"St Helen's Square near Davygate","properties":{"access":"yes","bicycle_pa":"stands","capacity":20,"covered":"no","fee":"","operator":"","nameSource":"junction"},"sourceId":"osm"},{"id":"osm:node:1700074116","latitude":53.9574579,"longitude":-1.0618254,"name":"Rawdon Avenue near Harington Avenue","properties":{"access":"private","bicycle_pa":"stands","capacity":8,"covered":"yes","fee":"","operator":"","nameSource":"junction"},"sourceId":"osm"},{"id":"osm:node:1782675861","latitude":53.9663819,"longitude":-1.1330082,"name":"Church Gate cycle parking","properties":{"access":"yes","bicycle_pa":"stands","capacity":8,"covered":"no","fee":"","operator":"","nameSource":"street"},"sourceId":"osm"},{"id":"osm:node:1816762913","latitude":53.9647931,"longitude":-1.0834774,"name":"Gillygate near Claremont Terrace","properties":{"access":"yes","bicycle_pa":"stands","capacity":4,"covered":"no","fee":"","operator":"","nameSource":"junction"},"sourceId":"osm"},{"id":"osm:node:1823528473","latitude":53.957213,"longitude":-1.0816239,"name":"Clifford Street near Cumberland Street","properties":{"access":"yes","bicycle_pa":"stands","capacity":8,"covered":"no","fee":"","operator":"","nameSource":"junction"},"sourceId":"osm"},{"id":"osm:node:1878637083","latitude":53.9570635,"longitude":-1.0702409,"name":"Foss Islands Road by Waitrose","properties":{"access":"customers","bicycle_pa":"stands","capacity":8,"covered":"yes","fee":"","operator":"","nameSource":"landmark"},"sourceId":"osm"},{"id":"osm:node:1878637095","latitude":53.9570304,"longitude":-1.0702462,"name":"Foss Islands Road by Waitrose","properties":{"access":"yes","bicycle_pa":"stands","capacity":8,"covered":"no","fee":"","operator":"","nameSource":"landmark"},"sourceId":"osm"},{"id":"osm:node:1879133365","latitude":53.9756496,"longitude":-1.1154361,"name":"Clifton Park Avenue cycle parking","properties":{"access":"unknown","bicycle_pa":"stands","capacity":8,"covered":"no","fee":"","operator":"","nameSource":"street"},"sourceId":"osm"},{"id":"osm:node:1879133368","latitude":53.9761511,"longitude":-1.0898219,"name":"Crichton Avenue near Ashton Avenue","properties":{"access":"yes","bicycle_pa":"stands","capacity":2,"covered":"no","fee":"","operator":"","nameSource":"junction"},"sourceId":"osm"},{"id":"osm:node:1881306783","latitude":53.9605243,"longitude":-1.0701223,"name":"James Street by Morrisons","properties":{"access":"customers","bicycle_pa":"stands","capacity":4,"covered":"yes","fee":"","operator":"","nameSource":"landmark"},"sourceId":"osm"},{"id":"osm:node:1895651749","latitude":53.9692334,"longitude":-1.0833769,"name":"Corridor C cycle parking","properties":{"access":"private","bicycle_pa":"lockers","capacity":2,"covered":"yes","fee":"","operator":"","nameSource":"street"},"sourceId":"osm"},{"id":"osm:node:1895651754","latitude":53.9690187,"longitude":-1.0848182,"name":"Bridge Lane by Intensive Care","properties":{"access":"unknown","bicycle_pa":"stands","capacity":82,"covered":"no","fee":"","operator":"","nameSource":"landmark"},"sourceId":"osm"},{"id":"osm:node:1895651764","latitude":53.9688712,"longitude":-1.0849027,"name":"Bridge Lane by Intensive Care","properties":{"access":"unknown","bicycle_pa":"stands","capacity":10,"covered":"yes","fee":"","operator":"","nameSource":"landmark"},"sourceId":"osm"},{"id":"osm:node:1895722046","latitude":53.9691055,"longitude":-1.0857019,"name":"Glass Bridge cycle parking","properties":{"access":"unknown","bicycle_pa":"stands","capacity":10,"covered":"no","fee":"","operator":"","nameSource":"street"},"sourceId":"osm"},{"id":"osm:node:1896745784","latitude":53.9738592,"longitude":-1.0763803,"name":"Haxby Road near Kitchener Street","properties":{"access":"customers","bicycle_pa":"stands","capacity":8,"covered":"no","fee":"","operator":"","nameSource":"junction"},"sourceId":"osm"},{"id":"osm:node:1896802027","latitude":53.9755295,"longitude":-1.0757819,"name":"Haxby Road cycle parking","properties":{"access":"customers","bicycle_pa":"stands","capacity":16,"covered":"yes","fee":"","operator":"","nameSource":"street"},"sourceId":"osm"},{"id":"osm:node:1899119448","latitude":53.9588375,"longitude":-1.0925401,"name":"Tea Room Square by The Refectory Kitchen & Terrace","properties":{"access":"yes","bicycle_pa":"two_tier","capacity":136,"covered":"yes","fee":"no","operator":"","nameSource":"landmark"},"sourceId":"osm"},{"id":"osm:node:1899119452","latitude":53.9571239,"longitude":-1.0931463,"name":"Station Road cycle parking","properties":{"access":"customers","bicycle_pa":"two_tier","capacity":80,"covered":"yes","fee":"yes","operator":"","nameSource":"street"},"sourceId":"osm"},{"id":"osm:node:1899119457","latitude":53.9574881,"longitude":-1.0929279,"name":"Staff cycle parking","properties":{"access":"yes","bicycle_pa":"two_tier","capacity":50,"covered":"yes","fee":"no","operator":"","nameSource":"source"},"sourceId":"osm"},{"id":"osm:node:1899121993","latitude":53.9561172,"longitude":-1.0736455,"name":"Paver Lane near Walmgate","properties":{"access":"yes","bicycle_pa":"stands","capacity":4,"covered":"no","fee":"","operator":"","nameSource":"junction"},"sourceId":"osm"},{"id":"osm:node:1899192420","latitude":53.9560887,"longitude":-1.0882071,"name":"Trinity Court near Trinity Lane","properties":{"access":"yes","bicycle_pa":"stands","capacity":8,"covered":"no","fee":"","operator":"","nameSource":"junction"},"sourceId":"osm"},{"id":"osm:node:1902700710","latitude":53.958227,"longitude":-1.0703764,"name":"Foss Islands Road by Kwik Fit Plus","properties":{"access":"customers","bicycle_pa":"stands","capacity":6,"covered":"yes","fee":"","operator":"","nameSource":"landmark"},"sourceId":"osm"},{"id":"osm:node:1902787754","latitude":53.9651585,"longitude":-1.067165,"name":"Mill Lane near East Parade","properties":{"access":"unknown","bicycle_pa":"stands","capacity":4,"covered":"no","fee":"","operator":"","nameSource":"junction"},"sourceId":"osm"},{"id":"osm:node:1902787757","latitude":53.9655553,"longitude":-1.0639759,"name":"East Parade near Bull Lane","properties":{"access":"yes","bicycle_pa":"stands","capacity":4,"covered":"no","fee":"","operator":"","nameSource":"junction"},"sourceId":"osm"},{"id":"osm:node:1902787770","latitude":53.9650788,"longitude":-1.066582,"name":"East Parade near Harcourt Street","properties":{"access":"customers","bicycle_pa":"stands","capacity":10,"covered":"no","fee":"","operator":"","nameSource":"junction"},"sourceId":"osm"},{"id":"osm:node:1902898402","latitude":53.9657987,"longitude":-1.0815711,"name":"De Grey Street near De Grey Terrace","properties":{"access":"unknown","bicycle_pa":"stands","capacity":18,"covered":"no","fee":"","operator":"","nameSource":"junction"},"sourceId":"osm"},{"id":"osm:node:1902898415","latitude":53.9662382,"longitude":-1.0818569,"name":"Brook Street near Backhouse Street","properties":{"access":"private","bicycle_pa":"stands","capacity":30,"covered":"yes","fee":"","operator":"","nameSource":"junction"},"sourceId":"osm"},{"id":"osm:node:1902898454","latitude":53.9658368,"longitude":-1.0813201,"name":"De Grey Street near De Grey Terrace","properties":{"access":"unknown","bicycle_pa":"stands","capacity":14,"covered":"yes","fee":"","operator":"","nameSource":"junction"},"sourceId":"osm"},{"id":"osm:node:1902898501","latitude":53.9655019,"longitude":-1.0809333,"name":"De Grey Street by Holgate","properties":{"access":"unknown","bicycle_pa":"stands","capacity":38,"covered":"no","fee":"","operator":"","nameSource":"landmark"},"sourceId":"osm"},{"id":"osm:node:1902898537","latitude":53.9658415,"longitude":-1.0818432,"name":"De Grey Street near De Grey Terrace","properties":{"access":"yes","bicycle_pa":"stands","capacity":30,"covered":"no","fee":"","operator":"","nameSource":"junction"},"sourceId":"osm"},{"id":"osm:node:1902898552","latitude":53.9658845,"longitude":-1.0821047,"name":"De Grey Street near De Grey Terrace","properties":{"access":"yes","bicycle_pa":"stands","capacity":40,"covered":"yes","fee":"","operator":"","nameSource":"junction"},"sourceId":"osm"},{"id":"osm:node:1902898567","latitude":53.9653887,"longitude":-1.0800629,"name":"Del Pyke by YSJ Student Health Centre","properties":{"access":"yes","bicycle_pa":"stands","capacity":60,"covered":"no","fee":"","operator":"","nameSource":"landmark"},"sourceId":"osm"},{"id":"osm:node:1902898650","latitude":53.9657216,"longitude":-1.0819545,"name":"De Grey Street near De Grey Terrace","properties":{"access":"yes","bicycle_pa":"stands","capacity":30,"covered":"no","fee":"","operator":"","nameSource":"junction"},"sourceId":"osm"},{"id":"osm:node:1903228979","latitude":53.956355,"longitude":-1.119711,"name":"Hebden Rise near Acomb Road","properties":{"access":"yes","bicycle_pa":"stands","capacity":6,"covered":"no","fee":"no","operator":"","nameSource":"junction"},"sourceId":"osm"},{"id":"osm:node:1903229008","latitude":53.9561313,"longitude":-1.1199276,"name":"York Road near Acomb Road","properties":{"access":"yes","bicycle_pa":"stands","capacity":10,"covered":"no","fee":"no","operator":"","nameSource":"junction"},"sourceId":"osm"},{"id":"osm:node:1904881250","latitude":53.9627578,"longitude":-1.1369469,"name":"Greensborough Avenue near Prestwick Court","properties":{"access":"customers","bicycle_pa":"wall_loops","capacity":12,"covered":"no","fee":"","operator":"","nameSource":"junction"},"sourceId":"osm"},{"id":"osm:node:1904881268","latitude":53.9627944,"longitude":-1.1345235,"name":"Beckfield Lane near Old School Walk","properties":{"access":"yes","bicycle_pa":"stands","capacity":5,"covered":"no","fee":"","operator":"","nameSource":"junction"},"sourceId":"osm"},{"id":"osm:node:1904881278","latitude":53.962906,"longitude":-1.1345021,"name":"Beckfield Lane near Old School Walk","properties":{"access":"yes","bicycle_pa":"stands","capacity":1,"covered":"no","fee":"","operator":"","nameSource":"junction"},"sourceId":"osm"},{"id":"osm:node:1909361438","latitude":53.9919477,"longitude":-1.1021657,"name":"Stirling Road by ScS","properties":{"access":"yes","bicycle_pa":"stands","capacity":10,"covered":"yes","fee":"","operator":"","nameSource":"landmark"},"sourceId":"osm"},{"id":"osm:node:1909361459","latitude":53.9915764,"longitude":-1.1040708,"name":"Tesco cycle parking","properties":{"access":"yes","bicycle_pa":"stands","capacity":18,"covered":"yes","fee":"","operator":"","nameSource":"landmark"},"sourceId":"osm"},{"id":"osm:node:1913050539","latitude":53.962778,"longitude":-1.0907521,"name":"Marygate Lane near Frederic Street","properties":{"access":"yes","bicycle_pa":"stands","capacity":8,"covered":"no","fee":"","operator":"","nameSource":"junction"},"sourceId":"osm"},{"id":"osm:node:1917385955","latitude":53.9690386,"longitude":-1.095639,"name":"Clifton near Compton Street","properties":{"access":"yes","bicycle_pa":"stands","capacity":10,"covered":"no","fee":"no","operator":"","nameSource":"junction"},"sourceId":"osm"},{"id":"osm:node:1917404159","latitude":53.9673448,"longitude":-1.0858209,"name":"19","properties":{"access":"unknown","bicycle_pa":"stands","capacity":6,"covered":"no","fee":"","operator":"","nameSource":"source"},"sourceId":"osm"},{"id":"osm:node:1919194651","latitude":53.9774681,"longitude":-1.1278728,"name":"Hudson Way cycle parking","properties":{"access":"customers","bicycle_pa":"","capacity":12,"covered":"yes","fee":"","operator":"","nameSource":"street"},"sourceId":"osm"},{"id":"osm:node:1919194681","latitude":53.9793247,"longitude":-1.1347364,"name":"Ings Lane near Great North Way","properties":{"access":"customers","bicycle_pa":"stands","capacity":4,"covered":"no","fee":"","operator":"","nameSource":"junction"},"sourceId":"osm"},{"id":"osm:node:1919194738","latitude":53.9798579,"longitude":-1.131888,"name":"White Rose Close by Essential Eating","properties":{"access":"unknown","bicycle_pa":"stands","capacity":30,"covered":"no","fee":"","operator":"","nameSource":"landmark"},"sourceId":"osm"},{"id":"osm:node:1919194755","latitude":53.9771952,"longitude":-1.1279291,"name":"Hudson Way cycle parking","properties":{"access":"customers","bicycle_pa":"","capacity":10,"covered":"yes","fee":"","operator":"","nameSource":"street"},"sourceId":"osm"},{"id":"osm:node:1919194821","latitude":53.9767347,"longitude":-1.12717,"name":"Great North Way by Batchelors of York","properties":{"access":"customers","bicycle_pa":"building","capacity":0,"covered":"yes","fee":"no","operator":"","nameSource":"landmark"},"sourceId":"osm"},{"id":"osm:node:1919194868","latitude":53.9803626,"longitude":-1.1333972,"name":"Ings Lane by Millfield","properties":{"access":"customers","bicycle_pa":"stands","capacity":8,"covered":"no","fee":"","operator":"","nameSource":"landmark"},"sourceId":"osm"},{"id":"osm:node:1919194982","latitude":53.9797814,"longitude":-1.1343532,"name":"Ings Lane by Batchelors Suzuki","properties":{"access":"customers","bicycle_pa":"stands","capacity":6,"covered":"no","fee":"","operator":"","nameSource":"landmark"},"sourceId":"osm"},{"id":"osm:node:1919194986","latitude":53.979626,"longitude":-1.1335831,"name":"Ings Lane by Maxi's Restaurant","properties":{"access":"customers","bicycle_pa":"stands","capacity":8,"covered":"no","fee":"","operator":"","nameSource":"landmark"},"sourceId":"osm"},{"id":"osm:node:1919195096","latitude":53.9772899,"longitude":-1.1282508,"name":"Hudson Way cycle parking","properties":{"access":"customers","bicycle_pa":"","capacity":16,"covered":"yes","fee":"","operator":"","nameSource":"street"},"sourceId":"osm"},{"id":"osm:node:1919195141","latitude":53.9801433,"longitude":-1.1338879,"name":"Ings Lane by Wetherby Whaler","properties":{"access":"customers","bicycle_pa":"stands","capacity":8,"covered":"no","fee":"","operator":"","nameSource":"landmark"},"sourceId":"osm"},{"id":"osm:node:1919195145","latitude":53.9798957,"longitude":-1.1336448,"name":"Ings Lane by Maxi's Restaurant","properties":{"access":"customers","bicycle_pa":"stands","capacity":8,"covered":"no","fee":"","operator":"","nameSource":"landmark"},"sourceId":"osm"},{"id":"osm:node:1919545144","latitude":53.9869914,"longitude":-1.1051074,"name":"Oakdale Road near Rivelin Way","properties":{"access":"customers","bicycle_pa":"stands","capacity":12,"covered":"no","fee":"","operator":"","nameSource":"junction"},"sourceId":"osm"},{"id":"osm:node:1919545179","latitude":53.9854996,"longitude":-1.0997341,"name":"Oakdale Road near Tower Court","properties":{"access":"yes","bicycle_pa":"stands","capacity":20,"covered":"no","fee":"","operator":"","nameSource":"junction"},"sourceId":"osm"},{"id":"osm:node:1919545197","latitude":53.9859143,"longitude":-1.1009934,"name":"Clifton Moor Gate by Farmfoods","properties":{"access":"yes","bicycle_pa":"wall_loops","capacity":9,"covered":"no","fee":"","operator":"","nameSource":"landmark"},"sourceId":"osm"},{"id":"osm:node:1919545203","latitude":53.9853639,"longitude":-1.1005803,"name":"Tower Court near Oakdale Road","properties":{"access":"yes","bicycle_pa":"stands","capacity":2,"covered":"no","fee":"","operator":"","nameSource":"junction"},"sourceId":"osm"},{"id":"osm:node:1920933350","latitude":53.9910484,"longitude":-1.0722963,"name":"Hawthorn Terrace South near Lime Tree Avenue","properties":{"access":"unknown","bicycle_pa":"stands","capacity":2,"covered":"no","fee":"","operator":"","nameSource":"junction"},"sourceId":"osm"},{"id":"osm:node:1920933352","latitude":53.9909971,"longitude":-1.0723137,"name":"Hawthorn Terrace South near Lime Tree Avenue","properties":{"access":"unknown","bicycle_pa":"stands","capacity":2,"covered":"no","fee":"","operator":"","nameSource":"junction"},"sourceId":"osm"},{"id":"osm:node:1926249978","latitude":53.9725657,"longitude":-1.0800551,"name":"Belgrave Street near Clarendon Court","properties":{"access":"yes","bicycle_pa":"stands","capacity":8,"covered":"no","fee":"","operator":"","nameSource":"junction"},"sourceId":"osm"},{"id":"osm:node:1926354465","latitude":53.9623301,"longitude":-1.0598539,"name":"Fourth Avenue near Seventh Avenue","properties":{"access":"yes","bicycle_pa":"stands","capacity":8,"covered":"no","fee":"","operator":"","nameSource":"junction"},"sourceId":"osm"},{"id":"osm:node:1926354470","latitude":53.9624441,"longitude":-1.0594719,"name":"Fourth Avenue near Eighth Avenue","properties":{"access":"yes","bicycle_pa":"stands","capacity":6,"covered":"no","fee":"","operator":"","nameSource":"junction"},"sourceId":"osm"},{"id":"osm:node:1927645388","latitude":53.9598024,"longitude":-1.0850146,"name":"St Helen's Square near Coney Street","properties":{"access":"yes","bicycle_pa":"stands","capacity":8,"covered":"no","fee":"","operator":"","nameSource":"junction"},"sourceId":"osm"},{"id":"osm:node:1927728904","latitude":53.995525,"longitude":-1.0563399,"name":"Garth Road near Garth End","properties":{"access":"unknown","bicycle_pa":"stands","capacity":10,"covered":"no","fee":"","operator":"","nameSource":"junction"},"sourceId":"osm"},{"id":"osm:node:1929110053","latitude":53.9859093,"longitude":-1.0647953,"name":"Badger Paddock by Orchard Park Community Centre","properties":{"access":"customers","bicycle_pa":"stands","capacity":8,"covered":"no","fee":"","operator":"","nameSource":"landmark"},"sourceId":"osm"},{"id":"osm:node:1929118965","latitude":53.9836926,"longitude":-1.0685477,"name":"Huntington Road near Brandsby Grove","properties":{"access":"customers","bicycle_pa":"stands","capacity":3,"covered":"no","fee":"","operator":"","nameSource":"junction"},"sourceId":"osm"},{"id":"osm:node:1929379139","latitude":53.9826683,"longitude":-1.1113064,"name":"Eastholme Drive by Clifton with Rawcliffe Primary School","properties":{"access":"private","bicycle_pa":"shed","capacity":0,"covered":"yes","fee":"","operator":"","nameSource":"landmark"},"sourceId":"osm"},{"id":"osm:node:1932462579","latitude":53.960062,"longitude":-1.0865085,"name":"Lendal Bridge near Museum Street","properties":{"access":"unknown","bicycle_pa":"stands","capacity":10,"covered":"no","fee":"","operator":"","nameSource":"junction"},"sourceId":"osm"},{"id":"osm:node:1932462616","latitude":53.960118,"longitude":-1.0858278,"name":"Lendal near St Helen's Square","properties":{"access":"private","bicycle_pa":"","capacity":16,"covered":"yes","fee":"","operator":"","nameSource":"junction"},"sourceId":"osm"},{"id":"osm:node:1966432453","latitude":53.9759808,"longitude":-1.0894411,"name":"Crichton Avenue near Ashton Avenue","properties":{"access":"yes","bicycle_pa":"stands","capacity":2,"covered":"no","fee":"","operator":"","nameSource":"junction"},"sourceId":"osm"},{"id":"osm:node:1966432456","latitude":53.9783113,"longitude":-1.1063108,"name":"Rawcliffe Lane near Eastholme Drive","properties":{"access":"yes","bicycle_pa":"stands","capacity":4,"covered":"no","fee":"","operator":"","nameSource":"junction"},"sourceId":"osm"},{"id":"osm:node:1966432462","latitude":53.9758904,"longitude":-1.0893284,"name":"Ashton Avenue near Crichton Avenue","properties":{"access":"yes","bicycle_pa":"stands","capacity":2,"covered":"no","fee":"","operator":"","nameSource":"junction"},"sourceId":"osm"},{"id":"osm:node:1966432472","latitude":53.9794801,"longitude":-1.107098,"name":"Eastholme Drive near Southolme Drive","properties":{"access":"customers","bicycle_pa":"stands","capacity":4,"covered":"no","fee":"no","operator":"","nameSource":"junction"},"sourceId":"osm"},{"id":"osm:node:1966432475","latitude":53.9760527,"longitude":-1.0895492,"name":"Crichton Avenue near Ashton Avenue","properties":{"access":"yes","bicycle_pa":"stands","capacity":2,"covered":"no","fee":"","operator":"","nameSource":"junction"},"sourceId":"osm"},{"id":"osm:node:1966432478","latitude":53.9779588,"longitude":-1.1068113,"name":"Brougham Close cycle parking","properties":{"access":"customers","bicycle_pa":"stands","capacity":6,"covered":"no","fee":"","operator":"","nameSource":"street"},"sourceId":"osm"},{"id":"osm:node:1990374825","latitude":53.9662528,"longitude":-1.0786248,"name":"Townend Street near Abbot Street","properties":{"access":"yes","bicycle_pa":"stands","capacity":6,"covered":"no","fee":"","operator":"","nameSource":"junction"},"sourceId":"osm"},{"id":"osm:node:1991570544","latitude":53.9654785,"longitude":-1.0822479,"name":"De Grey Street near De Grey Terrace","properties":{"access":"yes","bicycle_pa":"stands","capacity":20,"covered":"yes","fee":"","operator":"","nameSource":"junction"},"sourceId":"osm"},{"id":"osm:node:1991570573","latitude":53.9637361,"longitude":-1.0851481,"name":"Millers Yard near Gillygate","properties":{"access":"yes","bicycle_pa":"stands","capacity":6,"covered":"no","fee":"","operator":"","nameSource":"junction"},"sourceId":"osm"},{"id":"osm:node:1991570579","latitude":53.9656326,"longitude":-1.0836003,"name":"Clarence Street near De Grey Terrace","properties":{"access":"yes","bicycle_pa":"stands","capacity":8,"covered":"no","fee":"","operator":"","nameSource":"junction"},"sourceId":"osm"},{"id":"osm:node:2121324029","latitude":53.9630323,"longitude":-1.0749973,"name":"Cloisters Walk near Agar Street","properties":{"access":"unknown","bicycle_pa":"stands","capacity":10,"covered":"no","fee":"","operator":"","nameSource":"junction"},"sourceId":"osm"},{"id":"osm:node:2121324034","latitude":53.9630264,"longitude":-1.0740552,"name":"Foss Bank cycle parking","properties":{"access":"unknown","bicycle_pa":"stands","capacity":12,"covered":"no","fee":"","operator":"","nameSource":"street"},"sourceId":"osm"},{"id":"osm:node:2121324045","latitude":53.9631771,"longitude":-1.0752414,"name":"Cloisters Walk near Agar Street","properties":{"access":"unknown","bicycle_pa":"stands","capacity":14,"covered":"no","fee":"","operator":"","nameSource":"junction"},"sourceId":"osm"},{"id":"osm:node:2124516089","latitude":53.9629527,"longitude":-1.0713267,"name":"Layerthorpe near Eboracum Way","properties":{"access":"customers","bicycle_pa":"stands","capacity":4,"covered":"no","fee":"","operator":"","nameSource":"junction"},"sourceId":"osm"},{"id":"osm:node:2125020228","latitude":53.965,"longitude":-1.0796737,"name":"St. John Street by YSJ Student Health Centre","properties":{"access":"yes","bicycle_pa":"stands","capacity":10,"covered":"no","fee":"","operator":"","nameSource":"landmark"},"sourceId":"osm"},{"id":"osm:node:2125020234","latitude":53.9648868,"longitude":-1.0791742,"name":"St. John Street by Phoenix","properties":{"access":"unknown","bicycle_pa":"stands","capacity":10,"covered":"no","fee":"","operator":"","nameSource":"landmark"},"sourceId":"osm"},{"id":"osm:node:2125020235","latitude":53.9650158,"longitude":-1.0809585,"name":"Lord Mayors Walk near Moatside Court","properties":{"access":"unknown","bicycle_pa":"stands","capacity":8,"covered":"no","fee":"","operator":"","nameSource":"junction"},"sourceId":"osm"},{"id":"osm:node:2125020236","latitude":53.9650406,"longitude":-1.0797468,"name":"St. John Street by YSJ Student Health Centre","properties":{"access":"yes","bicycle_pa":"stands","capacity":10,"covered":"no","fee":"","operator":"","nameSource":"landmark"},"sourceId":"osm"},{"id":"osm:node:2125020239","latitude":53.9649736,"longitude":-1.0807734,"name":"Lord Mayors Walk cycle parking","properties":{"access":"unknown","bicycle_pa":"stands","capacity":12,"covered":"no","fee":"","operator":"","nameSource":"street"},"sourceId":"osm"},{"id":"osm:node:2207086230","latitude":53.9638963,"longitude":-1.0767221,"name":"Monkgate near Monkgate Cloisters","properties":{"access":"yes","bicycle_pa":"stands","capacity":14,"covered":"no","fee":"","operator":"","nameSource":"junction"},"sourceId":"osm"},{"id":"osm:node:2207086254","latitude":53.9664529,"longitude":-1.0687203,"name":"Hyrst Grove near Heworth Green","properties":{"access":"customers","bicycle_pa":"stands","capacity":8,"covered":"no","fee":"","operator":"","nameSource":"junction"},"sourceId":"osm"},{"id":"osm:node:2240023626","latitude":53.9586481,"longitude":-1.1196238,"name":"Lindsey Avenue near Sowerby Road","properties":{"access":"yes","bicycle_pa":"stands","capacity":4,"covered":"no","fee":"","operator":"","nameSource":"junction"},"sourceId":"osm"},{"id":"osm:node:2240080824","latitude":53.9574736,"longitude":-1.1082928,"name":"Station Business Park near Holgate Park Drive","properties":{"access":"private","bicycle_pa":"stands","capacity":10,"covered":"yes","fee":"","operator":"","nameSource":"junction"},"sourceId":"osm"},{"id":"osm:node:2240080829","latitude":53.9572251,"longitude":-1.1079133,"name":"Station Business Park near Holgate Park Drive","properties":{"access":"private","bicycle_pa":"stands","capacity":32,"covered":"yes","fee":"","operator":"","nameSource":"junction"},"sourceId":"osm"},{"id":"osm:node:2242148648","latitude":53.971092,"longitude":-1.0943682,"name":"Pinfold Court near Water Lane","properties":{"access":"unknown","bicycle_pa":"stands","capacity":4,"covered":"yes","fee":"","operator":"","nameSource":"junction"},"sourceId":"osm"},{"id":"osm:node:2279652719","latitude":53.9577953,"longitude":-1.0894388,"name":"Tanner Row near Barker Lane","properties":{"access":"yes","bicycle_pa":"stands","capacity":8,"covered":"no","fee":"","operator":"","nameSource":"junction"},"sourceId":"osm"},{"id":"osm:node:2279652724","latitude":53.9575798,"longitude":-1.0897283,"name":"Barker Lane near Tanner Row","properties":{"access":"yes","bicycle_pa":"stands","capacity":2,"covered":"no","fee":"","operator":"","nameSource":"junction"},"sourceId":"osm"},{"id":"osm:node:2286986361","latitude":53.9574346,"longitude":-1.0852232,"name":"North Street","properties":{"access":"unknown","bicycle_pa":"stands","capacity":12,"covered":"no","fee":"","operator":"","nameSource":"source"},"sourceId":"osm"},{"id":"osm:node:2308860136","latitude":53.9913585,"longitude":-1.1047448,"name":"Tesco Extra cycle parking","properties":{"access":"yes","bicycle_pa":"stands","capacity":6,"covered":"yes","fee":"","operator":"","nameSource":"landmark"},"sourceId":"osm"},{"id":"osm:node:2309822921","latitude":53.9627538,"longitude":-1.081471,"name":"Minster Yard near Chapter House Street","properties":{"access":"private","bicycle_pa":"stands","capacity":10,"covered":"yes","fee":"","operator":"","nameSource":"junction"},"sourceId":"osm"},{"id":"osm:node:2368032016","latitude":53.9644035,"longitude":-1.0772958,"name":"Groves Lane near Waverley Street","properties":{"access":"customers","bicycle_pa":"stands","capacity":14,"covered":"no","fee":"","operator":"","nameSource":"junction"},"sourceId":"osm"},{"id":"osm:node:2372762166","latitude":53.9971838,"longitude":-1.0695093,"name":"Park Lodge cycle parking","properties":{"access":"customers","bicycle_pa":"stands","capacity":0,"covered":"no","fee":"","operator":"","nameSource":"street"},"sourceId":"osm"},{"id":"osm:node:246525346","latitude":53.9598269,"longitude":-1.0833234,"name":"Davygate South","properties":{"access":"yes","bicycle_pa":"stands","capacity":24,"covered":"no","fee":"","operator":"","nameSource":"source"},"sourceId":"osm"},{"id":"osm:node:246525347","latitude":53.9601518,"longitude":-1.0839173,"name":"Davygate (North)","properties":{"access":"yes","bicycle_pa":"stands","capacity":26,"covered":"no","fee":"no","operator":"","nameSource":"source"},"sourceId":"osm"},{"id":"osm:node:246525348","latitude":53.9612433,"longitude":-1.084815,"name":"Blake Street","properties":{"access":"yes","bicycle_pa":"stands","capacity":22,"covered":"no","fee":"","operator":"","nameSource":"source"},"sourceId":"osm"},{"id":"osm:node:2476648041","latitude":53.9568513,"longitude":-1.1169829,"name":"Monument Close by York Cold War Bunker","properties":{"access":"customers","bicycle_pa":"stands","capacity":10,"covered":"no","fee":"","operator":"","nameSource":"landmark"},"sourceId":"osm"},{"id":"osm:node:2478398146","latitude":53.9574326,"longitude":-1.0820072,"name":"King Street near Nessgate","properties":{"access":"yes","bicycle_pa":"stands","capacity":6,"covered":"no","fee":"","operator":"","nameSource":"junction"},"sourceId":"osm"},{"id":"osm:node:2515365096","latitude":53.958082,"longitude":-1.0798495,"name":"White Swan Hotel","properties":{"access":"yes","bicycle_pa":"stands","capacity":26,"covered":"no","fee":"","operator":"","nameSource":"source"},"sourceId":"osm"},{"id":"osm:node:2523229041","latitude":53.961239,"longitude":-1.0858586,"name":"Library Square near St Leonards Mews","properties":{"access":"yes","bicycle_pa":"stands","capacity":10,"covered":"no","fee":"","operator":"","nameSource":"junction"},"sourceId":"osm"},{"id":"osm:node:2528186356","latitude":53.9603978,"longitude":-1.0875138,"name":"Dame Judi Dench Walk by Star Inn The City","properties":{"access":"yes","bicycle_pa":"stands","capacity":10,"covered":"no","fee":"","operator":"","nameSource":"landmark"},"sourceId":"osm"},{"id":"osm:node:2546122465","latitude":53.9749471,"longitude":-1.1365206,"name":"Midfield Way by Manor Church of England Academy","properties":{"access":"private","bicycle_pa":"stands","capacity":0,"covered":"yes","fee":"","operator":"","nameSource":"landmark"},"sourceId":"osm"},{"id":"osm:node:2549804193","latitude":53.9714831,"longitude":-1.0744046,"name":"White Cross Gardens cycle parking","properties":{"access":"customers","bicycle_pa":"stands","capacity":10,"covered":"yes","fee":"","operator":"","nameSource":"street"},"sourceId":"osm"},{"id":"osm:node:2549804243","latitude":53.9717536,"longitude":-1.0776465,"name":"Haxby Road near Vyner Street","properties":{"access":"yes","bicycle_pa":"stands","capacity":4,"covered":"no","fee":"","operator":"","nameSource":"junction"},"sourceId":"osm"},{"id":"osm:node:2552613495","latitude":53.967298,"longitude":-1.0750417,"name":"Park Grove near Emerald Street","properties":{"access":"customers","bicycle_pa":"stands","capacity":8,"covered":"no","fee":"","operator":"","nameSource":"junction"},"sourceId":"osm"},{"id":"osm:node:2553706191","latitude":53.9578691,"longitude":-1.1351959,"name":"Beckfield Lane near Runswick Avenue","properties":{"access":"yes","bicycle_pa":"stands","capacity":2,"covered":"no","fee":"","operator":"","nameSource":"junction"},"sourceId":"osm"},{"id":"osm:node:2553706238","latitude":53.9577577,"longitude":-1.1351109,"name":"Beckfield Lane near Runswick Avenue","properties":{"access":"yes","bicycle_pa":"stands","capacity":6,"covered":"no","fee":"","operator":"","nameSource":"junction"},"sourceId":"osm"},{"id":"osm:node:2653747927","latitude":53.9799617,"longitude":-1.1299255,"name":"Opus Avenue cycle parking","properties":{"access":"customers","bicycle_pa":"stands","capacity":12,"covered":"no","fee":"","operator":"","nameSource":"street"},"sourceId":"osm"},{"id":"osm:node:2662227896","latitude":53.9573606,"longitude":-1.0774698,"name":"Walmgate near Malt Shovel Court","properties":{"access":"yes","bicycle_pa":"stands","capacity":4,"covered":"no","fee":"","operator":"","nameSource":"junction"},"sourceId":"osm"},{"id":"osm:node:2700633680","latitude":53.9902781,"longitude":-1.1026694,"name":"Stirling Road cycle parking","properties":{"access":"unknown","bicycle_pa":"wall_loops","capacity":12,"covered":"no","fee":"","operator":"","nameSource":"street"},"sourceId":"osm"},{"id":"osm:node:2732884723","latitude":53.9741098,"longitude":-1.0901675,"name":"Evelyn Crescent near Horner Street","properties":{"access":"customers","bicycle_pa":"stands","capacity":8,"covered":"no","fee":"","operator":"","nameSource":"junction"},"sourceId":"osm"},{"id":"osm:node:2851290297","latitude":53.9578798,"longitude":-1.0903826,"name":"Toft Green near Barker Lane","properties":{"access":"private","bicycle_pa":"stands","capacity":200,"covered":"yes","fee":"","operator":"","nameSource":"junction"},"sourceId":"osm"},{"id":"osm:node:2879042096","latitude":53.9605657,"longitude":-1.0713692,"name":"Foss Place by Amazon Hub Locker","properties":{"access":"private","bicycle_pa":"lockers","capacity":24,"covered":"no","fee":"","operator":"","nameSource":"landmark"},"sourceId":"osm"},{"id":"osm:node:2880038498","latitude":53.9604824,"longitude":-1.0741062,"name":"Kings Pool cycle parking","properties":{"access":"customers","bicycle_pa":"stands","capacity":70,"covered":"yes","fee":"","operator":"","nameSource":"street"},"sourceId":"osm"},{"id":"osm:node:2908281207","latitude":53.9663327,"longitude":-1.1258483,"name":"Boroughbridge Road near Plantation Drive","properties":{"access":"unknown","bicycle_pa":"stands","capacity":6,"covered":"no","fee":"","operator":"","nameSource":"junction"},"sourceId":"osm"},{"id":"osm:node:3050754003","latitude":53.9683083,"longitude":-1.0839864,"name":"14","properties":{"access":"unknown","bicycle_pa":"stands","capacity":10,"covered":"no","fee":"","operator":"","nameSource":"source"},"sourceId":"osm"},{"id":"osm:node:3068258285","latitude":53.9756999,"longitude":-1.0726745,"name":"Turner Close near Huntington Road","properties":{"access":"yes","bicycle_pa":"stands","capacity":6,"covered":"no","fee":"","operator":"","nameSource":"junction"},"sourceId":"osm"},{"id":"osm:node:3068258291","latitude":53.9760906,"longitude":-1.0726045,"name":"Huntington Road near Mallard Landings","properties":{"access":"yes","bicycle_pa":"stands","capacity":12,"covered":"no","fee":"","operator":"","nameSource":"junction"},"sourceId":"osm"},{"id":"osm:node:3068258302","latitude":53.9774783,"longitude":-1.0678928,"name":"Middleham Avenue by Bellfarm Social Hall","properties":{"access":"customers","bicycle_pa":"wall_loops","capacity":2,"covered":"no","fee":"","operator":"","nameSource":"landmark"},"sourceId":"osm"},{"id":"osm:node:3068258319","latitude":53.9750979,"longitude":-1.0718008,"name":"Turner Close cycle parking","properties":{"access":"private","bicycle_pa":"stands","capacity":12,"covered":"yes","fee":"","operator":"","nameSource":"street"},"sourceId":"osm"},{"id":"osm:node:3211778462","latitude":53.9637687,"longitude":-1.1169939,"name":"Lavender Grove near Boroughbridge Road","properties":{"access":"customers","bicycle_pa":"stands","capacity":7,"covered":"no","fee":"","operator":"","nameSource":"junction"},"sourceId":"osm"},{"id":"osm:node:3232315098","latitude":53.9896361,"longitude":-1.1051227,"name":"Clifton Moor Gate by Bella Italia","properties":{"access":"unknown","bicycle_pa":"stands","capacity":12,"covered":"yes","fee":"","operator":"","nameSource":"landmark"},"sourceId":"osm"},{"id":"osm:node:3239451242","latitude":53.9668569,"longitude":-1.1209914,"name":"Rosetta Way near Isis Court","properties":{"access":"yes","bicycle_pa":"stands","capacity":8,"covered":"yes","fee":"","operator":"","nameSource":"junction"},"sourceId":"osm"},{"id":"osm:node:3239451243","latitude":53.9671141,"longitude":-1.1199963,"name":"Hardwicke Close near Ouse Acres","properties":{"access":"yes","bicycle_pa":"stands","capacity":10,"covered":"yes","fee":"","operator":"","nameSource":"junction"},"sourceId":"osm"},{"id":"osm:node:3239451252","latitude":53.9667512,"longitude":-1.1205757,"name":"Rosetta Way near Ouse Acres","properties":{"access":"yes","bicycle_pa":"stands","capacity":10,"covered":"yes","fee":"","operator":"","nameSource":"junction"},"sourceId":"osm"},{"id":"osm:node:3372605945","latitude":53.9591192,"longitude":-1.0646628,"name":"Hazel Court near Yorvale Business Park","properties":{"access":"private","bicycle_pa":"stands","capacity":16,"covered":"yes","fee":"","operator":"","nameSource":"junction"},"sourceId":"osm"},{"id":"osm:node:3385015857","latitude":53.9891453,"longitude":-1.0737995,"name":"Elm Tree Mews near Hawthorn Terrace","properties":{"access":"unknown","bicycle_pa":"stands","capacity":6,"covered":"no","fee":"","operator":"","nameSource":"junction"},"sourceId":"osm"},{"id":"osm:node:3385015878","latitude":53.9888457,"longitude":-1.0750952,"name":"White Rose Avenue by New Earswick Quaker Meeting House","properties":{"access":"unknown","bicycle_pa":"stands","capacity":6,"covered":"no","fee":"","operator":"","nameSource":"landmark"},"sourceId":"osm"},{"id":"osm:node:3472807308","latitude":53.9739181,"longitude":-1.097515,"name":"Belcombe Way near Elston CLose","properties":{"access":"customers","bicycle_pa":"stands","capacity":8,"covered":"no","fee":"","operator":"","nameSource":"junction"},"sourceId":"osm"},{"id":"osm:node:3508095488","latitude":53.9850105,"longitude":-1.0633968,"name":"Kestrel Wood Way near Brockfield Park Drive","properties":{"access":"yes","bicycle_pa":"stands","capacity":6,"covered":"no","fee":"","operator":"","nameSource":"junction"},"sourceId":"osm"},{"id":"osm:node:3536576443","latitude":53.9788721,"longitude":-1.1306662,"name":"Opus Avenue cycle parking","properties":{"access":"customers","bicycle_pa":"stands","capacity":12,"covered":"yes","fee":"","operator":"","nameSource":"street"},"sourceId":"osm"},{"id":"osm:node:3536576457","latitude":53.9791261,"longitude":-1.1310176,"name":"Opus Avenue cycle parking","properties":{"access":"customers","bicycle_pa":"stands","capacity":12,"covered":"yes","fee":"","operator":"","nameSource":"street"},"sourceId":"osm"},{"id":"osm:node:3536576465","latitude":53.97897,"longitude":-1.1313126,"name":"White Rose Way cycle parking","properties":{"access":"customers","bicycle_pa":"stands","capacity":10,"covered":"yes","fee":"","operator":"","nameSource":"street"},"sourceId":"osm"},{"id":"osm:node:3536576480","latitude":53.9792933,"longitude":-1.130972,"name":"White Rose Way cycle parking","properties":{"access":"customers","bicycle_pa":"stands","capacity":10,"covered":"yes","fee":"","operator":"","nameSource":"street"},"sourceId":"osm"},{"id":"osm:node:3545792899","latitude":53.9910174,"longitude":-1.0968623,"name":"Audax Close near Audax Road","properties":{"access":"yes","bicycle_pa":"stands","capacity":10,"covered":"yes","fee":"","operator":"","nameSource":"junction"},"sourceId":"osm"},{"id":"osm:node:3545792902","latitude":53.9798426,"longitude":-1.1320242,"name":"White Rose Close by Essential Eating","properties":{"access":"unknown","bicycle_pa":"stands","capacity":40,"covered":"no","fee":"","operator":"","nameSource":"landmark"},"sourceId":"osm"},{"id":"osm:node:3545792903","latitude":53.9915284,"longitude":-1.0995392,"name":"Stirling Road by Screwfix","properties":{"access":"unknown","bicycle_pa":"stands","capacity":20,"covered":"yes","fee":"","operator":"","nameSource":"landmark"},"sourceId":"osm"},{"id":"osm:node:3545792922","latitude":53.9911688,"longitude":-1.0962052,"name":"Audax Road near Audax Close","properties":{"access":"yes","bicycle_pa":"stands","capacity":10,"covered":"yes","fee":"","operator":"","nameSource":"junction"},"sourceId":"osm"},{"id":"osm:node:3545792934","latitude":53.9908818,"longitude":-1.0961864,"name":"Audax Close near Audax Road","properties":{"access":"yes","bicycle_pa":"stands","capacity":10,"covered":"yes","fee":"","operator":"","nameSource":"junction"},"sourceId":"osm"},{"id":"osm:node:3552432113","latitude":53.9947703,"longitude":-1.057623,"name":"North Moor Road near Garth Road","properties":{"access":"private","bicycle_pa":"shed","capacity":0,"covered":"yes","fee":"","operator":"","nameSource":"junction"},"sourceId":"osm"},{"id":"osm:node:3552432123","latitude":53.9984534,"longitude":-1.0576606,"name":"North Moor Road near Keswick Way","properties":{"access":"unknown","bicycle_pa":"stands","capacity":4,"covered":"no","fee":"","operator":"","nameSource":"junction"},"sourceId":"osm"},{"id":"osm:node:3654554986","latitude":53.9706043,"longitude":-1.0833819,"name":"Corridor B by Rowlands Pharmacy","properties":{"access":"yes","bicycle_pa":"stands","capacity":30,"covered":"yes","fee":"","operator":"","nameSource":"landmark"},"sourceId":"osm"},{"id":"osm:node:3739771034","latitude":53.964036,"longitude":-1.0717734,"name":"Eboracum Way cycle parking","properties":{"access":"private","bicycle_pa":"stands","capacity":12,"covered":"yes","fee":"","operator":"","nameSource":"street"},"sourceId":"osm"},{"id":"osm:node:3739772902","latitude":53.9645851,"longitude":-1.0717493,"name":"Eboracum Way cycle parking","properties":{"access":"yes","bicycle_pa":"stands","capacity":8,"covered":"no","fee":"","operator":"","nameSource":"street"},"sourceId":"osm"},{"id":"osm:node:3890792640","latitude":53.9567464,"longitude":-1.0728613,"name":"Percys Lane near Navigation Road","properties":{"access":"customers","bicycle_pa":"stands","capacity":6,"covered":"no","fee":"","operator":"","nameSource":"junction"},"sourceId":"osm"},{"id":"osm:node:4018749656","latitude":53.9754255,"longitude":-1.0754911,"name":"Haley's Terrace cycle parking","properties":{"access":"private","bicycle_pa":"stands","capacity":8,"covered":"yes","fee":"","operator":"","nameSource":"street"},"sourceId":"osm"},{"id":"osm:node:4018749657","latitude":53.9755514,"longitude":-1.0756331,"name":"Haxby Road by Yearsley Swimming Pool","properties":{"access":"customers","bicycle_pa":"stands","capacity":12,"covered":"yes","fee":"","operator":"","nameSource":"landmark"},"sourceId":"osm"},{"id":"osm:node:4029891668","latitude":53.9899012,"longitude":-1.1080646,"name":"Hurricane Way by Brewers Decorator Centre","properties":{"access":"unknown","bicycle_pa":"stands","capacity":6,"covered":"yes","fee":"","operator":"","nameSource":"landmark"},"sourceId":"osm"},{"id":"osm:node:4124718567","latitude":53.9945213,"longitude":-1.0938077,"name":"Stirling Road by BO*AB Hair & Beauty","properties":{"access":"customers","bicycle_pa":"stands","capacity":10,"covered":"yes","fee":"","operator":"","nameSource":"landmark"},"sourceId":"osm"},{"id":"osm:node:4204599789","latitude":53.9854441,"longitude":-1.0945519,"name":"Tribune Way by DPD","properties":{"access":"customers","bicycle_pa":"stands","capacity":8,"covered":"no","fee":"","operator":"","nameSource":"landmark"},"sourceId":"osm"},{"id":"osm:node:4204652822","latitude":53.969064,"longitude":-1.1009324,"name":"Long Walk by Medieval Garden","properties":{"access":"unknown","bicycle_pa":"stands","capacity":6,"covered":"no","fee":"","operator":"","nameSource":"landmark"},"sourceId":"osm"},{"id":"osm:node:4204652831","latitude":53.9711529,"longitude":-1.1026247,"name":"Serpentine Walk near Long Walk","properties":{"access":"unknown","bicycle_pa":"stands","capacity":8,"covered":"no","fee":"no","operator":"","nameSource":"junction"},"sourceId":"osm"},{"id":"osm:node:435157133","latitude":53.9603203,"longitude":-1.0703957,"name":"James Street by Morrisons Garden Centre","properties":{"access":"customers","bicycle_pa":"stands","capacity":16,"covered":"no","fee":"","operator":"","nameSource":"landmark"},"sourceId":"osm"},{"id":"osm:node:435157138","latitude":53.9602348,"longitude":-1.0713196,"name":"Foss Islands Road by Amazon Hub Locker","properties":{"access":"customers","bicycle_pa":"stands","capacity":20,"covered":"no","fee":"","operator":"","nameSource":"landmark"},"sourceId":"osm"},{"id":"osm:node:4379916938","latitude":53.9605445,"longitude":-1.0719406,"name":"Foss Place near Foss Islands Road","properties":{"access":"customers","bicycle_pa":"stands","capacity":6,"covered":"yes","fee":"","operator":"","nameSource":"junction"},"sourceId":"osm"},{"id":"osm:node:4423816818","latitude":53.9784635,"longitude":-1.0626512,"name":"Albert Close near Victoria Way","properties":{"access":"customers","bicycle_pa":"stands","capacity":4,"covered":"no","fee":"","operator":"","nameSource":"junction"},"sourceId":"osm"},{"id":"osm:node:4654648897","latitude":53.9572548,"longitude":-1.0931797,"name":"Station Road cycle parking","properties":{"access":"unknown","bicycle_pa":"double_decker","capacity":100,"covered":"yes","fee":"","operator":"","nameSource":"street"},"sourceId":"osm"},{"id":"osm:node:4677436271","latitude":53.956109,"longitude":-1.0886788,"name":"Dewsbury Terrace near Priory Street","properties":{"access":"permissive","bicycle_pa":"stands","capacity":20,"covered":"yes","fee":"no","operator":"","nameSource":"junction"},"sourceId":"osm"},{"id":"osm:node:4776035825","latitude":53.9977757,"longitude":-1.0576274,"name":"Derwent Walk near North Moor Road","properties":{"access":"unknown","bicycle_pa":"stands","capacity":4,"covered":"no","fee":"","operator":"","nameSource":"junction"},"sourceId":"osm"},{"id":"osm:node:4928775494","latitude":53.9572883,"longitude":-1.0869884,"name":"Micklegate near Varvills Court","properties":{"access":"yes","bicycle_pa":"anchors","capacity":3,"covered":"no","fee":"","operator":"","nameSource":"junction"},"sourceId":"osm"},{"id":"osm:node:4930584852","latitude":53.9700411,"longitude":-1.0821991,"name":"Wigginton Road by Breast Imaging","properties":{"access":"unknown","bicycle_pa":"stands","capacity":40,"covered":"no","fee":"","operator":"","nameSource":"landmark"},"sourceId":"osm"},{"id":"osm:node:4930584853","latitude":53.9699496,"longitude":-1.0823814,"name":"Wigginton Road by Breast Imaging","properties":{"access":"unknown","bicycle_pa":"stands","capacity":22,"covered":"no","fee":"","operator":"","nameSource":"landmark"},"sourceId":"osm"},{"id":"osm:node:5149390457","latitude":53.9840598,"longitude":-1.0957282,"name":"Green Lane by Aldi","properties":{"access":"unknown","bicycle_pa":"stands","capacity":17,"covered":"yes","fee":"","operator":"","nameSource":"landmark"},"sourceId":"osm"},{"id":"osm:node:522270197","latitude":53.960311,"longitude":-1.0797909,"name":"Saint Andrewgate","properties":{"access":"unknown","bicycle_pa":"stands","capacity":60,"covered":"no","fee":"","operator":"","nameSource":"source"},"sourceId":"osm"},{"id":"osm:node:5256273715","latitude":53.9827001,"longitude":-1.1110604,"name":"Garburn Grove by Clifton with Rawcliffe Primary School","properties":{"access":"unknown","bicycle_pa":"stands","capacity":0,"covered":"yes","fee":"","operator":"","nameSource":"landmark"},"sourceId":"osm"},{"id":"osm:node:5373069977","latitude":53.9590748,"longitude":-1.0702433,"name":"Foss Islands Road by Yorkshire Cancer Research Shop","properties":{"access":"customers","bicycle_pa":"stands","capacity":6,"covered":"yes","fee":"","operator":"","nameSource":"landmark"},"sourceId":"osm"},{"id":"osm:node:5485047077","latitude":53.9642973,"longitude":-1.1031883,"name":"Stephenson Court near Stephenson Way","properties":{"access":"customers","bicycle_pa":"stands","capacity":12,"covered":"yes","fee":"","operator":"","nameSource":"junction"},"sourceId":"osm"},{"id":"osm:node:5494285923","latitude":53.9680957,"longitude":-1.0815286,"name":"Clarence Street near Wigginton Road","properties":{"access":"yes","bicycle_pa":"stands","capacity":6,"covered":"no","fee":"","operator":"","nameSource":"junction"},"sourceId":"osm"},{"id":"osm:node:5549256978","latitude":53.9905221,"longitude":-1.1071344,"name":"Hurricane Way near Clifton Moor Gate","properties":{"access":"customers","bicycle_pa":"stands","capacity":6,"covered":"no","fee":"","operator":"","nameSource":"junction"},"sourceId":"osm"},{"id":"osm:node:5549256979","latitude":53.9902509,"longitude":-1.1069788,"name":"Langsett Grove near Longwood Road","properties":{"access":"customers","bicycle_pa":"stands","capacity":6,"covered":"no","fee":"","operator":"","nameSource":"junction"},"sourceId":"osm"},{"id":"osm:node:5549256980","latitude":53.9929229,"longitude":-1.1024794,"name":"Ring Road by DFS","properties":{"access":"yes","bicycle_pa":"stands","capacity":10,"covered":"yes","fee":"","operator":"","nameSource":"landmark"},"sourceId":"osm"},{"id":"osm:node:563794513","latitude":53.9649279,"longitude":-1.0646096,"name":"East Parade near Hyrst Mews","properties":{"access":"yes","bicycle_pa":"stands","capacity":6,"covered":"no","fee":"","operator":"","nameSource":"junction"},"sourceId":"osm"},{"id":"osm:node:5649940203","latitude":53.95913,"longitude":-1.0775106,"name":"The Stonebow near Garden Place","properties":{"access":"yes","bicycle_pa":"stands","capacity":24,"covered":"no","fee":"","operator":"","nameSource":"junction"},"sourceId":"osm"},{"id":"osm:node:5868734468","latitude":53.9900316,"longitude":-1.1007221,"name":"Amy Johnson Way near Concorde Park","properties":{"access":"unknown","bicycle_pa":"stands","capacity":8,"covered":"yes","fee":"","operator":"","nameSource":"junction"},"sourceId":"osm"},{"id":"osm:node:5868734469","latitude":53.9902997,"longitude":-1.1000569,"name":"Amy Johnson Way cycle parking","properties":{"access":"unknown","bicycle_pa":"stands","capacity":8,"covered":"yes","fee":"","operator":"","nameSource":"street"},"sourceId":"osm"},{"id":"osm:node:5902175527","latitude":53.9573,"longitude":-1.0814684,"name":"Castlegate near Coppergate","properties":{"access":"yes","bicycle_pa":"stands","capacity":10,"covered":"no","fee":"","operator":"","nameSource":"junction"},"sourceId":"osm"},{"id":"osm:node:5905844236","latitude":53.958783,"longitude":-1.091414,"name":"Station Road by The Refectory Kitchen & Terrace","properties":{"access":"customers","bicycle_pa":"wall_loops","capacity":24,"covered":"yes","fee":"","operator":"","nameSource":"landmark"},"sourceId":"osm"},{"id":"osm:node:5918698452","latitude":53.9565036,"longitude":-1.1203646,"name":"Manor Drive South near York Road","properties":{"access":"yes","bicycle_pa":"stands","capacity":4,"covered":"no","fee":"","operator":"","nameSource":"junction"},"sourceId":"osm"},{"id":"osm:node:5979610587","latitude":53.9613871,"longitude":-1.0831812,"name":"Kleiser' s Court near Stonegate","properties":{"access":"customers","bicycle_pa":"wall_loops","capacity":5,"covered":"no","fee":"","operator":"","nameSource":"junction"},"sourceId":"osm"},{"id":"osm:node:5994477833","latitude":53.9609003,"longitude":-1.0976656,"name":"Leeman Road near Foundry Way","properties":{"access":"unknown","bicycle_pa":"stands","capacity":8,"covered":"yes","fee":"","operator":"","nameSource":"junction"},"sourceId":"osm"},{"id":"osm:node:6001245341","latitude":53.9718135,"longitude":-1.0881803,"name":"Cromer Street near Burton Stone Lane","properties":{"access":"yes","bicycle_pa":"stands","capacity":8,"covered":"no","fee":"","operator":"","nameSource":"junction"},"sourceId":"osm"},{"id":"osm:node:6037966251","latitude":53.9662449,"longitude":-1.0825344,"name":"Clarence Street near Union Terrace","properties":{"access":"customers","bicycle_pa":"stands","capacity":10,"covered":"yes","fee":"","operator":"","nameSource":"junction"},"sourceId":"osm"},{"id":"osm:node:6037966254","latitude":53.9662575,"longitude":-1.082576,"name":"Clarence Street near Union Terrace","properties":{"access":"customers","bicycle_pa":"rack","capacity":7,"covered":"no","fee":"","operator":"","nameSource":"junction"},"sourceId":"osm"},{"id":"osm:node:6039906221","latitude":53.9633322,"longitude":-1.0713665,"name":"Eboracum Way near Layerthorpe","properties":{"access":"customers","bicycle_pa":"stands","capacity":4,"covered":"no","fee":"","operator":"","nameSource":"junction"},"sourceId":"osm"},{"id":"osm:node:6039906231","latitude":53.9635199,"longitude":-1.0715837,"name":"Eboracum Way near Layerthorpe","properties":{"access":"customers","bicycle_pa":"stands","capacity":4,"covered":"no","fee":"","operator":"","nameSource":"junction"},"sourceId":"osm"},{"id":"osm:node:6086317973","latitude":53.9673368,"longitude":-1.0937675,"name":"Clifton near Burton Stone Lane","properties":{"access":"customers","bicycle_pa":"stands","capacity":6,"covered":"no","fee":"","operator":"","nameSource":"junction"},"sourceId":"osm"},{"id":"osm:node:6119767711","latitude":53.9608837,"longitude":-1.0756593,"name":"Peasholme Green near Kings Pool","properties":{"access":"customers","bicycle_pa":"stands","capacity":10,"covered":"yes","fee":"","operator":"","nameSource":"junction"},"sourceId":"osm"},{"id":"osm:node:6141547918","latitude":53.9574505,"longitude":-1.0856652,"name":"Micklegate near Bridge Street","properties":{"access":"yes","bicycle_pa":"stands","capacity":4,"covered":"yes","fee":"","operator":"","nameSource":"junction"},"sourceId":"osm"},{"id":"osm:node:6227172354","latitude":53.9613782,"longitude":-1.0848931,"name":"Blake Street","properties":{"access":"yes","bicycle_pa":"stands","capacity":10,"covered":"no","fee":"","operator":"","nameSource":"source"},"sourceId":"osm"},{"id":"osm:node:6227172355","latitude":53.9569457,"longitude":-1.0778968,"name":"Piccadilly near Merchantgate","properties":{"access":"unknown","bicycle_pa":"stands","capacity":4,"covered":"no","fee":"","operator":"","nameSource":"junction"},"sourceId":"osm"},{"id":"osm:node:6233679248","latitude":53.9628572,"longitude":-1.0780686,"name":"St. Maurice's Road near Lord Mayors Walk","properties":{"access":"yes","bicycle_pa":"stands","capacity":8,"covered":"no","fee":"","operator":"","nameSource":"junction"},"sourceId":"osm"},{"id":"osm:node:6236214212","latitude":53.9634033,"longitude":-1.0787799,"name":"Lord Mayors Walk","properties":{"access":"yes","bicycle_pa":"stands","capacity":8,"covered":"no","fee":"","operator":"","nameSource":"source"},"sourceId":"osm"},{"id":"osm:node:6236214213","latitude":53.9618792,"longitude":-1.0802154,"name":"Deangate","properties":{"access":"yes","bicycle_pa":"stands","capacity":10,"covered":"no","fee":"no","operator":"","nameSource":"source"},"sourceId":"osm"},{"id":"osm:node:6237203822","latitude":53.9937188,"longitude":-1.0944621,"name":"Stirling Road by Clifton Moor Police Office (Non-Operational)","properties":{"access":"yes","bicycle_pa":"stands","capacity":6,"covered":"no","fee":"","operator":"","nameSource":"landmark"},"sourceId":"osm"},{"id":"osm:node:6240653682","latitude":53.9631158,"longitude":-1.0626127,"name":"Sixth Avenue by Tang Hall Primary Academy","properties":{"access":"customers","bicycle_pa":"stands","capacity":18,"covered":"yes","fee":"","operator":"","nameSource":"landmark"},"sourceId":"osm"},{"id":"osm:node:6240672748","latitude":53.9720154,"longitude":-1.0765673,"name":"White Cross Road by Haxby Road Primary Academy","properties":{"access":"unknown","bicycle_pa":"","capacity":0,"covered":"","fee":"","operator":"","nameSource":"landmark"},"sourceId":"osm"},{"id":"osm:node:6254691227","latitude":53.9932465,"longitude":-1.0982539,"name":"Ring Road by B&M","properties":{"access":"yes","bicycle_pa":"stands","capacity":10,"covered":"no","fee":"","operator":"","nameSource":"landmark"},"sourceId":"osm"},{"id":"osm:node:6254691232","latitude":53.9931803,"longitude":-1.0994687,"name":"Ring Road cycle parking","properties":{"access":"unknown","bicycle_pa":"stands","capacity":10,"covered":"no","fee":"","operator":"","nameSource":"street"},"sourceId":"osm"},{"id":"osm:node:6254691235","latitude":53.9932923,"longitude":-1.0980608,"name":"Ring Road by B&M","properties":{"access":"yes","bicycle_pa":"stands","capacity":10,"covered":"no","fee":"","operator":"","nameSource":"landmark"},"sourceId":"osm"},{"id":"osm:node:6254691236","latitude":53.9934972,"longitude":-1.0970952,"name":"Stirling Road by Matalan","properties":{"access":"yes","bicycle_pa":"stands","capacity":10,"covered":"no","fee":"","operator":"","nameSource":"landmark"},"sourceId":"osm"},{"id":"osm:node:6272386210","latitude":53.964222,"longitude":-1.076086,"name":"Monkgate near Agar Street","properties":{"access":"customers","bicycle_pa":"stands","capacity":4,"covered":"no","fee":"","operator":"","nameSource":"junction"},"sourceId":"osm"},{"id":"osm:node:6407980389","latitude":53.958408,"longitude":-1.078763,"name":"Fossgate near Scala Court","properties":{"access":"yes","bicycle_pa":"stands","capacity":8,"covered":"no","fee":"","operator":"","nameSource":"junction"},"sourceId":"osm"},{"id":"osm:node:6420959894","latitude":53.9571016,"longitude":-1.0918812,"name":"City Walls cycle parking","properties":{"access":"private","bicycle_pa":"stands","capacity":16,"covered":"yes","fee":"","operator":"","nameSource":"street"},"sourceId":"osm"},{"id":"osm:node:642616922","latitude":53.9612661,"longitude":-1.086235,"name":"Library Square near St Leonards Mews","properties":{"access":"yes","bicycle_pa":"stands","capacity":12,"covered":"no","fee":"","operator":"","nameSource":"junction"},"sourceId":"osm"},{"id":"osm:node:642616926","latitude":53.9613207,"longitude":-1.0858854,"name":"Library Square near St Leonards Mews","properties":{"access":"yes","bicycle_pa":"stands","capacity":10,"covered":"no","fee":"","operator":"","nameSource":"junction"},"sourceId":"osm"},{"id":"osm:node:642618475","latitude":53.9580243,"longitude":-1.0795687,"name":"Piccadilly near Coppergate","properties":{"access":"yes","bicycle_pa":"stands","capacity":12,"covered":"no","fee":"","operator":"","nameSource":"junction"},"sourceId":"osm"},{"id":"osm:node:6516830105","latitude":53.9796469,"longitude":-1.073522,"name":"Haxby Road by Haxby Road Sports Park","properties":{"access":"unknown","bicycle_pa":"stands","capacity":10,"covered":"no","fee":"","operator":"","nameSource":"landmark"},"sourceId":"osm"},{"id":"osm:node:6516830106","latitude":53.9796877,"longitude":-1.07224,"name":"Haxby Road Sports Park cycle parking","properties":{"access":"unknown","bicycle_pa":"","capacity":20,"covered":"","fee":"","operator":"","nameSource":"landmark"},"sourceId":"osm"},{"id":"osm:node:6516830108","latitude":53.9795174,"longitude":-1.0734577,"name":"Haxby Road by Haxby Road Sports Park","properties":{"access":"unknown","bicycle_pa":"stands","capacity":20,"covered":"no","fee":"","operator":"","nameSource":"landmark"},"sourceId":"osm"},{"id":"osm:node:663227670","latitude":53.9595651,"longitude":-1.0877643,"name":"Wellington Row near Tanner's Moat","properties":{"access":"yes","bicycle_pa":"stands","capacity":8,"covered":"no","fee":"no","operator":"","nameSource":"junction"},"sourceId":"osm"},{"id":"osm:node:6795005905","latitude":53.9665179,"longitude":-1.0584412,"name":"Heworth Village near Dales Lane","properties":{"access":"yes","bicycle_pa":"wall_loops","capacity":6,"covered":"no","fee":"","operator":"","nameSource":"junction"},"sourceId":"osm"},{"id":"osm:node:6800664625","latitude":53.9579794,"longitude":-1.0786289,"name":"Dale's Court by Silver Lining","properties":{"access":"customers","bicycle_pa":"wall_loops","capacity":6,"covered":"no","fee":"","operator":"","nameSource":"landmark"},"sourceId":"osm"},{"id":"osm:node:6818024921","latitude":53.9588047,"longitude":-1.0753868,"name":"Palmer Lane near Dundas Street","properties":{"access":"yes","bicycle_pa":"stands","capacity":12,"covered":"no","fee":"","operator":"","nameSource":"junction"},"sourceId":"osm"},{"id":"osm:node:6833346665","latitude":53.978209,"longitude":-1.1316627,"name":"Great North Way by Arnold Clark","properties":{"access":"unknown","bicycle_pa":"stands","capacity":6,"covered":"no","fee":"","operator":"","nameSource":"landmark"},"sourceId":"osm"},{"id":"osm:node:6906195947","latitude":53.9600561,"longitude":-1.0809975,"name":"Church Street near Patrick Pool","properties":{"access":"unknown","bicycle_pa":"stands","capacity":8,"covered":"no","fee":"","operator":"","nameSource":"junction"},"sourceId":"osm"},{"id":"osm:node:6906195948","latitude":53.9599063,"longitude":-1.0811289,"name":"Patrick Pool near Church Street","properties":{"access":"yes","bicycle_pa":"stands","capacity":8,"covered":"no","fee":"","operator":"","nameSource":"junction"},"sourceId":"osm"},{"id":"osm:node:6906195949","latitude":53.9584329,"longitude":-1.0806833,"name":"Parliament Street near High Ousegate","properties":{"access":"yes","bicycle_pa":"stands","capacity":12,"covered":"no","fee":"","operator":"","nameSource":"junction"},"sourceId":"osm"},{"id":"osm:node:6913032902","latitude":53.9600024,"longitude":-1.0837845,"name":"Davygate near St Helen's Square","properties":{"access":"yes","bicycle_pa":"stands","capacity":8,"covered":"no","fee":"","operator":"","nameSource":"junction"},"sourceId":"osm"},{"id":"osm:node:6913032903","latitude":53.9598571,"longitude":-1.0834573,"name":"Davygate near New Street","properties":{"access":"yes","bicycle_pa":"stands","capacity":22,"covered":"no","fee":"","operator":"","nameSource":"junction"},"sourceId":"osm"},{"id":"osm:node:6913032905","latitude":53.9582349,"longitude":-1.0799382,"name":"Piccadilly near Coppergate","properties":{"access":"yes","bicycle_pa":"stands","capacity":6,"covered":"no","fee":"","operator":"","nameSource":"junction"},"sourceId":"osm"},{"id":"osm:node:6916199366","latitude":53.9580318,"longitude":-1.0809058,"name":"Coppergate near Coppergate Walk","properties":{"access":"yes","bicycle_pa":"stands","capacity":8,"covered":"no","fee":"","operator":"","nameSource":"junction"},"sourceId":"osm"},{"id":"osm:node:6916199367","latitude":53.9602266,"longitude":-1.0799756,"name":"Kings Square near Saint Andrewgate","properties":{"access":"yes","bicycle_pa":"stands","capacity":29,"covered":"no","fee":"","operator":"","nameSource":"junction"},"sourceId":"osm"},{"id":"osm:node:6932759559","latitude":53.9855915,"longitude":-1.0934268,"name":"Tribune Way cycle parking","properties":{"access":"customers","bicycle_pa":"stands","capacity":10,"covered":"yes","fee":"","operator":"","nameSource":"street"},"sourceId":"osm"},{"id":"osm:node:6978518281","latitude":53.9586874,"longitude":-1.0689754,"name":"James Street near Hazel Court","properties":{"access":"customers","bicycle_pa":"stands","capacity":26,"covered":"yes","fee":"","operator":"","nameSource":"junction"},"sourceId":"osm"},{"id":"osm:node:7068267077","latitude":53.9746776,"longitude":-1.1350198,"name":"London Ebor Business Park near Millfield Lane","properties":{"access":"private","bicycle_pa":"stands","capacity":8,"covered":"no","fee":"","operator":"","nameSource":"junction"},"sourceId":"osm"},{"id":"osm:node:7068391248","latitude":53.9600049,"longitude":-1.0756973,"name":"Peasholme Green near Saint Saviours Place","properties":{"access":"yes","bicycle_pa":"stands","capacity":12,"covered":"no","fee":"","operator":"","nameSource":"junction"},"sourceId":"osm"},{"id":"osm:node:726530896","latitude":53.9592104,"longitude":-1.0790165,"name":"Saint Saviourgate","properties":{"access":"yes","bicycle_pa":"stands","capacity":6,"covered":"no","fee":"no","operator":"","nameSource":"source"},"sourceId":"osm"},{"id":"osm:node:726530898","latitude":53.9591201,"longitude":-1.0793422,"name":"St Crux Passage near Whip-Ma-Whop-Ma-Gate","properties":{"access":"yes","bicycle_pa":"stands","capacity":14,"covered":"no","fee":"","operator":"","nameSource":"junction"},"sourceId":"osm"},{"id":"osm:node:7387490636","latitude":53.9674001,"longitude":-1.0793645,"name":"Lowther Street near Church Mews","properties":{"access":"yes","bicycle_pa":"stands","capacity":4,"covered":"no","fee":"","operator":"","nameSource":"junction"},"sourceId":"osm"},{"id":"osm:node:7387490641","latitude":53.9675231,"longitude":-1.0797963,"name":"Lowther Street near St. Thomas' Place","properties":{"access":"yes","bicycle_pa":"stands","capacity":6,"covered":"no","fee":"","operator":"","nameSource":"junction"},"sourceId":"osm"},{"id":"osm:node:745974973","latitude":53.9626949,"longitude":-1.0719707,"name":"Layerthorpe by St Leonards Hospice Shop","properties":{"access":"customers","bicycle_pa":"stands","capacity":20,"covered":"no","fee":"","operator":"","nameSource":"landmark"},"sourceId":"osm"},{"id":"osm:node:7479762162","latitude":53.9928256,"longitude":-1.102638,"name":"Ring Road by DFS","properties":{"access":"yes","bicycle_pa":"stands","capacity":10,"covered":"yes","fee":"","operator":"","nameSource":"landmark"},"sourceId":"osm"},{"id":"osm:node:766788763","latitude":53.9625303,"longitude":-1.075099,"name":"Foss Bank near A1036","properties":{"access":"unknown","bicycle_pa":"stands","capacity":4,"covered":"no","fee":"","operator":"","nameSource":"junction"},"sourceId":"osm"},{"id":"osm:node:766788764","latitude":53.9630321,"longitude":-1.075093,"name":"Cloisters Walk near Agar Street","properties":{"access":"unknown","bicycle_pa":"stands","capacity":12,"covered":"no","fee":"","operator":"","nameSource":"junction"},"sourceId":"osm"},{"id":"osm:node:766788768","latitude":53.9565541,"longitude":-1.0828479,"name":"South Esplanade near Cumberland Street","properties":{"access":"yes","bicycle_pa":"stands","capacity":10,"covered":"no","fee":"","operator":"","nameSource":"junction"},"sourceId":"osm"},{"id":"osm:node:766830075","latitude":53.9569308,"longitude":-1.0935221,"name":"Station Road cycle parking","properties":{"access":"yes","bicycle_pa":"stands","capacity":450,"covered":"yes","fee":"no","operator":"","nameSource":"street"},"sourceId":"osm"},{"id":"osm:node:766832583","latitude":53.958435,"longitude":-1.0872452,"name":"Rougier Street near George Hudson Street","properties":{"access":"yes","bicycle_pa":"stands","capacity":16,"covered":"no","fee":"","operator":"","nameSource":"junction"},"sourceId":"osm"},{"id":"osm:node:766837456","latitude":53.9571728,"longitude":-1.0843895,"name":"Queen Staith Road near Skeldergate","properties":{"access":"yes","bicycle_pa":"stands","capacity":40,"covered":"no","fee":"","operator":"","nameSource":"junction"},"sourceId":"osm"},{"id":"osm:node:766837458","latitude":53.9567048,"longitude":-1.0897384,"name":"Micklegate near Priory Street","properties":{"access":"yes","bicycle_pa":"stands","capacity":8,"covered":"no","fee":"","operator":"","nameSource":"junction"},"sourceId":"osm"},{"id":"osm:node:766844108","latitude":53.9601021,"longitude":-1.0763626,"name":"St Saviours Place near Aldwark","properties":{"access":"customers","bicycle_pa":"stands","capacity":16,"covered":"yes","fee":"","operator":"","nameSource":"junction"},"sourceId":"osm"},{"id":"osm:node:766864780","latitude":53.9620182,"longitude":-1.0798268,"name":"College Street near Deangate","properties":{"access":"yes","bicycle_pa":"stands","capacity":18,"covered":"no","fee":"","operator":"","nameSource":"junction"},"sourceId":"osm"},{"id":"osm:node:766864785","latitude":53.9618141,"longitude":-1.0834118,"name":"High Petergate near Duncombe Place","properties":{"access":"yes","bicycle_pa":"stands","capacity":20,"covered":"no","fee":"","operator":"","nameSource":"junction"},"sourceId":"osm"},{"id":"osm:node:7689619105","latitude":53.993677,"longitude":-1.0960286,"name":"Stirling Road by Starbucks","properties":{"access":"yes","bicycle_pa":"stands","capacity":8,"covered":"yes","fee":"","operator":"","nameSource":"landmark"},"sourceId":"osm"},{"id":"osm:node:7735116108","latitude":53.9781831,"longitude":-1.1143643,"name":"Blue Beck Drive cycle parking","properties":{"access":"unknown","bicycle_pa":"stands","capacity":6,"covered":"no","fee":"","operator":"","nameSource":"street"},"sourceId":"osm"},{"id":"osm:node:7869429054","latitude":53.9605271,"longitude":-1.0845222,"name":"Blake Street near St Helen's Square","properties":{"access":"yes","bicycle_pa":"stands","capacity":8,"covered":"no","fee":"","operator":"","nameSource":"junction"},"sourceId":"osm"},{"id":"osm:node:8023039662","latitude":53.9563523,"longitude":-1.0799353,"name":"Castlegate near Tower Street","properties":{"access":"yes","bicycle_pa":"stands","capacity":16,"covered":"no","fee":"","operator":"","nameSource":"junction"},"sourceId":"osm"},{"id":"osm:node:8222215999","latitude":53.9561718,"longitude":-1.0932333,"name":"Queen Street near Station Road","properties":{"access":"yes","bicycle_pa":"stands","capacity":10,"covered":"no","fee":"","operator":"","nameSource":"junction"},"sourceId":"osm"},{"id":"osm:node:8223996259","latitude":53.9633854,"longitude":-1.0721467,"name":"Foss Bank by Costa","properties":{"access":"customers","bicycle_pa":"stands","capacity":8,"covered":"no","fee":"","operator":"","nameSource":"landmark"},"sourceId":"osm"},{"id":"osm:node:8233484840","latitude":53.9592554,"longitude":-1.0778964,"name":"The Stonebow near Garden Place","properties":{"access":"yes","bicycle_pa":"stands","capacity":7,"covered":"no","fee":"","operator":"","nameSource":"junction"},"sourceId":"osm"},{"id":"osm:node:8243267849","latitude":53.9685766,"longitude":-1.0838203,"name":"13","properties":{"access":"unknown","bicycle_pa":"shed","capacity":0,"covered":"","fee":"","operator":"","nameSource":"source"},"sourceId":"osm"},{"id":"osm:node:828312634","latitude":53.984268,"longitude":-1.1232548,"name":"Rawcliffe Bar Country Park cycle parking","properties":{"access":"yes","bicycle_pa":"stands","capacity":52,"covered":"no","fee":"","operator":"","nameSource":"landmark"},"sourceId":"osm"},{"id":"osm:node:828313187","latitude":53.9583312,"longitude":-1.0919193,"name":"Tea Room Square by The Refectory Kitchen & Terrace","properties":{"access":"yes","bicycle_pa":"stands","capacity":8,"covered":"no","fee":"","operator":"","nameSource":"landmark"},"sourceId":"osm"},{"id":"osm:node:8703385087","latitude":53.9568898,"longitude":-1.0831922,"name":"King's Staith near King Street","properties":{"access":"yes","bicycle_pa":"stands","capacity":8,"covered":"no","fee":"","operator":"","nameSource":"junction"},"sourceId":"osm"},{"id":"osm:node:8786107421","latitude":53.963793,"longitude":-1.0855491,"name":"Bootham Row near Bootham Place","properties":{"access":"yes","bicycle_pa":"stands","capacity":16,"covered":"no","fee":"","operator":"","nameSource":"junction"},"sourceId":"osm"},{"id":"osm:node:8927092829","latitude":53.9562489,"longitude":-1.0772783,"name":"Piccadilly near St Denys Road","properties":{"access":"yes","bicycle_pa":"stands","capacity":6,"covered":"no","fee":"","operator":"","nameSource":"junction"},"sourceId":"osm"},{"id":"osm:node:8988994447","latitude":53.9667845,"longitude":-1.1268602,"name":"Boroughbridge Road near Ouseburn Avenue","properties":{"access":"yes","bicycle_pa":"stands","capacity":4,"covered":"no","fee":"","operator":"","nameSource":"junction"},"sourceId":"osm"},{"id":"osm:node:8988994448","latitude":53.9667313,"longitude":-1.12668,"name":"Boroughbridge Road near Ouseburn Avenue","properties":{"access":"yes","bicycle_pa":"stands","capacity":2,"covered":"no","fee":"","operator":"","nameSource":"junction"},"sourceId":"osm"},{"id":"osm:node:9756185625","latitude":53.9571379,"longitude":-1.0697611,"name":"Foss Islands Road by Waitrose","properties":{"access":"yes","bicycle_pa":"stands","capacity":12,"covered":"no","fee":"","operator":"","nameSource":"landmark"},"sourceId":"osm"},