{"key":"12/2035/1336","points":[{"id":"osm:node:13312256101","latitude":52.8799802,"longitude":-1.1419172,"name":"Asher Lane cycle parking","properties":{"access":"yes","bicycle_pa":"stands","capacity":14,"covered":"partial","fee":"","operator":"","nameSource":"street"},"sourceId":"osm"},{"id":"osm:node:2098659298","latitude":52.9020601,"longitude":-1.0984468,"name":"Burnside Grove near Stanstead Avenue","properties":{"access":"unknown","bicycle_pa":"stands","capacity":4,"covered":"","fee":"","operator":"","nameSource":"junction"},"sourceId":"osm"},{"id":"osm:node:3648032480","latitude":52.8711188,"longitude":-1.0906659,"name":"Stockwell Close near Commercial Road","properties":{"access":"unknown","bicycle_pa":"stands","capacity":8,"covered":"no","fee":"","operator":"","nameSource":"junction"},"sourceId":"osm"},{"id":"osm:node:3648032522","latitude":52.871721,"longitude":-1.0916592,"name":"Bunny Lane near Woodleigh","properties":{"access":"unknown","bicycle_pa":"stands","capacity":8,"covered":"no","fee":"","operator":"","nameSource":"junction"},"sourceId":"osm"},{"id":"osm:node:3649762893","latitude":52.8713928,"longitude":-1.0901931,"name":"The Square near Nottingham Road","properties":{"access":"unknown","bicycle_pa":"stands","capacity":4,"covered":"no","fee":"","operator":"","nameSource":"junction"},"sourceId":"osm"},{"id":"osm:node:3649763258","latitude":52.8738279,"longitude":-1.0845612,"name":"Church Drive by Keyworth Library","properties":{"access":"unknown","bicycle_pa":"stands","capacity":6,"covered":"no","fee":"","operator":"","nameSource":"landmark"},"sourceId":"osm"},{"id":"osm:node:3649763318","latitude":52.8740774,"longitude":-1.0828041,"name":"Wolds Drive near Church Drive","properties":{"access":"unknown","bicycle_pa":"stands","capacity":2,"covered":"no","fee":"","operator":"","nameSource":"junction"},"sourceId":"osm"},{"id":"osm:node:3649763328","latitude":52.87411,"longitude":-1.0833759,"name":"Church Drive near Wolds Drive","properties":{"access":"customers","bicycle_pa":"wall_loops","capacity":0,"covered":"","fee":"","operator":"The Co-operative Group","nameSource":"junction"},"sourceId":"osm"},{"id":"osm:node:3936145803","latitude":52.8616213,"longitude":-1.1350639,"name":"Loughborough Road near Church Street","properties":{"access":"unknown","bicycle_pa":"stands","capacity":10,"covered":"no","fee":"","operator":"","nameSource":"junction"},"sourceId":"osm"},{"id":"osm:node:6345451695","latitude":52.8849926,"longitude":-1.1420322,"name":"Mere Way cycle parking","properties":{"access":"private","bicycle_pa":"rack","capacity":10,"covered":"yes","fee":"","operator":"","nameSource":"street"},"sourceId":"osm"},{"id":"osm:node:6635100644","latitude":52.9036376,"longitude":-1.1241944,"name":"Landmere Lane by Stormclad Home Improvements","properties":{"access":"permissive","bicycle_pa":"stands","capacity":8,"covered":"","fee":"","operator":"","nameSource":"landmark"},"sourceId":"osm"},{"id":"osm:node:6640362829","latitude":52.8849715,"longitude":-1.1421093,"name":"Mere Way cycle parking","properties":{"access":"private","bicycle_pa":"rack","capacity":10,"covered":"","fee":"","operator":"","nameSource":"street"},"sourceId":"osm"},{"id":"osm:node:8072067967","latitude":52.9022587,"longitude":-1.1208114,"name":"Melton Road near Landmere Lane","properties":{"access":"permissive","bicycle_pa":"rack","capacity":10,"covered":"partial","fee":"","operator":"","nameSource":"junction"},"sourceId":"osm"},{"id":"osm:node:8090580909","latitude":52.9025614,"longitude":-1.1204633,"name":"Landmere Lane near Melton Road","properties":{"access":"private","bicycle_pa":"stands","capacity":0,"covered":"yes","fee":"","operator":"","nameSource":"junction"},"sourceId":"osm"},{"id":"osm:node:8279189449","latitude":52.9020541,"longitude":-1.1223591,"name":"Zambra Court by Greggs","properties":{"access":"unknown","bicycle_pa":"stands","capacity":8,"covered":"yes","fee":"","operator":"","nameSource":"landmark"},"sourceId":"osm"},{"id":"osm:node:8279189450","latitude":52.9023072,"longitude":-1.1222032,"name":"Zambra Court near Landmere Lane","properties":{"access":"unknown","bicycle_pa":"stands","capacity":8,"covered":"yes","fee":"","operator":"","nameSource":"junction"},"sourceId":"osm"},{"id":"osm:node:9847788156","latitude":52.9023751,"longitude":-1.1231403,"name":"Zambra Court by Edwalton Manor Care Home","properties":{"access":"yes","bicycle_pa":"stands","capacity":8,"covered":"no","fee":"","operator":"","nameSource":"landmark"},"sourceId":"osm"},{"id":"osm:way:991211422","latitude":52.908439171428576,"longitude":-1.1250747714285716,"name":"Rose Way near Wheatcroft Drive","properties":{"access":"destination","bicycle_pa":"stands","capacity":40,"covered":"yes","fee":"","operator":"","nameSource":"junction"},"sourceId":"osm"}],"schemaVersion":2}
