{"key":"12/2035/1359","points":[{"id":"osm:node:10536863988","latitude":51.620621,"longitude":-1.1068219,"name":"Mill Stream near High Street","properties":{"access":"unknown","bicycle_pa":"wall_loops","capacity":2,"covered":"","fee":"","operator":"","nameSource":"junction"},"sourceId":"osm"},{"id":"osm:node:11561356719","latitude":51.6642799,"longitude":-1.0734093,"name":"Francis Brown Way near Lacey Crescent","properties":{"access":"unknown","bicycle_pa":"","capacity":0,"covered":"","fee":"","operator":"","nameSource":"junction"},"sourceId":"osm"},{"id":"osm:node:13066328072","latitude":51.6236713,"longitude":-1.1114977,"name":"Cheneys Piece near Bonners Mead","properties":{"access":"unknown","bicycle_pa":"stands","capacity":12,"covered":"no","fee":"","operator":"","nameSource":"junction"},"sourceId":"osm"},{"id":"osm:node:13066328073","latitude":51.6245748,"longitude":-1.11245,"name":"Lane Ness near Potash Mead","properties":{"access":"unknown","bicycle_pa":"stands","capacity":12,"covered":"no","fee":"","operator":"","nameSource":"junction"},"sourceId":"osm"},{"id":"osm:node:13066328074","latitude":51.6235888,"longitude":-1.1123324,"name":"Potash Mead near Bonners Mead","properties":{"access":"unknown","bicycle_pa":"stands","capacity":12,"covered":"no","fee":"","operator":"","nameSource":"junction"},"sourceId":"osm"}],"schemaVersion":2}
