{"key":"12/2035/1364","points":[{"id":"osm:node:10873567564","latitude":51.3958734,"longitude":-1.0640517,"name":"Recreation Road near Reading Road","properties":{"access":"unknown","bicycle_pa":"stands","capacity":6,"covered":"no","fee":"","operator":"","nameSource":"junction"},"sourceId":"osm"},{"id":"osm:node:2267958529","latitude":51.3773636,"longitude":-1.0642188,"name":"Heathfields near Victoria Road","properties":{"access":"unknown","bicycle_pa":"shed","capacity":0,"covered":"","fee":"","operator":"","nameSource":"junction"},"sourceId":"osm"},{"id":"osm:node:512534379","latitude":51.3547153,"longitude":-1.1158287,"name":"String Lane near Impstone Road","properties":{"access":"unknown","bicycle_pa":"","capacity":4,"covered":"","fee":"","operator":"","nameSource":"junction"},"sourceId":"osm"},{"id":"osm:node:6476717278","latitude":51.3769609,"longitude":-1.062627,"name":"King Street near Victoria Road","properties":{"access":"unknown","bicycle_pa":"stands","capacity":10,"covered":"no","fee":"no","operator":"","nameSource":"junction"},"sourceId":"osm"},{"id":"osm:node:6476717315","latitude":51.396738,"longitude":-1.0684372,"name":"Bland's Close by Burghfield Library","properties":{"access":"customers","bicycle_pa":"shed","capacity":50,"covered":"yes","fee":"no","operator":"","nameSource":"landmark"},"sourceId":"osm"},{"id":"osm:node:6540731211","latitude":51.3954501,"longitude":-1.0642647,"name":"Recreation Road near Reading Road","properties":{"access":"unknown","bicycle_pa":"stands","capacity":0,"covered":"","fee":"","operator":"","nameSource":"junction"},"sourceId":"osm"},{"id":"osm:node:6540731212","latitude":51.3969028,"longitude":-1.0700257,"name":"The Willink School cycle parking","properties":{"access":"unknown","bicycle_pa":"stands","capacity":0,"covered":"","fee":"","operator":"","nameSource":"landmark"},"sourceId":"osm"}],"schemaVersion":2}
