{"key":"12/2035/1367","points":[{"id":"osm:node:1976433561","latitude":51.2297395,"longitude":-1.1417319,"name":"Broadmere Road near Old Beggarwood Lane","properties":{"access":"unknown","bicycle_pa":"stands","capacity":0,"covered":"no","fee":"","operator":"","nameSource":"junction"},"sourceId":"osm"},{"id":"osm:node:290512978","latitude":51.227417,"longitude":-1.133741,"name":"Breadels Field near Coachroad Belt","properties":{"access":"unknown","bicycle_pa":"stands","capacity":8,"covered":"no","fee":"","operator":"","nameSource":"junction"},"sourceId":"osm"},{"id":"osm:node:317845347","latitude":51.2295663,"longitude":-1.1413229,"name":"Broadmere Road near Old Beggarwood Lane","properties":{"access":"unknown","bicycle_pa":"","capacity":0,"covered":"","fee":"","operator":"","nameSource":"junction"},"sourceId":"osm"},{"id":"osm:node:317846717","latitude":51.2296221,"longitude":-1.1420198,"name":"Broadmere Road near Candover Court","properties":{"access":"unknown","bicycle_pa":"stands","capacity":12,"covered":"no","fee":"","operator":"","nameSource":"junction"},"sourceId":"osm"},{"id":"osm:node:319114924","latitude":51.2262733,"longitude":-1.1399826,"name":"Arcadia Close Play Area cycle parking","properties":{"access":"unknown","bicycle_pa":"","capacity":0,"covered":"","fee":"","operator":"","nameSource":"street"},"sourceId":"osm"},{"id":"osm:node:5009501684","latitude":51.2298702,"longitude":-1.142464,"name":"Beggarwood Lane near Blue Hut Way","properties":{"access":"unknown","bicycle_pa":"rack","capacity":9,"covered":"no","fee":"","operator":"","nameSource":"junction"},"sourceId":"osm"},{"id":"osm:node:528617311","latitude":51.2337257,"longitude":-1.1347852,"name":"Long Cross Lane by Hatch Warren Community Centre","properties":{"access":"unknown","bicycle_pa":"","capacity":0,"covered":"","fee":"","operator":"","nameSource":"landmark"},"sourceId":"osm"}],"schemaVersion":2}
