{"key":"12/2035/1375","points":[{"id":"osm:node:10557396756","latitude":50.7909919,"longitude":-1.0764756,"name":"Addison Road near Norland Road","properties":{"access":"unknown","bicycle_pa":"shed","capacity":0,"covered":"","fee":"","operator":"","nameSource":"junction"},"sourceId":"osm"},{"id":"osm:node:12915540780","latitude":50.7864362,"longitude":-1.0593955,"name":"Adair Road near Highland Road","properties":{"access":"unknown","bicycle_pa":"rack","capacity":0,"covered":"","fee":"no","operator":"Portsmouth Council","nameSource":"junction"},"sourceId":"osm"},{"id":"osm:node:13822263031","latitude":50.7843428,"longitude":-1.0888065,"name":"Villiers Road near Palmerston Road","properties":{"access":"unknown","bicycle_pa":"stands","capacity":6,"covered":"no","fee":"","operator":"","nameSource":"junction"},"sourceId":"osm"},{"id":"osm:node:1391741462","latitude":50.7789414,"longitude":-1.0786651,"name":"Kirkstall Road near South Parade","properties":{"access":"unknown","bicycle_pa":"stands","capacity":10,"covered":"no","fee":"","operator":"","nameSource":"junction"},"sourceId":"osm"},{"id":"osm:node:1446111651","latitude":50.7822441,"longitude":-1.0597399,"name":"Esplanade near St George's Road","properties":{"access":"unknown","bicycle_pa":"stands","capacity":2,"covered":"no","fee":"","operator":"","nameSource":"junction"},"sourceId":"osm"},{"id":"osm:node:1446111656","latitude":50.7820932,"longitude":-1.0603354,"name":"Esplanade near St George's Road","properties":{"access":"unknown","bicycle_pa":"stands","capacity":2,"covered":"no","fee":"","operator":"","nameSource":"junction"},"sourceId":"osm"},{"id":"osm:node:1446111658","latitude":50.7827014,"longitude":-1.0580413,"name":"Esplanade cycle parking","properties":{"access":"unknown","bicycle_pa":"stands","capacity":2,"covered":"no","fee":"","operator":"","nameSource":"street"},"sourceId":"osm"},{"id":"osm:node:1446111660","latitude":50.7832947,"longitude":-1.0559768,"name":"Esplanade near Clocktower Drive","properties":{"access":"unknown","bicycle_pa":"stands","capacity":2,"covered":"no","fee":"","operator":"","nameSource":"junction"},"sourceId":"osm"},{"id":"osm:node:1446611126","latitude":50.7792992,"longitude":-1.0758669,"name":"Esplanade near St Helens Parade","properties":{"access":"unknown","bicycle_pa":"stands","capacity":2,"covered":"no","fee":"","operator":"","nameSource":"junction"},"sourceId":"osm"},{"id":"osm:node:1446611128","latitude":50.7822549,"longitude":-1.0702712,"name":"Eastern Parade near Festing Road","properties":{"access":"unknown","bicycle_pa":"","capacity":2,"covered":"no","fee":"","operator":"","nameSource":"junction"},"sourceId":"osm"},{"id":"osm:node:1446611130","latitude":50.7864457,"longitude":-1.0712349,"name":"Albert Road near Henley Road","properties":{"access":"unknown","bicycle_pa":"","capacity":10,"covered":"no","fee":"","operator":"","nameSource":"junction"},"sourceId":"osm"},{"id":"osm:node:1447306800","latitude":50.7798258,"longitude":-1.0899317,"name":"Clarence Esplanade cycle parking","properties":{"access":"unknown","bicycle_pa":"stands","capacity":20,"covered":"no","fee":"","operator":"","nameSource":"street"},"sourceId":"osm"},{"id":"osm:node:1447306802","latitude":50.7795005,"longitude":-1.0848381,"name":"Clarence Esplanade near Jack Cockerill Way","properties":{"access":"unknown","bicycle_pa":"stands","capacity":12,"covered":"no","fee":"","operator":"","nameSource":"junction"},"sourceId":"osm"},{"id":"osm:node:1447306805","latitude":50.7853732,"longitude":-1.0997381,"name":"Clarence Esplanade by Gelarto","properties":{"access":"unknown","bicycle_pa":"stands","capacity":6,"covered":"no","fee":"","operator":"","nameSource":"landmark"},"sourceId":"osm"},{"id":"osm:node:1453578399","latitude":50.7866648,"longitude":-1.0740213,"name":"Albert Road near Fawcett Road","properties":{"access":"unknown","bicycle_pa":"stands","capacity":2,"covered":"no","fee":"","operator":"","nameSource":"junction"},"sourceId":"osm"},{"id":"osm:node:1453578400","latitude":50.786696,"longitude":-1.0762987,"name":"Albert Road near Lawrence Road","properties":{"access":"unknown","bicycle_pa":"stands","capacity":8,"covered":"no","fee":"","operator":"","nameSource":"junction"},"sourceId":"osm"},{"id":"osm:node:1453578401","latitude":50.7867766,"longitude":-1.0737529,"name":"Albert Road near Fawcett Road","properties":{"access":"unknown","bicycle_pa":"stands","capacity":2,"covered":"no","fee":"","operator":"","nameSource":"junction"},"sourceId":"osm"},{"id":"osm:node:1453578402","latitude":50.7868033,"longitude":-1.074027,"name":"Albert Road near Fawcett Road","properties":{"access":"unknown","bicycle_pa":"stands","capacity":8,"covered":"no","fee":"","operator":"","nameSource":"junction"},"sourceId":"osm"},{"id":"osm:node:1453578403","latitude":50.7868308,"longitude":-1.0792059,"name":"Albert Road near Napier Road","properties":{"access":"unknown","bicycle_pa":"stands","capacity":6,"covered":"no","fee":"","operator":"","nameSource":"junction"},"sourceId":"osm"},{"id":"osm:node:1454711123","latitude":50.7862188,"longitude":-1.0695786,"name":"Highland Road near Saint Augustine Road","properties":{"access":"unknown","bicycle_pa":"stands","capacity":6,"covered":"no","fee":"","operator":"","nameSource":"junction"},"sourceId":"osm"},{"id":"osm:node:1455173554","latitude":50.7913794,"longitude":-1.0762488,"name":"Fawcett Road near Heyward Road","properties":{"access":"unknown","bicycle_pa":"","capacity":2,"covered":"no","fee":"","operator":"","nameSource":"junction"},"sourceId":"osm"},{"id":"osm:node:1456328050","latitude":50.7854918,"longitude":-1.088392,"name":"Stanley Street near Palmerston Road","properties":{"access":"unknown","bicycle_pa":"stands","capacity":2,"covered":"no","fee":"","operator":"","nameSource":"junction"},"sourceId":"osm"},{"id":"osm:node:1456328051","latitude":50.7850051,"longitude":-1.0886373,"name":"Palmerston Road near Clarendon Road","properties":{"access":"unknown","bicycle_pa":"stands","capacity":24,"covered":"no","fee":"","operator":"","nameSource":"junction"},"sourceId":"osm"},{"id":"osm:node:1456328053","latitude":50.7864262,"longitude":-1.0880849,"name":"Palmerston Road near Kent Road","properties":{"access":"unknown","bicycle_pa":"stands","capacity":42,"covered":"no","fee":"","operator":"","nameSource":"junction"},"sourceId":"osm"},{"id":"osm:node:1457547758","latitude":50.7911669,"longitude":-1.0550653,"name":"Eastney Road near Kingsley Road","properties":{"access":"unknown","bicycle_pa":"","capacity":2,"covered":"no","fee":"","operator":"","nameSource":"junction"},"sourceId":"osm"},{"id":"osm:node:1457547763","latitude":50.790451,"longitude":-1.0551567,"name":"Eastney Road near Suffolk Road","properties":{"access":"unknown","bicycle_pa":"stands","capacity":6,"covered":"no","fee":"","operator":"","nameSource":"junction"},"sourceId":"osm"},{"id":"osm:node:1463818034","latitude":50.7899633,"longitude":-1.0552695,"name":"Eastney Road near Devonshire Avenue","properties":{"access":"unknown","bicycle_pa":"stands","capacity":6,"covered":"no","fee":"","operator":"","nameSource":"junction"},"sourceId":"osm"},{"id":"osm:node:1465307513","latitude":50.7860228,"longitude":-1.0871994,"name":"Richmond Place near Marmion Road","properties":{"access":"unknown","bicycle_pa":"stands","capacity":20,"covered":"no","fee":"","operator":"","nameSource":"junction"},"sourceId":"osm"},{"id":"osm:node:1474442876","latitude":50.7859168,"longitude":-1.0862444,"name":"Marmion Road near Friary Close","properties":{"access":"unknown","bicycle_pa":"stands","capacity":4,"covered":"no","fee":"","operator":"","nameSource":"junction"},"sourceId":"osm"},{"id":"osm:node:1474442878","latitude":50.7855,"longitude":-1.0872546,"name":"Stanley Lane near Richmond Place","properties":{"access":"unknown","bicycle_pa":"stands","capacity":12,"covered":"no","fee":"","operator":"","nameSource":"junction"},"sourceId":"osm"},{"id":"osm:node:1474442879","latitude":50.7857413,"longitude":-1.0864455,"name":"Friary Close near Marmion Road","properties":{"access":"unknown","bicycle_pa":"stands","capacity":2,"covered":"no","fee":"","operator":"","nameSource":"junction"},"sourceId":"osm"},{"id":"osm:node:1474442880","latitude":50.785659,"longitude":-1.0863503,"name":"Friary Close near Marmion Road","properties":{"access":"unknown","bicycle_pa":"stands","capacity":2,"covered":"no","fee":"","operator":"","nameSource":"junction"},"sourceId":"osm"},{"id":"osm:node:1474442882","latitude":50.785615,"longitude":-1.0864321,"name":"Friary Close near Marmion Road","properties":{"access":"unknown","bicycle_pa":"stands","capacity":10,"covered":"no","fee":"","operator":"","nameSource":"junction"},"sourceId":"osm"},{"id":"osm:node:1484006412","latitude":50.7858226,"longitude":-1.1002433,"name":"Clarence Esplanade by Southsea Street Food","properties":{"access":"unknown","bicycle_pa":"stands","capacity":16,"covered":"no","fee":"","operator":"","nameSource":"landmark"},"sourceId":"osm"},{"id":"osm:node:1484041334","latitude":50.7851732,"longitude":-1.0920048,"name":"Clifton Road near Osborne Road","properties":{"access":"unknown","bicycle_pa":"stands","capacity":4,"covered":"no","fee":"","operator":"","nameSource":"junction"},"sourceId":"osm"},{"id":"osm:node:1486123848","latitude":50.7885497,"longitude":-1.0824397,"name":"Albert Road near Victoria Road South","properties":{"access":"unknown","bicycle_pa":"stands","capacity":4,"covered":"no","fee":"","operator":"","nameSource":"junction"},"sourceId":"osm"},{"id":"osm:node:1490256575","latitude":50.789873,"longitude":-1.0930955,"name":"Chapel Street near Great Southsea Street","properties":{"access":"unknown","bicycle_pa":"","capacity":4,"covered":"no","fee":"","operator":"","nameSource":"junction"},"sourceId":"osm"},{"id":"osm:node:1490256576","latitude":50.7897747,"longitude":-1.0931237,"name":"Chapel Street near Great Southsea Street","properties":{"access":"unknown","bicycle_pa":"","capacity":4,"covered":"no","fee":"","operator":"","nameSource":"junction"},"sourceId":"osm"},{"id":"osm:node:1496776932","latitude":50.7867918,"longitude":-1.0789693,"name":"Albert Road near Napier Road","properties":{"access":"unknown","bicycle_pa":"","capacity":4,"covered":"no","fee":"","operator":"","nameSource":"junction"},"sourceId":"osm"},{"id":"osm:node:1496776933","latitude":50.7873591,"longitude":-1.0811155,"name":"Albert Grove near Albert Road","properties":{"access":"unknown","bicycle_pa":"stands","capacity":4,"covered":"no","fee":"","operator":"","nameSource":"junction"},"sourceId":"osm"},{"id":"osm:node:1496776936","latitude":50.7876545,"longitude":-1.0816197,"name":"Albert Road near Exmouth Road","properties":{"access":"unknown","bicycle_pa":"stands","capacity":4,"covered":"no","fee":"","operator":"","nameSource":"junction"},"sourceId":"osm"},{"id":"osm:node:1496776937","latitude":50.7894713,"longitude":-1.0836192,"name":"Elm Grove near St Andrews Road","properties":{"access":"unknown","bicycle_pa":"","capacity":2,"covered":"no","fee":"","operator":"","nameSource":"junction"},"sourceId":"osm"},{"id":"osm:node:1496776938","latitude":50.7900929,"longitude":-1.0871276,"name":"Elm Grove near Woodpath","properties":{"access":"unknown","bicycle_pa":"stands","capacity":2,"covered":"no","fee":"","operator":"","nameSource":"junction"},"sourceId":"osm"},{"id":"osm:node:1496776939","latitude":50.7903052,"longitude":-1.0889597,"name":"Elm Grove near Yarborough Road","properties":{"access":"unknown","bicycle_pa":"stands","capacity":4,"covered":"no","fee":"","operator":"","nameSource":"junction"},"sourceId":"osm"},{"id":"osm:node:1496776940","latitude":50.7903241,"longitude":-1.0884689,"name":"Elm Grove near Pelham Road","properties":{"access":"unknown","bicycle_pa":"stands","capacity":1,"covered":"no","fee":"","operator":"","nameSource":"junction"},"sourceId":"osm"},{"id":"osm:node:1497928961","latitude":50.7869529,"longitude":-1.0801442,"name":"Albert Road near Chelsea Road","properties":{"access":"unknown","bicycle_pa":"stands","capacity":2,"covered":"no","fee":"","operator":"","nameSource":"junction"},"sourceId":"osm"},{"id":"osm:node:1497928968","latitude":50.7874703,"longitude":-1.0816049,"name":"Albert Road near Exmouth Road","properties":{"access":"unknown","bicycle_pa":"stands","capacity":4,"covered":"no","fee":"","operator":"","nameSource":"junction"},"sourceId":"osm"},{"id":"osm:node:1497928969","latitude":50.7868543,"longitude":-1.078733,"name":"Albert Road near Oxford Road","properties":{"access":"unknown","bicycle_pa":"stands","capacity":2,"covered":"no","fee":"","operator":"","nameSource":"junction"},"sourceId":"osm"},{"id":"osm:node:1497928972","latitude":50.7875362,"longitude":-1.0814423,"name":"Albert Road near Exmouth Road","properties":{"access":"unknown","bicycle_pa":"stands","capacity":4,"covered":"no","fee":"","operator":"","nameSource":"junction"},"sourceId":"osm"},{"id":"osm:node:1506902163","latitude":50.7899503,"longitude":-1.080586,"name":"St Bartholomew's Gardens near Campbell Road","properties":{"access":"unknown","bicycle_pa":"","capacity":2,"covered":"no","fee":"","operator":"","nameSource":"junction"},"sourceId":"osm"},{"id":"osm:node:1514083231","latitude":50.7871859,"longitude":-1.0743454,"name":"Fawcett Road near Wyndcliffe Road","properties":{"access":"unknown","bicycle_pa":"","capacity":2,"covered":"no","fee":"","operator":"","nameSource":"junction"},"sourceId":"osm"},{"id":"osm:node:1530925469","latitude":50.7917057,"longitude":-1.0975612,"name":"Museum Road by City Museum","properties":{"access":"unknown","bicycle_pa":"stands","capacity":12,"covered":"no","fee":"","operator":"","nameSource":"landmark"},"sourceId":"osm"},{"id":"osm:node:1534823731","latitude":50.786696,"longitude":-1.0596728,"name":"Highland Road near Priory Road","properties":{"access":"unknown","bicycle_pa":"","capacity":2,"covered":"no","fee":"","operator":"","nameSource":"junction"},"sourceId":"osm"},{"id":"osm:node:1543117182","latitude":50.7906671,"longitude":-1.055194,"name":"Eastney Road near Glasgow Road","properties":{"access":"unknown","bicycle_pa":"stands","capacity":8,"covered":"yes","fee":"","operator":"","nameSource":"junction"},"sourceId":"osm"},{"id":"osm:node:1556266415","latitude":50.780328,"longitude":-1.0676637,"name":"Esplanade cycle parking","properties":{"access":"unknown","bicycle_pa":"stands","capacity":2,"covered":"no","fee":"","operator":"","nameSource":"street"},"sourceId":"osm"},{"id":"osm:node:1597689048","latitude":50.788307,"longitude":-1.0827216,"name":"Victoria Road South near Albert Road","properties":{"access":"unknown","bicycle_pa":"","capacity":2,"covered":"no","fee":"","operator":"","nameSource":"junction"},"sourceId":"osm"},{"id":"osm:node:1642386676","latitude":50.7863621,"longitude":-1.0582644,"name":"Eastney Street near Kassassin Street","properties":{"access":"unknown","bicycle_pa":"","capacity":4,"covered":"no","fee":"","operator":"","nameSource":"junction"},"sourceId":"osm"},{"id":"osm:node:1658413829","latitude":50.7792876,"longitude":-1.0846836,"name":"Clarence Esplanade near Jack Cockerill Way","properties":{"access":"unknown","bicycle_pa":"stands","capacity":16,"covered":"no","fee":"","operator":"","nameSource":"junction"},"sourceId":"osm"},{"id":"osm:node:1764519054","latitude":50.7848223,"longitude":-1.0887972,"name":"Clarendon Road near Palmerston Road","properties":{"access":"unknown","bicycle_pa":"stands","capacity":5,"covered":"no","fee":"","operator":"","nameSource":"junction"},"sourceId":"osm"},{"id":"osm:node:1786641288","latitude":50.7917538,"longitude":-1.104995,"name":"White Hart Road near Oyster Mews","properties":{"access":"unknown","bicycle_pa":"","capacity":4,"covered":"no","fee":"","operator":"","nameSource":"junction"},"sourceId":"osm"},{"id":"osm:node:1804404808","latitude":50.7894126,"longitude":-1.106716,"name":"Millennium Promenade cycle parking","properties":{"access":"unknown","bicycle_pa":"","capacity":10,"covered":"yes","fee":"","operator":"","nameSource":"street"},"sourceId":"osm"},{"id":"osm:node:1804404809","latitude":50.789622,"longitude":-1.1069346,"name":"Millennium Promenade cycle parking","properties":{"access":"unknown","bicycle_pa":"","capacity":10,"covered":"yes","fee":"","operator":"","nameSource":"street"},"sourceId":"osm"},{"id":"osm:node:1808232033","latitude":50.7917015,"longitude":-1.1060667,"name":"East Street by Bridge Tavern","properties":{"access":"unknown","bicycle_pa":"","capacity":6,"covered":"no","fee":"","operator":"","nameSource":"landmark"},"sourceId":"osm"},{"id":"osm:node:1974854267","latitude":50.7835271,"longitude":-1.0887905,"name":"Auckland Road East near Palmerston Road","properties":{"access":"unknown","bicycle_pa":"stands","capacity":2,"covered":"no","fee":"","operator":"","nameSource":"junction"},"sourceId":"osm"},{"id":"osm:node:1974854268","latitude":50.7833008,"longitude":-1.0888004,"name":"Palmerston Road near Auckland Road West","properties":{"access":"unknown","bicycle_pa":"stands","capacity":2,"covered":"no","fee":"","operator":"","nameSource":"junction"},"sourceId":"osm"},{"id":"osm:node:1982094411","latitude":50.7833679,"longitude":-1.0887971,"name":"Palmerston Road near Auckland Road West","properties":{"access":"unknown","bicycle_pa":"stands","capacity":2,"covered":"no","fee":"","operator":"","nameSource":"junction"},"sourceId":"osm"},{"id":"osm:node:2014020696","latitude":50.7805855,"longitude":-1.0933353,"name":"Clarence Esplanade near Serpentine Road","properties":{"access":"unknown","bicycle_pa":"stands","capacity":4,"covered":"no","fee":"","operator":"","nameSource":"junction"},"sourceId":"osm"},{"id":"osm:node:2014020701","latitude":50.7798011,"longitude":-1.0893818,"name":"Clarence Esplanade near Avenue De Caen","properties":{"access":"unknown","bicycle_pa":"stands","capacity":6,"covered":"no","fee":"","operator":"","nameSource":"junction"},"sourceId":"osm"},{"id":"osm:node:2014020706","latitude":50.7804769,"longitude":-1.0923865,"name":"Clarence Esplanade by Rock n Sole","properties":{"access":"unknown","bicycle_pa":"stands","capacity":4,"covered":"no","fee":"","operator":"","nameSource":"landmark"},"sourceId":"osm"},{"id":"osm:node:2014075755","latitude":50.7902322,"longitude":-1.1044245,"name":"High Street near Pembroke Road","properties":{"access":"unknown","bicycle_pa":"stands","capacity":8,"covered":"no","fee":"","operator":"","nameSource":"junction"},"sourceId":"osm"},{"id":"osm:node:2037968948","latitude":50.7851518,"longitude":-1.0917437,"name":"Elphinstone Road near Osborne Road","properties":{"access":"unknown","bicycle_pa":"stands","capacity":2,"covered":"no","fee":"","operator":"","nameSource":"junction"},"sourceId":"osm"},{"id":"osm:node:2256024340","latitude":50.7910911,"longitude":-1.0950341,"name":"Kings Road near Flint Street","properties":{"access":"unknown","bicycle_pa":"stands","capacity":2,"covered":"no","fee":"","operator":"","nameSource":"junction"},"sourceId":"osm"},{"id":"osm:node:2525542497","latitude":50.7799119,"longitude":-1.070708,"name":"Esplanade cycle parking","properties":{"access":"unknown","bicycle_pa":"stands","capacity":2,"covered":"no","fee":"","operator":"","nameSource":"street"},"sourceId":"osm"},{"id":"osm:node:2778002439","latitude":50.7804968,"longitude":-1.0898467,"name":"Clarence Esplanade by The Little Tea House","properties":{"access":"unknown","bicycle_pa":"stands","capacity":4,"covered":"no","fee":"","operator":"","nameSource":"landmark"},"sourceId":"osm"},{"id":"osm:node:2778002451","latitude":50.7807496,"longitude":-1.0910983,"name":"Clarence Esplanade by Southsea Tennis Club Cafe","properties":{"access":"unknown","bicycle_pa":"stands","capacity":4,"covered":"no","fee":"","operator":"","nameSource":"landmark"},"sourceId":"osm"},{"id":"osm:node:2996402972","latitude":50.7794365,"longitude":-1.1318862,"name":"Military Road by Gosport and Stokes Bay Golf Club","properties":{"access":"customers","bicycle_pa":"wall_loops","capacity":4,"covered":"no","fee":"","operator":"","nameSource":"landmark"},"sourceId":"osm"},{"id":"osm:node:3188382445","latitude":50.7835543,"longitude":-1.0802419,"name":"Taswell Road by Wimbledon Park Sports Centre","properties":{"access":"unknown","bicycle_pa":"stands","capacity":4,"covered":"no","fee":"","operator":"","nameSource":"landmark"},"sourceId":"osm"},{"id":"osm:node:3463019406","latitude":50.7848577,"longitude":-1.0889711,"name":"Osborne Road near Palmerston Road","properties":{"access":"unknown","bicycle_pa":"stands","capacity":5,"covered":"no","fee":"","operator":"","nameSource":"junction"},"sourceId":"osm"},{"id":"osm:node:3503385700","latitude":50.7861383,"longitude":-1.0696,"name":"Highland Road near Saint Augustine Road","properties":{"access":"unknown","bicycle_pa":"stands","capacity":6,"covered":"no","fee":"","operator":"","nameSource":"junction"},"sourceId":"osm"},{"id":"osm:node:3690310169","latitude":50.7795855,"longitude":-1.0869205,"name":"Clarence Esplanade cycle parking","properties":{"access":"unknown","bicycle_pa":"stands","capacity":20,"covered":"no","fee":"","operator":"","nameSource":"street"},"sourceId":"osm"},{"id":"osm:node:3752221353","latitude":50.7865969,"longitude":-1.0617974,"name":"Highland Road near Ward Road","properties":{"access":"unknown","bicycle_pa":"stands","capacity":6,"covered":"no","fee":"","operator":"","nameSource":"junction"},"sourceId":"osm"},{"id":"osm:node:4199100265","latitude":50.785326,"longitude":-1.0881038,"name":"Stanley Street near Palmerston Road","properties":{"access":"unknown","bicycle_pa":"stands","capacity":8,"covered":"no","fee":"","operator":"","nameSource":"junction"},"sourceId":"osm"},{"id":"osm:node:4352578574","latitude":50.7875996,"longitude":-1.0817222,"name":"Albert Road near Exmouth Road","properties":{"access":"unknown","bicycle_pa":"stands","capacity":4,"covered":"no","fee":"","operator":"","nameSource":"junction"},"sourceId":"osm"},{"id":"osm:node:4673702600","latitude":50.7864328,"longitude":-1.071906,"name":"Albert Road near Henley Road","properties":{"access":"unknown","bicycle_pa":"stands","capacity":10,"covered":"no","fee":"","operator":"","nameSource":"junction"},"sourceId":"osm"},{"id":"osm:node:4816542585","latitude":50.7836149,"longitude":-1.0978938,"name":"The Beach Club cycle parking","properties":{"access":"unknown","bicycle_pa":"stands","capacity":6,"covered":"no","fee":"","operator":"","nameSource":"landmark"},"sourceId":"osm"},{"id":"osm:node:5727776578","latitude":50.779326,"longitude":-1.0771981,"name":"South Parade near Clarendon Road","properties":{"access":"unknown","bicycle_pa":"stands","capacity":10,"covered":"no","fee":"","operator":"","nameSource":"junction"},"sourceId":"osm"},{"id":"osm:node:5959965683","latitude":50.7814726,"longitude":-1.0697137,"name":"Eastern Parade by Cafe Fresco","properties":{"access":"unknown","bicycle_pa":"stands","capacity":10,"covered":"no","fee":"","operator":"","nameSource":"landmark"},"sourceId":"osm"},{"id":"osm:node:5961551544","latitude":50.7899881,"longitude":-1.1074266,"name":"Broad Street near Feltham Row","properties":{"access":"unknown","bicycle_pa":"stands","capacity":40,"covered":"yes","fee":"","operator":"","nameSource":"junction"},"sourceId":"osm"},{"id":"osm:node:7123115974","latitude":50.7824342,"longitude":-1.0588968,"name":"Esplanade by Coffee Cup","properties":{"access":"unknown","bicycle_pa":"stands","capacity":8,"covered":"no","fee":"","operator":"","nameSource":"landmark"},"sourceId":"osm"},{"id":"osm:node:7123115975","latitude":50.782266,"longitude":-1.0592363,"name":"Esplanade by Coffee Cup","properties":{"access":"unknown","bicycle_pa":"wall_loops","capacity":4,"covered":"no","fee":"","operator":"","nameSource":"landmark"},"sourceId":"osm"},{"id":"osm:node:8892331598","latitude":50.7895453,"longitude":-1.0584478,"name":"Eastfield Road near Prince Albert Road","properties":{"access":"unknown","bicycle_pa":"","capacity":0,"covered":"","fee":"","operator":"","nameSource":"junction"},"sourceId":"osm"},{"id":"osm:node:9932377047","latitude":50.7798504,"longitude":-1.0732108,"name":"Esplanade near The Ocean at the End of the Lane","properties":{"access":"unknown","bicycle_pa":"stands","capacity":6,"covered":"no","fee":"","operator":"","nameSource":"junction"},"sourceId":"osm"},{"id":"osm:way:435676194","latitude":50.782549960000004,"longitude":-1.07878574,"name":"Waverley Road near St Simon's Road","properties":{"access":"unknown","bicycle_pa":"stands","capacity":7,"covered":"no","fee":"","operator":"","nameSource":"junction"},"sourceId":"osm"},{"id":"osm:way:496359815","latitude":50.78587196,"longitude":-1.12951734,"name":"Shepheard's Way near Webbers Way","properties":{"access":"private","bicycle_pa":"","capacity":0,"covered":"","fee":"","operator":"","nameSource":"junction"},"sourceId":"osm"},{"id":"osm:way:522614224","latitude":50.787487366666674,"longitude":-1.09484385,"name":"Western Parade near Kent Road","properties":{"access":"unknown","bicycle_pa":"stands","capacity":8,"covered":"yes","fee":"","operator":"","nameSource":"junction"},"sourceId":"osm"}],"schemaVersion":2}
