{"key":"12/2035/1579","points":[{"id":"osm:node:11401161228","latitude":37.9961759,"longitude":-1.1383662,"name":"Calle Ortega y Gasset near Paseo Ramón Gaya","properties":{"access":"yes","bicycle_pa":"bollard","capacity":10,"covered":"no","fee":"no","operator":"","nameSource":"junction"},"sourceId":"osm"},{"id":"osm:node:11401161229","latitude":37.9968186,"longitude":-1.1385713,"name":"Plaza de Valladolid near Avenida de los Pinos","properties":{"access":"yes","bicycle_pa":"stands","capacity":10,"covered":"no","fee":"no","operator":"","nameSource":"junction"},"sourceId":"osm"},{"id":"osm:node:12208658494","latitude":37.999771,"longitude":-1.1383005,"name":"Avenida Juan Carlos I near Calle Alfonso Palazón Clemares","properties":{"access":"unknown","bicycle_pa":"stands","capacity":12,"covered":"","fee":"","operator":"","nameSource":"junction"},"sourceId":"osm"},{"id":"osm:node:12208658495","latitude":38.0004909,"longitude":-1.1375865,"name":"Paseo Joaquín Garrigues Walker near Plaza Dentistas Murcianos","properties":{"access":"unknown","bicycle_pa":"stands","capacity":6,"covered":"no","fee":"","operator":"","nameSource":"junction"},"sourceId":"osm"},{"id":"osm:node:13667444115","latitude":37.9990163,"longitude":-1.1389405,"name":"Calle Alfonso Palazón Clemares near Calle Profesor Antonio de Hoyos","properties":{"access":"unknown","bicycle_pa":"stands","capacity":6,"covered":"","fee":"","operator":"","nameSource":"junction"},"sourceId":"osm"},{"id":"osm:node:13667444119","latitude":38.0023892,"longitude":-1.1369726,"name":"Calle Violonchelista Miguel Ángel Clares near Paseo Regulares de Melilla","properties":{"access":"unknown","bicycle_pa":"stands","capacity":8,"covered":"","fee":"","operator":"","nameSource":"junction"},"sourceId":"osm"},{"id":"osm:node:13667444126","latitude":38.0007985,"longitude":-1.137477,"name":"Paseo Joaquín Garrigues Walker near Plaza Dentistas Murcianos","properties":{"access":"unknown","bicycle_pa":"stands","capacity":6,"covered":"no","fee":"","operator":"","nameSource":"junction"},"sourceId":"osm"},{"id":"osm:node:13670113582","latitude":37.9987966,"longitude":-1.1392852,"name":"Calle Alfonso Palazón Clemares near Calle Profesor Antonio de Hoyos","properties":{"access":"unknown","bicycle_pa":"stands","capacity":6,"covered":"","fee":"","operator":"","nameSource":"junction"},"sourceId":"osm"},{"id":"osm:node:2303118841","latitude":37.9971961,"longitude":-1.1312912,"name":"Avenida Marqués de los Vélez near Avenida Abenarabi","properties":{"access":"unknown","bicycle_pa":"stands","capacity":0,"covered":"","fee":"","operator":"","nameSource":"junction"},"sourceId":"osm"},{"id":"osm:node:2340543121","latitude":38.020332,"longitude":-1.138485,"name":"Avenida Maestra Soledad Gallego cycle parking","properties":{"access":"unknown","bicycle_pa":"wall_loops","capacity":7,"covered":"","fee":"","operator":"","nameSource":"street"},"sourceId":"osm"},{"id":"osm:node:2340543130","latitude":37.997494,"longitude":-1.13525,"name":"Calle Infanta Cristina near Avenida Juan Carlos I","properties":{"access":"unknown","bicycle_pa":"stands","capacity":10,"covered":"","fee":"","operator":"","nameSource":"junction"},"sourceId":"osm"},{"id":"osm:node:2340543131","latitude":37.998516,"longitude":-1.136229,"name":"Calle Reina Sofía near Avenida Juan Carlos I","properties":{"access":"unknown","bicycle_pa":"stands","capacity":10,"covered":"","fee":"","operator":"","nameSource":"junction"},"sourceId":"osm"},{"id":"osm:node:2340543132","latitude":37.9986332,"longitude":-1.1371487,"name":"Avenida Juan Carlos I near Calle Víctimas del Terrorismo","properties":{"access":"unknown","bicycle_pa":"stands","capacity":10,"covered":"","fee":"","operator":"","nameSource":"junction"},"sourceId":"osm"},{"id":"osm:node:2340543133","latitude":37.9988993,"longitude":-1.1373944,"name":"Avenida Juan Carlos I near Calle Azarbe del Papel","properties":{"access":"unknown","bicycle_pa":"stands","capacity":10,"covered":"no","fee":"","operator":"","nameSource":"junction"},"sourceId":"osm"},{"id":"osm:node:2340543140","latitude":38.003128,"longitude":-1.129221,"name":"Avenida Don Juan de Borbón cycle parking","properties":{"access":"unknown","bicycle_pa":"stands","capacity":0,"covered":"no","fee":"","operator":"","nameSource":"street"},"sourceId":"osm"},{"id":"osm:node:2340543200","latitude":38.003288,"longitude":-1.141934,"name":"Calle Pintor Molina Sánchez by MUyBICI: JCI- Senda de Granada","properties":{"access":"unknown","bicycle_pa":"stands","capacity":4,"covered":"","fee":"","operator":"","nameSource":"landmark"},"sourceId":"osm"},{"id":"osm:node:2344592053","latitude":38.004181,"longitude":-1.1338819,"name":"Calle Santa Bárbara near Carretera de Churra","properties":{"access":"unknown","bicycle_pa":"stands","capacity":0,"covered":"no","fee":"","operator":"","nameSource":"junction"},"sourceId":"osm"},{"id":"osm:node:2461632931","latitude":37.9978682,"longitude":-1.1374519,"name":"Calle Víctimas del Terrorismo cycle parking","properties":{"access":"unknown","bicycle_pa":"stands","capacity":10,"covered":"no","fee":"","operator":"","nameSource":"street"},"sourceId":"osm"},{"id":"osm:node:2622506353","latitude":37.9980907,"longitude":-1.1396115,"name":"Calle Alfonso Palazón Clemares near Calle San Antonio","properties":{"access":"unknown","bicycle_pa":"shed","capacity":20,"covered":"yes","fee":"","operator":"","nameSource":"junction"},"sourceId":"osm"},{"id":"osm:node:2654248812","latitude":37.9962482,"longitude":-1.1246667,"name":"Paseo Ingeniero Sebastián Feringán by Jardin Isidoro Valcárcel Medina","properties":{"access":"unknown","bicycle_pa":"stands","capacity":0,"covered":"","fee":"","operator":"","nameSource":"landmark"},"sourceId":"osm"},{"id":"osm:node:2654248813","latitude":37.9973468,"longitude":-1.1301996,"name":"Avenida Abenarabi near Calle Virgen de la Soledad","properties":{"access":"unknown","bicycle_pa":"stands","capacity":0,"covered":"","fee":"","operator":"","nameSource":"junction"},"sourceId":"osm"},{"id":"osm:node:2654248814","latitude":37.9982136,"longitude":-1.1227802,"name":"Calle Jorge Juan near Paseo Marinero Luis de Torres","properties":{"access":"unknown","bicycle_pa":"stands","capacity":0,"covered":"","fee":"","operator":"","nameSource":"junction"},"sourceId":"osm"},{"id":"osm:node:2654248815","latitude":37.9988694,"longitude":-1.1340865,"name":"Avenida de Europa cycle parking","properties":{"access":"unknown","bicycle_pa":"stands","capacity":0,"covered":"","fee":"","operator":"","nameSource":"street"},"sourceId":"osm"},{"id":"osm:node:2654248816","latitude":37.9992248,"longitude":-1.123282,"name":"Calle Guerreros near Avenida Almirante Loaysa","properties":{"access":"unknown","bicycle_pa":"stands","capacity":0,"covered":"","fee":"","operator":"","nameSource":"junction"},"sourceId":"osm"},{"id":"osm:node:2654248817","latitude":37.9992493,"longitude":-1.1378709,"name":"Calle Alfonso Palazón Clemares near Avenida Juan Carlos I","properties":{"access":"unknown","bicycle_pa":"stands","capacity":0,"covered":"","fee":"","operator":"","nameSource":"junction"},"sourceId":"osm"},{"id":"osm:node:2654248818","latitude":38.0007159,"longitude":-1.1345621,"name":"Avenida de Europa cycle parking","properties":{"access":"permissive","bicycle_pa":"stands","capacity":10,"covered":"no","fee":"","operator":"http://www.oficinabicicletamurcia.info","nameSource":"street"},"sourceId":"osm"},{"id":"osm:node:2744558245","latitude":38.0044635,"longitude":-1.131283,"name":"Calle Miguel Vivancos near Avenida Embajador Inocencio Arias","properties":{"access":"unknown","bicycle_pa":"stands","capacity":6,"covered":"","fee":"","operator":"","nameSource":"junction"},"sourceId":"osm"},{"id":"osm:node:2793289361","latitude":37.9982783,"longitude":-1.1263194,"name":"Avenida Don Juan de Borbón near Avenida Almirante Loaysa","properties":{"access":"unknown","bicycle_pa":"stands","capacity":6,"covered":"","fee":"","operator":"","nameSource":"junction"},"sourceId":"osm"},{"id":"osm:node:2918445710","latitude":38.0213388,"longitude":-1.138001,"name":"Calle Julio Cortázar near Calle San José","properties":{"access":"unknown","bicycle_pa":"stands","capacity":8,"covered":"no","fee":"","operator":"","nameSource":"junction"},"sourceId":"osm"},{"id":"osm:node:3615444477","latitude":38.0174725,"longitude":-1.136882,"name":"Avenida Don Juan de Borbón near Calle Mayor","properties":{"access":"private","bicycle_pa":"shed","capacity":20,"covered":"yes","fee":"","operator":"","nameSource":"junction"},"sourceId":"osm"},{"id":"osm:node:4843589094","latitude":38.0069634,"longitude":-1.0699015,"name":"Avenida Río Segura near Calle Reina Sofía","properties":{"access":"unknown","bicycle_pa":"stands","capacity":10,"covered":"no","fee":"","operator":"http://www.oficinabicicletamurcia.com/","nameSource":"junction"},"sourceId":"osm"},{"id":"osm:node:4843597107","latitude":38.0055521,"longitude":-1.0706895,"name":"Calle Sol near Calle Mayor","properties":{"access":"permissive","bicycle_pa":"stands","capacity":6,"covered":"no","fee":"","operator":"http://www.oficinabicicletamurcia.com/","nameSource":"junction"},"sourceId":"osm"},{"id":"osm:node:4855472711","latitude":37.9974209,"longitude":-1.1002305,"name":"Calle Esperanza near Calle Jardín Aljada","properties":{"access":"permissive","bicycle_pa":"stands","capacity":6,"covered":"no","fee":"","operator":"http://www.oficinabicicletamurcia.info/","nameSource":"junction"},"sourceId":"osm"},{"id":"osm:node:4855518571","latitude":38.0009043,"longitude":-1.1346463,"name":"Avenida de Europa cycle parking","properties":{"access":"permissive","bicycle_pa":"stands","capacity":10,"covered":"no","fee":"","operator":"http://www.oficinabicicletamurcia.info","nameSource":"street"},"sourceId":"osm"},{"id":"osm:way:378112179","latitude":38.002698560000006,"longitude":-1.13661258,"name":"Bicicletas","properties":{"access":"unknown","bicycle_pa":"","capacity":0,"covered":"","fee":"","operator":"","nameSource":"source"},"sourceId":"osm"}],"schemaVersion":2}
