{"key":"12/2075/1527","points":[{"id":"osm:node:10775847767","latitude":41.5405153,"longitude":2.4393537,"name":"Carrer de Francesc Milans near Carrer del músic Jaume Isern","properties":{"access":"unknown","bicycle_pa":"","capacity":0,"covered":"","fee":"","operator":"","nameSource":"junction"},"sourceId":"osm"},{"id":"osm:node:10775880826","latitude":41.540475,"longitude":2.437672,"name":"Carrer del músic Jaume Isern near Carrer de Fray Luis de León","properties":{"access":"unknown","bicycle_pa":"","capacity":0,"covered":"","fee":"","operator":"","nameSource":"junction"},"sourceId":"osm"},{"id":"osm:node:11133516798","latitude":41.5411642,"longitude":2.4363661,"name":"Camí de la Geganta near Aparcament Plaça de Granollers","properties":{"access":"unknown","bicycle_pa":"","capacity":0,"covered":"","fee":"","operator":"","nameSource":"junction"},"sourceId":"osm"},{"id":"osm:node:11699884843","latitude":41.5353451,"longitude":2.4420304,"name":"Avinguda Jaume Recoder near Camí Ral","properties":{"access":"unknown","bicycle_pa":"stands","capacity":10,"covered":"no","fee":"","operator":"","nameSource":"junction"},"sourceId":"osm"},{"id":"osm:node:12382787851","latitude":41.5490545,"longitude":2.4525144,"name":"Ronda Pintor Rafael Estrany near Rotonda d'Alfred Opisso","properties":{"access":"unknown","bicycle_pa":"stands","capacity":8,"covered":"no","fee":"","operator":"","nameSource":"junction"},"sourceId":"osm"},{"id":"osm:node:13532748317","latitude":41.5264169,"longitude":2.4314898,"name":"Carretera de Barcelona near Rotonda de les Hortes del Camí Ral","properties":{"access":"unknown","bicycle_pa":"stands","capacity":6,"covered":"no","fee":"","operator":"","nameSource":"junction"},"sourceId":"osm"},{"id":"osm:node:7948566895","latitude":41.5341161,"longitude":2.4402121,"name":"Camí Ral near Ronda de Barceló","properties":{"access":"unknown","bicycle_pa":"","capacity":0,"covered":"","fee":"","operator":"","nameSource":"junction"},"sourceId":"osm"},{"id":"osm:node:7948670303","latitude":41.5344764,"longitude":2.4387869,"name":"Carrer del General Castaños near Passatge Lluís Gallifa","properties":{"access":"unknown","bicycle_pa":"","capacity":0,"covered":"","fee":"","operator":"","nameSource":"junction"},"sourceId":"osm"},{"id":"osm:node:7975420721","latitude":41.5357482,"longitude":2.4353296,"name":"Carrer de Juan Sebastián Elcano near Ronda de Francesc Macià","properties":{"access":"unknown","bicycle_pa":"","capacity":0,"covered":"","fee":"","operator":"","nameSource":"junction"},"sourceId":"osm"},{"id":"osm:way:849048742","latitude":41.534849660000006,"longitude":2.4412959799999996,"name":"Camí Ral near Carrer d'Iluro","properties":{"access":"unknown","bicycle_pa":"anchors","capacity":0,"covered":"","fee":"","operator":"","nameSource":"junction"},"sourceId":"osm"},{"id":"osm:way:849069615","latitude":41.53372245,"longitude":2.4429107500000002,"name":"Carrer de la Cooperativa near Carrer de Germans Thos i Codina","properties":{"access":"unknown","bicycle_pa":"anchors","capacity":8,"covered":"no","fee":"","operator":"","nameSource":"junction"},"sourceId":"osm"},{"id":"osm:way:849069662","latitude":41.53343735,"longitude":2.4451148,"name":"Carrer de Cosme Churruca near Avinguda del Maresme / N-2","properties":{"access":"unknown","bicycle_pa":"stands","capacity":0,"covered":"","fee":"","operator":"","nameSource":"junction"},"sourceId":"osm"},{"id":"osm:way:849069663","latitude":41.53336405,"longitude":2.44498135,"name":"Avinguda del Maresme / N-2 near Carrer de Cosme Churruca","properties":{"access":"unknown","bicycle_pa":"stands","capacity":0,"covered":"","fee":"","operator":"","nameSource":"junction"},"sourceId":"osm"},{"id":"osm:way:855237879","latitude":41.5369344,"longitude":2.4339021,"name":"Carrer de Miquel Biada near Camí del Mig","properties":{"access":"unknown","bicycle_pa":"","capacity":0,"covered":"","fee":"","operator":"","nameSource":"junction"},"sourceId":"osm"}],"schemaVersion":2}
