{"key":"12/2017/1326","points":[{"id":"osm:node:10026063497","latitude":53.4035684,"longitude":-2.6528378,"name":"Ketteringham Drive near Lakenheath Crescent","properties":{"access":"unknown","bicycle_pa":"stands","capacity":2,"covered":"no","fee":"no","operator":"","nameSource":"junction"},"sourceId":"osm"},{"id":"osm:node:11057296381","latitude":53.4071434,"longitude":-2.646256,"name":"Fortress Boulevard by McDonald's","properties":{"access":"yes","bicycle_pa":"stands","capacity":12,"covered":"no","fee":"no","operator":"","nameSource":"landmark"},"sourceId":"osm"},{"id":"osm:node:11099725936","latitude":53.4303541,"longitude":-2.6564105,"name":"Chapel Lane near Milnthorpe Road","properties":{"access":"unknown","bicycle_pa":"stands","capacity":4,"covered":"no","fee":"no","operator":"","nameSource":"junction"},"sourceId":"osm"},{"id":"osm:node:11108474461","latitude":53.3977675,"longitude":-2.6379673,"name":"Kentucky Close by Chapelford Pharmacy","properties":{"access":"unknown","bicycle_pa":"stands","capacity":8,"covered":"no","fee":"no","operator":"","nameSource":"landmark"},"sourceId":"osm"},{"id":"osm:node:11108548750","latitude":53.406708,"longitude":-2.6467109,"name":"Whittle Avenue by Lidl","properties":{"access":"unknown","bicycle_pa":"stands","capacity":10,"covered":"yes","fee":"no","operator":"","nameSource":"landmark"},"sourceId":"osm"},{"id":"osm:node:11110202196","latitude":53.4152684,"longitude":-2.6368953,"name":"Apollo Park by Skymaster","properties":{"access":"unknown","bicycle_pa":"stands","capacity":0,"covered":"","fee":"","operator":"","nameSource":"landmark"},"sourceId":"osm"},{"id":"osm:node:11253451341","latitude":53.4054051,"longitude":-2.6553866,"name":"Sophia Drive cycle parking","properties":{"access":"students","bicycle_pa":"stands","capacity":76,"covered":"no","fee":"no","operator":"","nameSource":"street"},"sourceId":"osm"},{"id":"osm:node:4562154889","latitude":53.3865191,"longitude":-2.6561958,"name":"Honiton Way by Penketh Library","properties":{"access":"unknown","bicycle_pa":"stands","capacity":8,"covered":"no","fee":"","operator":"","nameSource":"landmark"},"sourceId":"osm"},{"id":"osm:node:8917615840","latitude":53.4009751,"longitude":-2.6624018,"name":"Great Sankey Neighbourhood Hub cycle parking","properties":{"access":"yes","bicycle_pa":"stands","capacity":0,"covered":"yes","fee":"no","operator":"Great Sankey Leisure Centre","nameSource":"landmark"},"sourceId":"osm"},{"id":"osm:node:9641591498","latitude":53.4302988,"longitude":-2.6549086,"name":"Chapel Lane by Amazon Locker","properties":{"access":"unknown","bicycle_pa":"stands","capacity":6,"covered":"no","fee":"no","operator":"","nameSource":"landmark"},"sourceId":"osm"},{"id":"osm:node:9659715944","latitude":53.3974342,"longitude":-2.6396455,"name":"Santa Rosa Boulevard by Sainsbury's","properties":{"access":"unknown","bicycle_pa":"stands","capacity":14,"covered":"yes","fee":"no","operator":"","nameSource":"landmark"},"sourceId":"osm"},{"id":"osm:node:9686333285","latitude":53.4014072,"longitude":-2.6622316,"name":"Lingley Green Avenue by Busy Nought To Fives","properties":{"access":"unknown","bicycle_pa":"stands","capacity":14,"covered":"no","fee":"no","operator":"","nameSource":"landmark"},"sourceId":"osm"},{"id":"osm:way:1039161272","latitude":53.413219479999995,"longitude":-2.6639496399999993,"name":"A5280 near Skyline Drive","properties":{"access":"private","bicycle_pa":"stands","capacity":0,"covered":"yes","fee":"no","operator":"","nameSource":"junction"},"sourceId":"osm"},{"id":"osm:way:1039161273","latitude":53.413169399999994,"longitude":-2.66408306,"name":"A5280 near Skyline Drive","properties":{"access":"private","bicycle_pa":"stands","capacity":0,"covered":"yes","fee":"no","operator":"","nameSource":"junction"},"sourceId":"osm"},{"id":"osm:way:1202942624","latitude":53.415295279999995,"longitude":-2.64145654,"name":"Butts Green near Archers Green Road","properties":{"access":"unknown","bicycle_pa":"stands","capacity":10,"covered":"yes","fee":"no","operator":"","nameSource":"junction"},"sourceId":"osm"},{"id":"osm:way:1202942625","latitude":53.415291679999996,"longitude":-2.64095154,"name":"Butts Green near Archers Green Road","properties":{"access":"unknown","bicycle_pa":"stands","capacity":10,"covered":"yes","fee":"no","operator":"","nameSource":"junction"},"sourceId":"osm"},{"id":"osm:way:1202942626","latitude":53.414670220000005,"longitude":-2.6433994400000005,"name":"Butts Green near Partisan Green","properties":{"access":"unknown","bicycle_pa":"wall_loops","capacity":10,"covered":"yes","fee":"no","operator":"","nameSource":"junction"},"sourceId":"osm"},{"id":"osm:way:1202942627","latitude":53.4143651,"longitude":-2.6434973800000003,"name":"Butts Green near Partisan Green","properties":{"access":"unknown","bicycle_pa":"wall_loops","capacity":10,"covered":"yes","fee":"no","operator":"","nameSource":"junction"},"sourceId":"osm"},{"id":"osm:way:1202958594","latitude":53.415277960000004,"longitude":-2.6415818200000003,"name":"Butts Green near Archers Green Road","properties":{"access":"unknown","bicycle_pa":"stands","capacity":10,"covered":"yes","fee":"no","operator":"","nameSource":"junction"},"sourceId":"osm"},{"id":"osm:way:964077264","latitude":53.39970928571429,"longitude":-2.6612356999999998,"name":"Barrow Hall Lane cycle parking","properties":{"access":"customers","bicycle_pa":"stands","capacity":0,"covered":"yes","fee":"no","operator":"Great Sankey High School","nameSource":"street"},"sourceId":"osm"},{"id":"osm:way:964077343","latitude":53.3998721,"longitude":-2.66248764,"name":"Great Sankey High School cycle parking","properties":{"access":"customers","bicycle_pa":"stands","capacity":0,"covered":"yes","fee":"no","operator":"Great Sankey High School","nameSource":"landmark"},"sourceId":"osm"},{"id":"osm:way:986953982","latitude":53.414990880000005,"longitude":-2.64271108,"name":"Butts Green cycle parking","properties":{"access":"unknown","bicycle_pa":"wall_loops","capacity":10,"covered":"yes","fee":"no","operator":"","nameSource":"street"},"sourceId":"osm"},{"id":"osm:way:986953983","latitude":53.41505692,"longitude":-2.64222232,"name":"Butts Green near Archers Green Road","properties":{"access":"unknown","bicycle_pa":"wall_loops","capacity":10,"covered":"yes","fee":"no","operator":"","nameSource":"junction"},"sourceId":"osm"},{"id":"osm:way:986953984","latitude":53.41517608,"longitude":-2.6421959600000005,"name":"Butts Green cycle parking","properties":{"access":"unknown","bicycle_pa":"stands","capacity":10,"covered":"yes","fee":"no","operator":"","nameSource":"street"},"sourceId":"osm"},{"id":"osm:way:994939990","latitude":53.40428211666667,"longitude":-2.6565555333333335,"name":"Barrow Hall Primary School","properties":{"access":"private","bicycle_pa":"stands","capacity":100,"covered":"","fee":"no","operator":"","nameSource":"source"},"sourceId":"osm"},{"id":"osm:way:996881210","latitude":53.39390732,"longitude":-2.6381568799999995,"name":"San Diego Drive cycle parking","properties":{"access":"yes","bicycle_pa":"stands","capacity":32,"covered":"yes","fee":"","operator":"","nameSource":"street"},"sourceId":"osm"}],"schemaVersion":2}
