{"key":"12/2017/1362","points":[{"id":"osm:node:10608049844","latitude":51.4543789,"longitude":-2.666931,"name":"Manor Road cycle parking","properties":{"access":"unknown","bicycle_pa":"","capacity":0,"covered":"","fee":"","operator":"","nameSource":"street"},"sourceId":"osm"},{"id":"osm:node:10617791446","latitude":51.4634327,"longitude":-2.6450743,"name":"Yer Tiz Trail near Red/Purple","properties":{"access":"unknown","bicycle_pa":"","capacity":0,"covered":"","fee":"","operator":"","nameSource":"junction"},"sourceId":"osm"},{"id":"osm:node:11091767708","latitude":51.4890995,"longitude":-2.6754673,"name":"High Street near Penpole Avenue","properties":{"access":"unknown","bicycle_pa":"","capacity":8,"covered":"","fee":"","operator":"","nameSource":"junction"},"sourceId":"osm"},{"id":"osm:node:11091827703","latitude":51.4937211,"longitude":-2.6472465,"name":"Westbury Lane near Arbutus Drive","properties":{"access":"unknown","bicycle_pa":"stands","capacity":2,"covered":"no","fee":"","operator":"","nameSource":"junction"},"sourceId":"osm"},{"id":"osm:node:11298857241","latitude":51.4863061,"longitude":-2.6416279,"name":"Shirehampton Road near Bell Barn Road","properties":{"access":"unknown","bicycle_pa":"stands","capacity":10,"covered":"no","fee":"","operator":"","nameSource":"junction"},"sourceId":"osm"},{"id":"osm:node:2675921368","latitude":51.4865115,"longitude":-2.6417074,"name":"Shirehampton Road near Bell Barn Road","properties":{"access":"unknown","bicycle_pa":"stands","capacity":6,"covered":"no","fee":"","operator":"","nameSource":"junction"},"sourceId":"osm"},{"id":"osm:node:2675970497","latitude":51.4879495,"longitude":-2.6476857,"name":"Shirehampton Road near East Parade","properties":{"access":"unknown","bicycle_pa":"stands","capacity":4,"covered":"no","fee":"","operator":"","nameSource":"junction"},"sourceId":"osm"},{"id":"osm:node:2719996321","latitude":51.4897048,"longitude":-2.6773075,"name":"High Street near Waverley Road","properties":{"access":"unknown","bicycle_pa":"stands","capacity":4,"covered":"","fee":"","operator":"","nameSource":"junction"},"sourceId":"osm"},{"id":"osm:node:2726179646","latitude":51.4891004,"longitude":-2.6755972,"name":"High Street near Penpole Avenue","properties":{"access":"unknown","bicycle_pa":"","capacity":0,"covered":"","fee":"","operator":"","nameSource":"junction"},"sourceId":"osm"},{"id":"osm:node:2726179694","latitude":51.4894532,"longitude":-2.6762995,"name":"High Street near Penpole Avenue","properties":{"access":"unknown","bicycle_pa":"","capacity":4,"covered":"","fee":"","operator":"","nameSource":"junction"},"sourceId":"osm"},{"id":"osm:node:3089862104","latitude":51.5054184,"longitude":-2.6367608,"name":"Kings Weston Road by Parks Café","properties":{"access":"unknown","bicycle_pa":"stands","capacity":8,"covered":"no","fee":"","operator":"","nameSource":"landmark"},"sourceId":"osm"},{"id":"osm:node:3657150630","latitude":51.4709261,"longitude":-2.6421275,"name":"Portway cycle parking","properties":{"access":"unknown","bicycle_pa":"","capacity":8,"covered":"","fee":"","operator":"","nameSource":"street"},"sourceId":"osm"},{"id":"osm:node:3756647265","latitude":51.498711,"longitude":-2.693776,"name":"Avonmouth Road near Farr Street","properties":{"access":"unknown","bicycle_pa":"","capacity":4,"covered":"","fee":"","operator":"","nameSource":"junction"},"sourceId":"osm"},{"id":"osm:node:3756647313","latitude":51.4991337,"longitude":-2.6946205,"name":"Avonmouth Road near Collins Street","properties":{"access":"unknown","bicycle_pa":"","capacity":4,"covered":"","fee":"","operator":"","nameSource":"junction"},"sourceId":"osm"},{"id":"osm:node:3756647437","latitude":51.4993197,"longitude":-2.69577,"name":"Avonmouth Road near Smyths Close","properties":{"access":"unknown","bicycle_pa":"","capacity":6,"covered":"no","fee":"","operator":"","nameSource":"junction"},"sourceId":"osm"},{"id":"osm:node:3756647438","latitude":51.4993208,"longitude":-2.6952742,"name":"Avonmouth Road near Smyths Close","properties":{"access":"unknown","bicycle_pa":"","capacity":4,"covered":"no","fee":"","operator":"","nameSource":"junction"},"sourceId":"osm"},{"id":"osm:node:3756648037","latitude":51.5007393,"longitude":-2.6988158,"name":"Avonmouth Road near Gloucester Road","properties":{"access":"unknown","bicycle_pa":"","capacity":4,"covered":"","fee":"","operator":"","nameSource":"junction"},"sourceId":"osm"},{"id":"osm:node:4331507965","latitude":51.4888693,"longitude":-2.6748792,"name":"High Street near The Green","properties":{"access":"unknown","bicycle_pa":"stands","capacity":4,"covered":"no","fee":"","operator":"","nameSource":"junction"},"sourceId":"osm"},{"id":"osm:node:4331507967","latitude":51.4890687,"longitude":-2.6753922,"name":"High Street near Penpole Avenue","properties":{"access":"unknown","bicycle_pa":"","capacity":4,"covered":"","fee":"","operator":"","nameSource":"junction"},"sourceId":"osm"},{"id":"osm:node:4710793355","latitude":51.4863143,"longitude":-2.6417364,"name":"Shirehampton Road near Bell Barn Road","properties":{"access":"unknown","bicycle_pa":"stands","capacity":4,"covered":"no","fee":"","operator":"","nameSource":"junction"},"sourceId":"osm"},{"id":"osm:node:5481503174","latitude":51.4847165,"longitude":-2.6796824,"name":"Station Road near Portway","properties":{"access":"unknown","bicycle_pa":"","capacity":4,"covered":"","fee":"","operator":"","nameSource":"junction"},"sourceId":"osm"},{"id":"osm:node:6008482515","latitude":51.4887115,"longitude":-2.6744242,"name":"High Street near Station Road","properties":{"access":"unknown","bicycle_pa":"","capacity":4,"covered":"","fee":"","operator":"","nameSource":"junction"},"sourceId":"osm"},{"id":"osm:node:6091117606","latitude":51.4889801,"longitude":-2.6773214,"name":"Pembroke Road near Waverley Road","properties":{"access":"unknown","bicycle_pa":"","capacity":8,"covered":"","fee":"","operator":"","nameSource":"junction"},"sourceId":"osm"},{"id":"osm:node:6148652034","latitude":51.50336,"longitude":-2.6571451,"name":"Stile Acres near Ridingleaze","properties":{"access":"unknown","bicycle_pa":"","capacity":0,"covered":"yes","fee":"","operator":"","nameSource":"junction"},"sourceId":"osm"},{"id":"osm:node:6978369855","latitude":51.4803986,"longitude":-2.6898647,"name":"Lodway Gardens near Lodway","properties":{"access":"unknown","bicycle_pa":"","capacity":10,"covered":"","fee":"","operator":"","nameSource":"junction"},"sourceId":"osm"},{"id":"osm:node:6984467659","latitude":51.4788267,"longitude":-2.684735,"name":"Heywood Road near Brinsmead Crescent","properties":{"access":"unknown","bicycle_pa":"stands","capacity":6,"covered":"no","fee":"","operator":"","nameSource":"junction"},"sourceId":"osm"},{"id":"osm:node:6984467664","latitude":51.4788292,"longitude":-2.6847578,"name":"Heywood Road near Brinsmead Crescent","properties":{"access":"unknown","bicycle_pa":"stands","capacity":6,"covered":"no","fee":"","operator":"","nameSource":"junction"},"sourceId":"osm"},{"id":"osm:node:6984467665","latitude":51.4788847,"longitude":-2.6847321,"name":"Baltic Place near Bank Place","properties":{"access":"unknown","bicycle_pa":"stands","capacity":8,"covered":"no","fee":"","operator":"","nameSource":"junction"},"sourceId":"osm"},{"id":"osm:node:7105673134","latitude":51.4991274,"longitude":-2.694983,"name":"Avonmouth Road near Collins Street","properties":{"access":"unknown","bicycle_pa":"","capacity":4,"covered":"","fee":"","operator":"","nameSource":"junction"},"sourceId":"osm"},{"id":"osm:way:372131598","latitude":51.48952863999999,"longitude":-2.68803434,"name":"Portway near Grove Leaze","properties":{"access":"unknown","bicycle_pa":"","capacity":0,"covered":"yes","fee":"","operator":"","nameSource":"junction"},"sourceId":"osm"}],"schemaVersion":2}
