{"key":"12/2017/1507","points":[{"id":"osm:node:10227755155","latitude":42.8352126,"longitude":-2.6677239,"name":"VGbiziz Iturritxu","properties":{"access":"unknown","bicycle_pa":"shed","capacity":50,"covered":"yes","fee":"","operator":"VGbiziz","nameSource":"source"},"sourceId":"osm"},{"id":"osm:node:10227755156","latitude":42.8523884,"longitude":-2.6742924,"name":"VGbiziz Aldabe","properties":{"access":"yes","bicycle_pa":"shed","capacity":50,"covered":"yes","fee":"yes","operator":"VGbiziz","nameSource":"source"},"sourceId":"osm"},{"id":"osm:node:10227784094","latitude":42.8464414,"longitude":-2.6714737,"name":"VGbiziz Memorial","properties":{"access":"yes","bicycle_pa":"shed","capacity":231,"covered":"yes","fee":"","operator":"VGbiziz","nameSource":"source"},"sourceId":"osm"},{"id":"osm:node:10901333944","latitude":42.8455308,"longitude":-2.6565077,"name":"Astronomo kalea near Galileo kalea","properties":{"access":"yes","bicycle_pa":"","capacity":6,"covered":"no","fee":"no","operator":"","nameSource":"junction"},"sourceId":"osm"},{"id":"osm:node:10901377437","latitude":42.8439248,"longitude":-2.6520163,"name":"Bukarest kalea near Bratislava hiribidea","properties":{"access":"unknown","bicycle_pa":"stands","capacity":10,"covered":"no","fee":"","operator":"","nameSource":"junction"},"sourceId":"osm"},{"id":"osm:node:10901377438","latitude":42.8438866,"longitude":-2.6519717,"name":"Bukarest kalea near Bratislava hiribidea","properties":{"access":"unknown","bicycle_pa":"stands","capacity":10,"covered":"no","fee":"","operator":"","nameSource":"junction"},"sourceId":"osm"},{"id":"osm:node:10979775485","latitude":42.8479871,"longitude":-2.6785272,"name":"Jose Joaquin Landazuri kalea near Ramiro Maeztu kalea","properties":{"access":"yes","bicycle_pa":"stands","capacity":12,"covered":"no","fee":"no","operator":"","nameSource":"junction"},"sourceId":"osm"},{"id":"osm:node:10979775486","latitude":42.8481487,"longitude":-2.6784845,"name":"Ramiro Maeztu kalea near Francisco Juan Aiala plaza","properties":{"access":"yes","bicycle_pa":"stands","capacity":12,"covered":"no","fee":"no","operator":"","nameSource":"junction"},"sourceId":"osm"},{"id":"osm:node:10979775487","latitude":42.8478677,"longitude":-2.6769593,"name":"Félix María Samaniego kalea near Vicente Goikoetxea kalea","properties":{"access":"yes","bicycle_pa":"stands","capacity":12,"covered":"no","fee":"no","operator":"","nameSource":"junction"},"sourceId":"osm"},{"id":"osm:node:10979775488","latitude":42.8476767,"longitude":-2.6770207,"name":"Jose Joaquin Landazuri kalea near Joaquin Jose Landazuri pasabidea","properties":{"access":"yes","bicycle_pa":"stands","capacity":8,"covered":"no","fee":"no","operator":"","nameSource":"junction"},"sourceId":"osm"},{"id":"osm:node:10979775489","latitude":42.8477766,"longitude":-2.6763115,"name":"Félix María Samaniego kalea near Vicente Goikoetxea kalea","properties":{"access":"yes","bicycle_pa":"stands","capacity":8,"covered":"no","fee":"no","operator":"","nameSource":"junction"},"sourceId":"osm"},{"id":"osm:node:10979775490","latitude":42.8476082,"longitude":-2.6763169,"name":"Vicente Goikoetxea kalea near Jose Joaquin Landazuri kalea","properties":{"access":"yes","bicycle_pa":"stands","capacity":16,"covered":"no","fee":"no","operator":"","nameSource":"junction"},"sourceId":"osm"},{"id":"osm:node:10979775493","latitude":42.8476474,"longitude":-2.6752017,"name":"Jesusen Zerbitzarien Fundatzailearen kalea near Probintzia plaza","properties":{"access":"yes","bicycle_pa":"stands","capacity":32,"covered":"no","fee":"no","operator":"","nameSource":"junction"},"sourceId":"osm"},{"id":"osm:node:10979775494","latitude":42.8458293,"longitude":-2.6766847,"name":"Magdalena kalea near Vicente Goikoetxea kalea","properties":{"access":"yes","bicycle_pa":"stands","capacity":20,"covered":"no","fee":"no","operator":"","nameSource":"junction"},"sourceId":"osm"},{"id":"osm:node:10979791817","latitude":42.8417309,"longitude":-2.6722643,"name":"Geltoki plazatxoa near Eduardo Dato kalea","properties":{"access":"yes","bicycle_pa":"stands","capacity":8,"covered":"no","fee":"no","operator":"","nameSource":"junction"},"sourceId":"osm"},{"id":"osm:node:10979791818","latitude":42.8404729,"longitude":-2.6706461,"name":"Unibertsitateko ibilbidea near Foru kalea","properties":{"access":"unknown","bicycle_pa":"stands","capacity":8,"covered":"no","fee":"","operator":"","nameSource":"junction"},"sourceId":"osm"},{"id":"osm:node:10979791819","latitude":42.8404985,"longitude":-2.6708601,"name":"Unibertsitateko ibilbidea near Foru kalea","properties":{"access":"yes","bicycle_pa":"stands","capacity":8,"covered":"no","fee":"no","operator":"","nameSource":"junction"},"sourceId":"osm"},{"id":"osm:node:10979791824","latitude":42.8406533,"longitude":-2.6726431,"name":"Unibertsitateko ibilbidea near Julio Caro Baroja kalea","properties":{"access":"yes","bicycle_pa":"stands","capacity":20,"covered":"no","fee":"no","operator":"","nameSource":"junction"},"sourceId":"osm"},{"id":"osm:node:10979791825","latitude":42.840721,"longitude":-2.6726497,"name":"Julio Caro Baroja kalea near Unibertsitateko ibilbidea","properties":{"access":"yes","bicycle_pa":"stands","capacity":6,"covered":"no","fee":"no","operator":"","nameSource":"junction"},"sourceId":"osm"},{"id":"osm:node:10979791826","latitude":42.8407041,"longitude":-2.6724766,"name":"Unibertsitateko ibilbidea near Julio Caro Baroja kalea","properties":{"access":"yes","bicycle_pa":"stands","capacity":4,"covered":"no","fee":"no","operator":"","nameSource":"junction"},"sourceId":"osm"},{"id":"osm:node:10979791827","latitude":42.8406751,"longitude":-2.6721979,"name":"Unibertsitateko ibilbidea near Justo Velez de Elorriaga kalea","properties":{"access":"yes","bicycle_pa":"stands","capacity":4,"covered":"no","fee":"no","operator":"","nameSource":"junction"},"sourceId":"osm"},{"id":"osm:node:10979791828","latitude":42.8406521,"longitude":-2.6719325,"name":"Unibertsitateko ibilbidea near Justo Velez de Elorriaga kalea","properties":{"access":"yes","bicycle_pa":"stands","capacity":6,"covered":"no","fee":"no","operator":"","nameSource":"junction"},"sourceId":"osm"},{"id":"osm:node:10979791829","latitude":42.8405494,"longitude":-2.6720182,"name":"Unibertsitateko ibilbidea near Justo Velez de Elorriaga kalea","properties":{"access":"yes","bicycle_pa":"stands","capacity":32,"covered":"no","fee":"no","operator":"","nameSource":"junction"},"sourceId":"osm"},{"id":"osm:node:10979791830","latitude":42.8404667,"longitude":-2.6712069,"name":"Unibertsitateko ibilbidea near Justo Velez de Elorriaga kalea","properties":{"access":"yes","bicycle_pa":"stands","capacity":4,"covered":"no","fee":"no","operator":"","nameSource":"junction"},"sourceId":"osm"},{"id":"osm:node:10979791832","latitude":42.8385516,"longitude":-2.6733743,"name":"Julio Caro Baroja kalea cycle parking","properties":{"access":"yes","bicycle_pa":"stands","capacity":0,"covered":"no","fee":"no","operator":"","nameSource":"street"},"sourceId":"osm"},{"id":"osm:node:10979791833","latitude":42.838605,"longitude":-2.6738426,"name":"Julio Caro Baroja kalea cycle parking","properties":{"access":"yes","bicycle_pa":"stands","capacity":0,"covered":"no","fee":"no","operator":"","nameSource":"street"},"sourceId":"osm"},{"id":"osm:node:10979791834","latitude":42.8388177,"longitude":-2.6719762,"name":"Justo Velez de Elorriaga kalea cycle parking","properties":{"access":"yes","bicycle_pa":"stands","capacity":10,"covered":"no","fee":"no","operator":"","nameSource":"street"},"sourceId":"osm"},{"id":"osm:node:10979791835","latitude":42.838935,"longitude":-2.6722074,"name":"Justo Velez de Elorriaga kalea by Egibide-Nieves Cano","properties":{"access":"yes","bicycle_pa":"stands","capacity":20,"covered":"no","fee":"no","operator":"","nameSource":"landmark"},"sourceId":"osm"},{"id":"osm:node:10979791838","latitude":42.8388094,"longitude":-2.6724423,"name":"Nieves Cano kalea near Domingo Martinez de Aragon kalea","properties":{"access":"yes","bicycle_pa":"stands","capacity":20,"covered":"no","fee":"no","operator":"","nameSource":"junction"},"sourceId":"osm"},{"id":"osm:node:10979791844","latitude":42.8387389,"longitude":-2.6726523,"name":"Nieves Cano kalea near Domingo Martinez de Aragon kalea","properties":{"access":"yes","bicycle_pa":"stands","capacity":0,"covered":"no","fee":"no","operator":"","nameSource":"junction"},"sourceId":"osm"},{"id":"osm:node:10979791847","latitude":42.8400646,"longitude":-2.6738945,"name":"Julio Caro Baroja kalea near René Cassin kalea","properties":{"access":"yes","bicycle_pa":"stands","capacity":0,"covered":"no","fee":"no","operator":"","nameSource":"junction"},"sourceId":"osm"},{"id":"osm:node:10979791855","latitude":42.8390867,"longitude":-2.6765086,"name":"Gipuzkoa kalea near Nieves Cano kalea","properties":{"access":"yes","bicycle_pa":"stands","capacity":12,"covered":"no","fee":"no","operator":"","nameSource":"junction"},"sourceId":"osm"},{"id":"osm:node:10979791856","latitude":42.8392781,"longitude":-2.6778463,"name":"Korazonisten kalea near Nafarroa kalea","properties":{"access":"yes","bicycle_pa":"stands","capacity":6,"covered":"no","fee":"no","operator":"","nameSource":"junction"},"sourceId":"osm"},{"id":"osm:node:10979822673","latitude":42.8375005,"longitude":-2.6866842,"name":"Amadeo Garcia de Salazar plaza near Jose Luis Compañón Compa kalea","properties":{"access":"yes","bicycle_pa":"stands","capacity":32,"covered":"no","fee":"no","operator":"","nameSource":"junction"},"sourceId":"osm"},{"id":"osm:node:10979822674","latitude":42.8374027,"longitude":-2.6857973,"name":"Amadeo Garcia de Salazar plaza cycle parking","properties":{"access":"yes","bicycle_pa":"stands","capacity":36,"covered":"no","fee":"no","operator":"","nameSource":"street"},"sourceId":"osm"},{"id":"osm:node:10979822675","latitude":42.837828,"longitude":-2.6858093,"name":"Amadeo Garcia de Salazar plaza cycle parking","properties":{"access":"yes","bicycle_pa":"stands","capacity":0,"covered":"no","fee":"no","operator":"","nameSource":"street"},"sourceId":"osm"},{"id":"osm:node:10979822676","latitude":42.8369348,"longitude":-2.6850214,"name":"Mendizabala kalea near Lasarteko atea","properties":{"access":"yes","bicycle_pa":"","capacity":0,"covered":"no","fee":"no","operator":"","nameSource":"junction"},"sourceId":"osm"},{"id":"osm:node:10979822677","latitude":42.8364567,"longitude":-2.6859131,"name":"Lasarteko atea near Mendizabala kalea","properties":{"access":"yes","bicycle_pa":"","capacity":0,"covered":"no","fee":"no","operator":"","nameSource":"junction"},"sourceId":"osm"},{"id":"osm:node:10979822678","latitude":42.8361156,"longitude":-2.6850783,"name":"Mendizabala kalea by Mendizabala institutua","properties":{"access":"unknown","bicycle_pa":"","capacity":0,"covered":"","fee":"","operator":"","nameSource":"landmark"},"sourceId":"osm"},{"id":"osm:node:11010957869","latitude":42.8439838,"longitude":-2.6860006,"name":"Adrian Aldekoa margolariaren kalea near Juan Angel Saez margolariaren kalea","properties":{"access":"yes","bicycle_pa":"stands","capacity":36,"covered":"yes","fee":"no","operator":"","nameSource":"junction"},"sourceId":"osm"},{"id":"osm:node:11010957871","latitude":42.8446753,"longitude":-2.6861946,"name":"Ignacio Diaz Ruiz de Olano margolariaren kalea near Obdulio Lopez de Uralde margolariaren kalea","properties":{"access":"yes","bicycle_pa":"stands","capacity":36,"covered":"no","fee":"no","operator":"","nameSource":"junction"},"sourceId":"osm"},{"id":"osm:node:11010957872","latitude":42.8447975,"longitude":-2.6864287,"name":"Ignacio Diaz Ruiz de Olano margolariaren kalea near Obdulio Lopez de Uralde margolariaren kalea","properties":{"access":"yes","bicycle_pa":"stands","capacity":10,"covered":"no","fee":"no","operator":"","nameSource":"junction"},"sourceId":"osm"},{"id":"osm:node:11010957874","latitude":42.8446541,"longitude":-2.6854189,"name":"Ignacio Diaz Ruiz de Olano margolariaren kalea near Juan Angel Saez margolariaren kalea","properties":{"access":"yes","bicycle_pa":"stands","capacity":10,"covered":"no","fee":"no","operator":"","nameSource":"junction"},"sourceId":"osm"},{"id":"osm:node:11010957875","latitude":42.844533,"longitude":-2.6852609,"name":"Juan Angel Saez margolariaren kalea near Ignacio Diaz Ruiz de Olano margolariaren kalea","properties":{"access":"yes","bicycle_pa":"stands","capacity":0,"covered":"no","fee":"no","operator":"","nameSource":"junction"},"sourceId":"osm"},{"id":"osm:node:11010957880","latitude":42.8447839,"longitude":-2.6852725,"name":"Salvador Azpiazu ibilbidea near Carlos Saez de Tejada margolariaren kalea","properties":{"access":"yes","bicycle_pa":"stands","capacity":8,"covered":"no","fee":"no","operator":"","nameSource":"junction"},"sourceId":"osm"},{"id":"osm:node:11010957881","latitude":42.8446354,"longitude":-2.6842205,"name":"Ignacio Diaz Ruiz de Olano margolariaren kalea near Abendaño kalea","properties":{"access":"yes","bicycle_pa":"stands","capacity":6,"covered":"no","fee":"no","operator":"","nameSource":"junction"},"sourceId":"osm"},{"id":"osm:node:11035798334","latitude":42.8301952,"longitude":-2.7041738,"name":"Konpostela kalea near Dehesa kalea","properties":{"access":"unknown","bicycle_pa":"stands","capacity":10,"covered":"no","fee":"","operator":"","nameSource":"junction"},"sourceId":"osm"},{"id":"osm:node:12118598394","latitude":42.8485417,"longitude":-2.6718683,"name":"Eskola kalea near San Frantzisko Xabierkoaren kantoia","properties":{"access":"unknown","bicycle_pa":"","capacity":0,"covered":"","fee":"","operator":"","nameSource":"junction"},"sourceId":"osm"},{"id":"osm:node:12118627587","latitude":42.8489822,"longitude":-2.6703811,"name":"Pintore kalea near San Frantzisko Xabierkoaren kantoia","properties":{"access":"unknown","bicycle_pa":"","capacity":0,"covered":"","fee":"","operator":"","nameSource":"junction"},"sourceId":"osm"},{"id":"osm:node:12118649381","latitude":42.8481378,"longitude":-2.6716701,"name":"Eskola kalea near Etxauri plaza","properties":{"access":"unknown","bicycle_pa":"","capacity":0,"covered":"","fee":"","operator":"","nameSource":"junction"},"sourceId":"osm"},{"id":"osm:node:12118651187","latitude":42.8490064,"longitude":-2.6701024,"name":"Barnekale Berria near San Bizente Paulekoaren kalea","properties":{"access":"unknown","bicycle_pa":"handlebar_holder","capacity":44,"covered":"no","fee":"","operator":"","nameSource":"junction"},"sourceId":"osm"},{"id":"osm:node:12118653521","latitude":42.8496373,"longitude":-2.6720141,"name":"Eskola kalea near Gasteiz kalea","properties":{"access":"unknown","bicycle_pa":"","capacity":0,"covered":"","fee":"","operator":"","nameSource":"junction"},"sourceId":"osm"},{"id":"osm:node:12118653522","latitude":42.8480357,"longitude":-2.6716319,"name":"Eskola kalea near Etxauri plaza","properties":{"access":"unknown","bicycle_pa":"","capacity":0,"covered":"","fee":"","operator":"","nameSource":"junction"},"sourceId":"osm"},{"id":"osm:node:12118673591","latitude":42.8496149,"longitude":-2.6722235,"name":"Eskola kalea near Gasteiz kalea","properties":{"access":"unknown","bicycle_pa":"","capacity":0,"covered":"","fee":"","operator":"","nameSource":"junction"},"sourceId":"osm"},{"id":"osm:node:12118674146","latitude":42.8496932,"longitude":-2.6717315,"name":"Santa Ana kantoia near Aiztogile kalea","properties":{"access":"unknown","bicycle_pa":"","capacity":0,"covered":"no","fee":"","operator":"","nameSource":"junction"},"sourceId":"osm"},{"id":"osm:node:12118706437","latitude":42.8510584,"longitude":-2.6705044,"name":"Bueno Monreal kalea near Sebastian Iradier plaza","properties":{"access":"unknown","bicycle_pa":"","capacity":0,"covered":"","fee":"","operator":"","nameSource":"junction"},"sourceId":"osm"},{"id":"osm:node:12118718996","latitude":42.851051,"longitude":-2.6721985,"name":"Santa Maria kantoia near Txikita kalea","properties":{"access":"unknown","bicycle_pa":"stands","capacity":0,"covered":"no","fee":"","operator":"","nameSource":"junction"},"sourceId":"osm"},{"id":"osm:node:12118742107","latitude":42.8512462,"longitude":-2.6705959,"name":"Sebastian Iradier plaza near Bueno Monreal kalea","properties":{"access":"unknown","bicycle_pa":"","capacity":0,"covered":"","fee":"","operator":"","nameSource":"junction"},"sourceId":"osm"},{"id":"osm:node:12118756161","latitude":42.8513649,"longitude":-2.6775805,"name":"Domingo Beltran de Otazu kalea near Badaia kalea","properties":{"access":"unknown","bicycle_pa":"stands","capacity":10,"covered":"no","fee":"","operator":"","nameSource":"junction"},"sourceId":"osm"},{"id":"osm:node:12118808657","latitude":42.8504801,"longitude":-2.6748365,"name":"Jesusen Zerbitzarien Fundatzailearen kalea near Aldabe plazatxoa","properties":{"access":"unknown","bicycle_pa":"stands","capacity":0,"covered":"no","fee":"","operator":"","nameSource":"junction"},"sourceId":"osm"},{"id":"osm:node:12118815309","latitude":42.8503724,"longitude":-2.6752099,"name":"Aldabe plazatxoa near Zerkabarren kalea","properties":{"access":"unknown","bicycle_pa":"stands","capacity":0,"covered":"no","fee":"","operator":"","nameSource":"junction"},"sourceId":"osm"},{"id":"osm:node:12120052344","latitude":42.8756803,"longitude":-2.6481156,"name":"Vasco-Navarroaren bide berdea cycle parking","properties":{"access":"unknown","bicycle_pa":"","capacity":0,"covered":"","fee":"","operator":"","nameSource":"street"},"sourceId":"osm"},{"id":"osm:node:12120066600","latitude":42.8756707,"longitude":-2.6475475,"name":"Vasco-Navarroaren bide berdea cycle parking","properties":{"access":"unknown","bicycle_pa":"","capacity":0,"covered":"","fee":"","operator":"","nameSource":"street"},"sourceId":"osm"},{"id":"osm:node:12120071680","latitude":42.8756252,"longitude":-2.647441,"name":"Vasco-Navarroaren bide berdea by Carpinteria LAU","properties":{"access":"unknown","bicycle_pa":"","capacity":0,"covered":"","fee":"","operator":"","nameSource":"landmark"},"sourceId":"osm"},{"id":"osm:node:12195368038","latitude":42.8505979,"longitude":-2.6753115,"name":"Aldabe kalea near Aldabe plazatxoa","properties":{"access":"unknown","bicycle_pa":"stands","capacity":6,"covered":"no","fee":"","operator":"","nameSource":"junction"},"sourceId":"osm"},{"id":"osm:node:12205122839","latitude":42.8548835,"longitude":-2.6796326,"name":"Gasteiz hiribidea near Basoa kalea","properties":{"access":"unknown","bicycle_pa":"stands","capacity":8,"covered":"no","fee":"","operator":"","nameSource":"junction"},"sourceId":"osm"},{"id":"osm:node:12205203806","latitude":42.8426185,"longitude":-2.7000098,"name":"Gurutze Gorriaren ibilbidea near Ilustrazioaren hiribidea","properties":{"access":"unknown","bicycle_pa":"stands","capacity":0,"covered":"","fee":"","operator":"","nameSource":"junction"},"sourceId":"osm"},{"id":"osm:node:12206827231","latitude":42.8464819,"longitude":-2.6709584,"name":"Olagibel kalea near Gernikako Estatutuaren kalea","properties":{"access":"unknown","bicycle_pa":"stands","capacity":10,"covered":"no","fee":"","operator":"","nameSource":"junction"},"sourceId":"osm"},{"id":"osm:node:12206846893","latitude":42.8463154,"longitude":-2.6696936,"name":"Olagibel kalea near Foru kalea","properties":{"access":"unknown","bicycle_pa":"stands","capacity":6,"covered":"no","fee":"","operator":"","nameSource":"junction"},"sourceId":"osm"},{"id":"osm:node:12206851552","latitude":42.8463333,"longitude":-2.6692254,"name":"Olagibel kalea near Foru kalea","properties":{"access":"unknown","bicycle_pa":"stands","capacity":30,"covered":"no","fee":"","operator":"","nameSource":"junction"},"sourceId":"osm"},{"id":"osm:node:12206861714","latitude":42.8464947,"longitude":-2.6701964,"name":"Olagibel kalea near Foru kalea","properties":{"access":"unknown","bicycle_pa":"stands","capacity":52,"covered":"no","fee":"","operator":"","nameSource":"junction"},"sourceId":"osm"},{"id":"osm:node:12206864445","latitude":42.8464465,"longitude":-2.6701953,"name":"Olagibel kalea near Foru kalea","properties":{"access":"unknown","bicycle_pa":"stands","capacity":38,"covered":"no","fee":"","operator":"","nameSource":"junction"},"sourceId":"osm"},{"id":"osm:node:12348101208","latitude":42.846273,"longitude":-2.6603419,"name":"Errekatxiki kalea near Sutaustegi Zaharreko kalea","properties":{"access":"unknown","bicycle_pa":"stands","capacity":4,"covered":"no","fee":"","operator":"","nameSource":"junction"},"sourceId":"osm"},{"id":"osm:node:12348113151","latitude":42.8462772,"longitude":-2.6604213,"name":"Errekatxiki kalea near Sutaustegi Zaharreko kalea","properties":{"access":"unknown","bicycle_pa":"stands","capacity":4,"covered":"no","fee":"","operator":"","nameSource":"junction"},"sourceId":"osm"},{"id":"osm:node:12348128976","latitude":42.8462295,"longitude":-2.6603131,"name":"Errekatxiki kalea near Sutaustegi Zaharreko kalea","properties":{"access":"unknown","bicycle_pa":"stands","capacity":8,"covered":"no","fee":"","operator":"","nameSource":"junction"},"sourceId":"osm"},{"id":"osm:node:12348131235","latitude":42.8461567,"longitude":-2.6602647,"name":"Sutaustegi Zaharreko kalea near Errekatxiki kalea","properties":{"access":"unknown","bicycle_pa":"stands","capacity":8,"covered":"no","fee":"","operator":"","nameSource":"junction"},"sourceId":"osm"},{"id":"osm:node:12348133164","latitude":42.8465749,"longitude":-2.6603285,"name":"Santa Luzia kalea near Errekatxiki kalea","properties":{"access":"unknown","bicycle_pa":"stands","capacity":6,"covered":"no","fee":"","operator":"","nameSource":"junction"},"sourceId":"osm"},{"id":"osm:node:12348170101","latitude":42.8467042,"longitude":-2.660392,"name":"Errekatxiki kalea near Santa Luzia kalea","properties":{"access":"unknown","bicycle_pa":"stands","capacity":0,"covered":"no","fee":"","operator":"","nameSource":"junction"},"sourceId":"osm"},{"id":"osm:node:12351616157","latitude":42.849357,"longitude":-2.6634311,"name":"Logroño kalea near Palentzia kalea","properties":{"access":"unknown","bicycle_pa":"stands","capacity":8,"covered":"no","fee":"","operator":"","nameSource":"junction"},"sourceId":"osm"},{"id":"osm:node:12507389859","latitude":42.8466876,"longitude":-2.6614629,"name":"Judimendi hiribidea near Santa Luzia kalea","properties":{"access":"unknown","bicycle_pa":"stands","capacity":16,"covered":"no","fee":"","operator":"","nameSource":"junction"},"sourceId":"osm"},{"id":"osm:node:12507417149","latitude":42.846808,"longitude":-2.6620023,"name":"Trebinuko Konderriaren kalea near Tornay medikuaren kalea","properties":{"access":"unknown","bicycle_pa":"stands","capacity":0,"covered":"no","fee":"","operator":"","nameSource":"junction"},"sourceId":"osm"},{"id":"osm:node:13059854941","latitude":42.8497178,"longitude":-2.6851715,"name":"Mauro Ortiz de Urbina margolariaren kalea near Serafin Ajuria kalea","properties":{"access":"unknown","bicycle_pa":"","capacity":0,"covered":"","fee":"","operator":"","nameSource":"junction"},"sourceId":"osm"},{"id":"osm:node:13059854942","latitude":42.8496351,"longitude":-2.6852104,"name":"Mauro Ortiz de Urbina margolariaren kalea near Serafin Ajuria kalea","properties":{"access":"unknown","bicycle_pa":"","capacity":0,"covered":"","fee":"","operator":"","nameSource":"junction"},"sourceId":"osm"},{"id":"osm:node:13059854943","latitude":42.8497738,"longitude":-2.6860545,"name":"Mauro Ortiz de Urbina margolariaren kalea near Clemente Arraiz margolariaren kalea","properties":{"access":"unknown","bicycle_pa":"","capacity":0,"covered":"","fee":"","operator":"","nameSource":"junction"},"sourceId":"osm"},{"id":"osm:node:13059854944","latitude":42.8497686,"longitude":-2.6860218,"name":"Mauro Ortiz de Urbina margolariaren kalea near Clemente Arraiz margolariaren kalea","properties":{"access":"unknown","bicycle_pa":"","capacity":0,"covered":"","fee":"","operator":"","nameSource":"junction"},"sourceId":"osm"},{"id":"osm:node:13059854945","latitude":42.8497652,"longitude":-2.685995,"name":"Mauro Ortiz de Urbina margolariaren kalea near Clemente Arraiz margolariaren kalea","properties":{"access":"unknown","bicycle_pa":"","capacity":0,"covered":"","fee":"","operator":"","nameSource":"junction"},"sourceId":"osm"},{"id":"osm:node:13059854946","latitude":42.8500039,"longitude":-2.6859378,"name":"Clemente Arraiz margolariaren kalea near Mauro Ortiz de Urbina margolariaren kalea","properties":{"access":"unknown","bicycle_pa":"","capacity":0,"covered":"","fee":"","operator":"","nameSource":"junction"},"sourceId":"osm"},{"id":"osm:node:13059854947","latitude":42.8499867,"longitude":-2.6861155,"name":"Clemente Arraiz margolariaren kalea near Mauro Ortiz de Urbina margolariaren kalea","properties":{"access":"unknown","bicycle_pa":"","capacity":0,"covered":"","fee":"","operator":"","nameSource":"junction"},"sourceId":"osm"},{"id":"osm:node:13059854948","latitude":42.8497513,"longitude":-2.6846953,"name":"Vicente Abreu margolariaren kalea near Serafin Ajuria kalea","properties":{"access":"unknown","bicycle_pa":"","capacity":0,"covered":"","fee":"","operator":"","nameSource":"junction"},"sourceId":"osm"},{"id":"osm:node:13059854949","latitude":42.8498644,"longitude":-2.6850694,"name":"Serafin Ajuria kalea near Vicente Abreu margolariaren kalea","properties":{"access":"unknown","bicycle_pa":"","capacity":0,"covered":"","fee":"","operator":"","nameSource":"junction"},"sourceId":"osm"},{"id":"osm:node:13059854950","latitude":42.8506076,"longitude":-2.6847332,"name":"Tomas Zumarraga dohatsuaren kalea near Argentina kalea","properties":{"access":"unknown","bicycle_pa":"","capacity":0,"covered":"","fee":"","operator":"","nameSource":"junction"},"sourceId":"osm"},{"id":"osm:node:13059854951","latitude":42.8506128,"longitude":-2.6847596,"name":"Tomas Zumarraga dohatsuaren kalea near Argentina kalea","properties":{"access":"unknown","bicycle_pa":"","capacity":0,"covered":"","fee":"","operator":"","nameSource":"junction"},"sourceId":"osm"},{"id":"osm:node:13059854952","latitude":42.850615,"longitude":-2.6847931,"name":"Tomas Zumarraga dohatsuaren kalea near Argentina kalea","properties":{"access":"unknown","bicycle_pa":"","capacity":0,"covered":"","fee":"","operator":"","nameSource":"junction"},"sourceId":"osm"},{"id":"osm:node:13059854953","latitude":42.8506195,"longitude":-2.6848206,"name":"Tomas Zumarraga dohatsuaren kalea near Argentina kalea","properties":{"access":"unknown","bicycle_pa":"","capacity":0,"covered":"","fee":"","operator":"","nameSource":"junction"},"sourceId":"osm"},{"id":"osm:node:13059854954","latitude":42.8506247,"longitude":-2.684848,"name":"Tomas Zumarraga dohatsuaren kalea near Argentina kalea","properties":{"access":"unknown","bicycle_pa":"","capacity":0,"covered":"","fee":"","operator":"","nameSource":"junction"},"sourceId":"osm"},{"id":"osm:node:13059854955","latitude":42.8506542,"longitude":-2.6842995,"name":"Tomas Zumarraga dohatsuaren kalea near Argentina kalea","properties":{"access":"unknown","bicycle_pa":"","capacity":0,"covered":"","fee":"","operator":"","nameSource":"junction"},"sourceId":"osm"},{"id":"osm:node:13059854956","latitude":42.8504537,"longitude":-2.6827653,"name":"Sebastian Fernandez de Lezeta kalea near Tomas Zumarraga dohatsuaren kalea","properties":{"access":"unknown","bicycle_pa":"","capacity":0,"covered":"","fee":"","operator":"","nameSource":"junction"},"sourceId":"osm"},{"id":"osm:node:13059854957","latitude":42.8504173,"longitude":-2.6825869,"name":"Sebastian Fernandez de Lezeta kalea near Tomas Zumarraga dohatsuaren kalea","properties":{"access":"unknown","bicycle_pa":"","capacity":0,"covered":"","fee":"","operator":"","nameSource":"junction"},"sourceId":"osm"},{"id":"osm:node:13059854958","latitude":42.8504133,"longitude":-2.6825413,"name":"Tomas Zumarraga dohatsuaren kalea near Sebastian Fernandez de Lezeta kalea","properties":{"access":"unknown","bicycle_pa":"","capacity":0,"covered":"","fee":"","operator":"","nameSource":"junction"},"sourceId":"osm"},{"id":"osm:node:13059854959","latitude":42.8505022,"longitude":-2.6833206,"name":"Sebastian Fernandez de Lezeta kalea near Tomas Zumarraga dohatsuaren kalea","properties":{"access":"unknown","bicycle_pa":"","capacity":0,"covered":"","fee":"","operator":"","nameSource":"junction"},"sourceId":"osm"},{"id":"osm:node:13059854960","latitude":42.8507594,"longitude":-2.6857322,"name":"Clemente Arraiz margolariaren kalea near Tomas Zumarraga dohatsuaren kalea","properties":{"access":"unknown","bicycle_pa":"","capacity":0,"covered":"","fee":"","operator":"","nameSource":"junction"},"sourceId":"osm"},{"id":"osm:node:13059854961","latitude":42.8507256,"longitude":-2.6858986,"name":"Clemente Arraiz margolariaren kalea near Tomas Zumarraga dohatsuaren kalea","properties":{"access":"unknown","bicycle_pa":"","capacity":0,"covered":"","fee":"","operator":"","nameSource":"junction"},"sourceId":"osm"},{"id":"osm:node:13059854963","latitude":42.8500386,"longitude":-2.686842,"name":"Mauro Ortiz de Urbina margolariaren kalea near Gustavo Maeztu margolariaren kalea","properties":{"access":"unknown","bicycle_pa":"","capacity":0,"covered":"","fee":"","operator":"","nameSource":"junction"},"sourceId":"osm"},{"id":"osm:node:13059854964","latitude":42.8502322,"longitude":-2.6882681,"name":"Mauro Ortiz de Urbina margolariaren kalea near Pedro Asua kalea","properties":{"access":"unknown","bicycle_pa":"","capacity":0,"covered":"","fee":"","operator":"","nameSource":"junction"},"sourceId":"osm"},{"id":"osm:node:13059854965","latitude":42.8501555,"longitude":-2.688417,"name":"Mauro Ortiz de Urbina margolariaren kalea near Pedro Asua kalea","properties":{"access":"unknown","bicycle_pa":"","capacity":0,"covered":"","fee":"","operator":"","nameSource":"junction"},"sourceId":"osm"},{"id":"osm:node:13059875414","latitude":42.8481062,"longitude":-2.6845424,"name":"Vicente Abreu margolariaren kalea by San Martin futbol zelaia","properties":{"access":"unknown","bicycle_pa":"stands","capacity":14,"covered":"no","fee":"","operator":"","nameSource":"landmark"},"sourceId":"osm"},{"id":"osm:node:13059875415","latitude":42.8481685,"longitude":-2.6847362,"name":"Adriano VI.aren kalea near Serafin Ajuria kalea","properties":{"access":"unknown","bicycle_pa":"stands","capacity":14,"covered":"no","fee":"","operator":"","nameSource":"junction"},"sourceId":"osm"},{"id":"osm:node:13059875416","latitude":42.8483307,"longitude":-2.684699,"name":"Adriano VI.aren kalea near Serafin Ajuria kalea","properties":{"access":"unknown","bicycle_pa":"","capacity":0,"covered":"","fee":"","operator":"","nameSource":"junction"},"sourceId":"osm"},{"id":"osm:node:13059875417","latitude":42.8478789,"longitude":-2.6834642,"name":"Aurelio Vera-Fajardo margolariaren kalea near Adriano VI.aren kalea","properties":{"access":"unknown","bicycle_pa":"stands","capacity":4,"covered":"no","fee":"","operator":"","nameSource":"junction"},"sourceId":"osm"},{"id":"osm:node:13059912333","latitude":42.8509651,"longitude":-2.6953085,"name":"Ignacio Ruiz de Luzuriaga kalea near Jeronimo Roure kalea","properties":{"access":"unknown","bicycle_pa":"","capacity":0,"covered":"","fee":"","operator":"","nameSource":"junction"},"sourceId":"osm"},{"id":"osm:node:13059912334","latitude":42.8509001,"longitude":-2.6953365,"name":"Ignacio Ruiz de Luzuriaga kalea near Jeronimo Roure kalea","properties":{"access":"unknown","bicycle_pa":"","capacity":0,"covered":"","fee":"","operator":"","nameSource":"junction"},"sourceId":"osm"},{"id":"osm:node:13059912335","latitude":42.8511192,"longitude":-2.6966185,"name":"Ignacio Ruiz de Luzuriaga kalea cycle parking","properties":{"access":"unknown","bicycle_pa":"stands","capacity":8,"covered":"no","fee":"","operator":"","nameSource":"street"},"sourceId":"osm"},{"id":"osm:node:13059912336","latitude":42.8518604,"longitude":-2.695112,"name":"Jeronimo Roure kalea cycle parking","properties":{"access":"unknown","bicycle_pa":"","capacity":0,"covered":"","fee":"","operator":"","nameSource":"street"},"sourceId":"osm"},{"id":"osm:node:13059912337","latitude":42.8518228,"longitude":-2.6951244,"name":"Jeronimo Roure kalea cycle parking","properties":{"access":"unknown","bicycle_pa":"","capacity":0,"covered":"","fee":"","operator":"","nameSource":"street"},"sourceId":"osm"},{"id":"osm:node:13144017361","latitude":42.8557523,"longitude":-2.669649,"name":"Behenafarroa kalea near Fermin Lasuen kalea","properties":{"access":"yes","bicycle_pa":"wide_stands","capacity":4,"covered":"no","fee":"no","operator":"","nameSource":"junction"},"sourceId":"osm"},{"id":"osm:node:13195825798","latitude":42.8474619,"longitude":-2.6594875,"name":"Done Jakue hiribidea near Madril kalea","properties":{"access":"unknown","bicycle_pa":"stands","capacity":6,"covered":"no","fee":"","operator":"","nameSource":"junction"},"sourceId":"osm"},{"id":"osm:node:13195871075","latitude":42.8476146,"longitude":-2.6595005,"name":"Done Jakue hiribidea near Madril kalea","properties":{"access":"unknown","bicycle_pa":"stands","capacity":4,"covered":"no","fee":"","operator":"","nameSource":"junction"},"sourceId":"osm"},{"id":"osm:node:13195887521","latitude":42.8467106,"longitude":-2.6589917,"name":"Sutaustegi Zaharreko kalea by Iparla","properties":{"access":"unknown","bicycle_pa":"stands","capacity":10,"covered":"no","fee":"","operator":"","nameSource":"landmark"},"sourceId":"osm"},{"id":"osm:node:13195889926","latitude":42.8478115,"longitude":-2.65992,"name":"Done Jakue hiribidea near Errekatxiki kalea","properties":{"access":"unknown","bicycle_pa":"stands","capacity":16,"covered":"no","fee":"","operator":"","nameSource":"junction"},"sourceId":"osm"},{"id":"osm:node:13202535251","latitude":42.8438236,"longitude":-2.6873146,"name":"Teodoro Dublang margolariaren kalea by San Martingo Osasun Zentroa","properties":{"access":"yes","bicycle_pa":"stands","capacity":14,"covered":"no","fee":"","operator":"","nameSource":"landmark"},"sourceId":"osm"},{"id":"osm:node:13246216915","latitude":42.8441911,"longitude":-2.6517416,"name":"Bukarest kalea near Bratislava hiribidea","properties":{"access":"unknown","bicycle_pa":"stands","capacity":50,"covered":"yes","fee":"","operator":"","nameSource":"junction"},"sourceId":"osm"},{"id":"osm:node:13254565512","latitude":42.8475171,"longitude":-2.6613423,"name":"Judimendi hiribidea near Done Jakue hiribidea","properties":{"access":"unknown","bicycle_pa":"stands","capacity":14,"covered":"no","fee":"","operator":"","nameSource":"junction"},"sourceId":"osm"},{"id":"osm:node:13281370356","latitude":42.8497663,"longitude":-2.667535,"name":"Esperantza kalea cycle parking","properties":{"access":"unknown","bicycle_pa":"stands","capacity":10,"covered":"no","fee":"","operator":"","nameSource":"street"},"sourceId":"osm"},{"id":"osm:node:13316882495","latitude":42.8479021,"longitude":-2.6597522,"name":"Done Jakue hiribidea near Errekatxiki kalea","properties":{"access":"unknown","bicycle_pa":"stands","capacity":4,"covered":"no","fee":"","operator":"","nameSource":"junction"},"sourceId":"osm"},{"id":"osm:node:13324513910","latitude":42.8515762,"longitude":-2.6549619,"name":"Joaquin Collar kalea near Brusela hiribidea","properties":{"access":"unknown","bicycle_pa":"stands","capacity":8,"covered":"no","fee":"","operator":"","nameSource":"junction"},"sourceId":"osm"},{"id":"osm:node:13324513911","latitude":42.8518017,"longitude":-2.6549506,"name":"Joaquin Collar kalea near Brusela hiribidea","properties":{"access":"unknown","bicycle_pa":"stands","capacity":8,"covered":"no","fee":"","operator":"","nameSource":"junction"},"sourceId":"osm"},{"id":"osm:node:13324521523","latitude":42.8521736,"longitude":-2.654964,"name":"Joaquin Collar kalea cycle parking","properties":{"access":"unknown","bicycle_pa":"stands","capacity":8,"covered":"no","fee":"","operator":"","nameSource":"street"},"sourceId":"osm"},{"id":"osm:node:13338558284","latitude":42.8482902,"longitude":-2.6555207,"name":"Elorriagako atea near Galileo kalea","properties":{"access":"unknown","bicycle_pa":"stands","capacity":4,"covered":"no","fee":"","operator":"","nameSource":"junction"},"sourceId":"osm"},{"id":"osm:node:13338569285","latitude":42.849969,"longitude":-2.6530307,"name":"Paris hiribidea cycle parking","properties":{"access":"unknown","bicycle_pa":"stands","capacity":10,"covered":"no","fee":"","operator":"","nameSource":"street"},"sourceId":"osm"},{"id":"osm:node:13355860428","latitude":42.845665,"longitude":-2.6633698,"name":"Jose Mardones kalea near Olagibel kalea","properties":{"access":"unknown","bicycle_pa":"stands","capacity":0,"covered":"no","fee":"","operator":"","nameSource":"junction"},"sourceId":"osm"},{"id":"osm:node:13355865376","latitude":42.8460654,"longitude":-2.6678944,"name":"Bake kalea near Olagibel kalea","properties":{"access":"unknown","bicycle_pa":"stands","capacity":12,"covered":"no","fee":"","operator":"","nameSource":"junction"},"sourceId":"osm"},{"id":"osm:node:13355890173","latitude":42.8461904,"longitude":-2.6681387,"name":"Olagibel kalea near Bake kalea","properties":{"access":"unknown","bicycle_pa":"stands","capacity":24,"covered":"no","fee":"","operator":"","nameSource":"junction"},"sourceId":"osm"},{"id":"osm:node:13355938623","latitude":42.8452043,"longitude":-2.6610442,"name":"Judimendi hiribidea near Olagibel kalea","properties":{"access":"unknown","bicycle_pa":"stands","capacity":8,"covered":"no","fee":"","operator":"","nameSource":"junction"},"sourceId":"osm"},{"id":"osm:node:13355940037","latitude":42.845663,"longitude":-2.6635448,"name":"Jose Mardones kalea near Olagibel kalea","properties":{"access":"unknown","bicycle_pa":"stands","capacity":0,"covered":"no","fee":"","operator":"","nameSource":"junction"},"sourceId":"osm"},{"id":"osm:node:13355948619","latitude":42.8436019,"longitude":-2.6615132,"name":"Judimendi hiribidea cycle parking","properties":{"access":"unknown","bicycle_pa":"stands","capacity":6,"covered":"no","fee":"","operator":"","nameSource":"street"},"sourceId":"osm"},{"id":"osm:node:13362464591","latitude":42.8469434,"longitude":-2.6681059,"name":"Errege atea near Bake kalea","properties":{"access":"unknown","bicycle_pa":"stands","capacity":8,"covered":"no","fee":"","operator":"","nameSource":"junction"},"sourceId":"osm"},{"id":"osm:node:13367442722","latitude":42.8456813,"longitude":-2.6613243,"name":"Judimendi hiribidea near Olagibel kalea","properties":{"access":"unknown","bicycle_pa":"stands","capacity":12,"covered":"no","fee":"","operator":"","nameSource":"junction"},"sourceId":"osm"},{"id":"osm:node:13367501780","latitude":42.8444931,"longitude":-2.66507,"name":"Urriaren Hamabiaren kalea near Herrandarren kalea","properties":{"access":"unknown","bicycle_pa":"stands","capacity":6,"covered":"no","fee":"","operator":"","nameSource":"junction"},"sourceId":"osm"},{"id":"osm:node:13367502170","latitude":42.845159,"longitude":-2.66553,"name":"Pio XII.aren kalea near Posta kalea","properties":{"access":"unknown","bicycle_pa":"stands","capacity":8,"covered":"no","fee":"","operator":"","nameSource":"junction"},"sourceId":"osm"},{"id":"osm:node:13367544936","latitude":42.8445386,"longitude":-2.6659712,"name":"Urriaren Hamabiaren kalea near Pio XII.aren kalea","properties":{"access":"unknown","bicycle_pa":"stands","capacity":50,"covered":"no","fee":"","operator":"","nameSource":"junction"},"sourceId":"osm"},{"id":"osm:node:13367756457","latitude":42.84501,"longitude":-2.6628847,"name":"Jose Mardones kalea near Aranburutarren kalea","properties":{"access":"unknown","bicycle_pa":"stands","capacity":10,"covered":"no","fee":"","operator":"","nameSource":"junction"},"sourceId":"osm"},{"id":"osm:node:13415392678","latitude":42.8501159,"longitude":-2.6661637,"name":"Herrandarren kalea near Arana kalea","properties":{"access":"unknown","bicycle_pa":"stands","capacity":12,"covered":"no","fee":"","operator":"","nameSource":"junction"},"sourceId":"osm"},{"id":"osm:node:13415448503","latitude":42.8502102,"longitude":-2.6661878,"name":"Herrandarren kalea near Arana kalea","properties":{"access":"unknown","bicycle_pa":"stands","capacity":20,"covered":"no","fee":"","operator":"","nameSource":"junction"},"sourceId":"osm"},{"id":"osm:node:13415662165","latitude":42.8482851,"longitude":-2.6657963,"name":"Herrandarren kalea near Askatasun kalea","properties":{"access":"unknown","bicycle_pa":"stands","capacity":11,"covered":"no","fee":"","operator":"","nameSource":"junction"},"sourceId":"osm"},{"id":"osm:node:13440429624","latitude":42.8478184,"longitude":-2.6614842,"name":"Judimendi hiribidea near Done Jakue hiribidea","properties":{"access":"unknown","bicycle_pa":"stands","capacity":10,"covered":"no","fee":"","operator":"","nameSource":"junction"},"sourceId":"osm"},{"id":"osm:node:13440439934","latitude":42.8483287,"longitude":-2.66157,"name":"Jose Antxieta kalea near Judimendi hiribidea","properties":{"access":"unknown","bicycle_pa":"stands","capacity":6,"covered":"no","fee":"","operator":"","nameSource":"junction"},"sourceId":"osm"},{"id":"osm:node:13446060016","latitude":42.8602053,"longitude":-2.6629371,"name":"Zaramaga kalea near Gamarrako atea","properties":{"access":"unknown","bicycle_pa":"stands","capacity":30,"covered":"yes","fee":"","operator":"","nameSource":"junction"},"sourceId":"osm"},{"id":"osm:node:13446060832","latitude":42.8605483,"longitude":-2.6635602,"name":"Zaramaga kalea cycle parking","properties":{"access":"unknown","bicycle_pa":"wall_loops","capacity":6,"covered":"yes","fee":"","operator":"","nameSource":"street"},"sourceId":"osm"},{"id":"osm:node:13457327306","latitude":42.8515111,"longitude":-2.6586656,"name":"Andaluzia kalea by Aranalde kiroldegia","properties":{"access":"unknown","bicycle_pa":"stands","capacity":40,"covered":"no","fee":"","operator":"","nameSource":"landmark"},"sourceId":"osm"},{"id":"osm:node:13457328746","latitude":42.8512402,"longitude":-2.6586874,"name":"Andaluzia kalea by Aranalde kiroldegia","properties":{"access":"unknown","bicycle_pa":"stands","capacity":10,"covered":"no","fee":"","operator":"","nameSource":"landmark"},"sourceId":"osm"},{"id":"osm:node:13459608170","latitude":42.8509306,"longitude":-2.6596185,"name":"Leon kalea near Leoncio Garnier kalea","properties":{"access":"unknown","bicycle_pa":"stands","capacity":6,"covered":"no","fee":"","operator":"","nameSource":"junction"},"sourceId":"osm"},{"id":"osm:node:13567264088","latitude":42.8504076,"longitude":-2.6668324,"name":"Arana kalea near Herrandarren kalea","properties":{"access":"unknown","bicycle_pa":"","capacity":0,"covered":"","fee":"","operator":"","nameSource":"junction"},"sourceId":"osm"},{"id":"osm:node:13581400255","latitude":42.8604,"longitude":-2.6626363,"name":"Gamarrako atea cycle parking","properties":{"access":"unknown","bicycle_pa":"wall_loops","capacity":30,"covered":"yes","fee":"","operator":"","nameSource":"street"},"sourceId":"osm"},{"id":"osm:node:13747481298","latitude":42.8437477,"longitude":-2.6867815,"name":"VGbiziz San Martin","properties":{"access":"unknown","bicycle_pa":"shed","capacity":50,"covered":"yes","fee":"yes","operator":"","nameSource":"source"},"sourceId":"osm"},{"id":"osm:node:13747481299","latitude":42.8546139,"longitude":-2.6954562,"name":"VGbiziz Sansomendi","properties":{"access":"unknown","bicycle_pa":"shed","capacity":50,"covered":"yes","fee":"yes","operator":"","nameSource":"source"},"sourceId":"osm"},{"id":"osm:node:13747561533","latitude":42.8478542,"longitude":-2.6692491,"name":"VGbiziz Kanpokale Berria","properties":{"access":"unknown","bicycle_pa":"building","capacity":38,"covered":"yes","fee":"yes","operator":"","nameSource":"source"},"sourceId":"osm"},{"id":"osm:node:13747561534","latitude":42.8500409,"longitude":-2.6740894,"name":"VGbiziz Zapataria","properties":{"access":"unknown","bicycle_pa":"building","capacity":17,"covered":"yes","fee":"yes","operator":"","nameSource":"source"},"sourceId":"osm"},{"id":"osm:node:13747561535","latitude":42.855849,"longitude":-2.670548,"name":"VGbiziz Zaramaga","properties":{"access":"unknown","bicycle_pa":"shed","capacity":48,"covered":"yes","fee":"yes","operator":"","nameSource":"source"},"sourceId":"osm"},{"id":"osm:node:13754193921","latitude":42.8454323,"longitude":-2.6579677,"name":"Jacinto Benavente kalea by Covirán","properties":{"access":"unknown","bicycle_pa":"stands","capacity":0,"covered":"no","fee":"","operator":"","nameSource":"landmark"},"sourceId":"osm"},{"id":"osm:node:13808402024","latitude":42.8490777,"longitude":-2.6670862,"name":"Prudencio Maria Berastegi kalea near La Paloma kalea","properties":{"access":"unknown","bicycle_pa":"stands","capacity":16,"covered":"no","fee":"","operator":"","nameSource":"junction"},"sourceId":"osm"},{"id":"osm:node:13929648737","latitude":42.8484654,"longitude":-2.6729659,"name":"Bakardade kantoia near Frai Zacarias Martinez kalea","properties":{"access":"unknown","bicycle_pa":"stands","capacity":8,"covered":"no","fee":"no","operator":"","nameSource":"junction"},"sourceId":"osm"},{"id":"osm:node:13929648738","latitude":42.8486032,"longitude":-2.6729848,"name":"Bakardade kantoia near Frai Zacarias Martinez kalea","properties":{"access":"unknown","bicycle_pa":"stands","capacity":8,"covered":"no","fee":"no","operator":"","nameSource":"junction"},"sourceId":"osm"},{"id":"osm:node:13950442794","latitude":42.851184,"longitude":-2.6962045,"name":"Ignacio Ruiz de Luzuriaga kalea near Jeronimo Roure kalea","properties":{"access":"unknown","bicycle_pa":"stands","capacity":4,"covered":"no","fee":"","operator":"","nameSource":"junction"},"sourceId":"osm"},{"id":"osm:node:13961644358","latitude":42.8452134,"longitude":-2.6585754,"name":"VGbiziz Santa Luzia","properties":{"access":"yes","bicycle_pa":"shed","capacity":50,"covered":"yes","fee":"yes","operator":"","nameSource":"source"},"sourceId":"osm"},{"id":"osm:node:13982138592","latitude":42.8440119,"longitude":-2.6754861,"name":"Floridako ibilbidea by Ignacio Aldekoa Kultur Etxea","properties":{"access":"unknown","bicycle_pa":"stands","capacity":10,"covered":"no","fee":"","operator":"","nameSource":"landmark"},"sourceId":"osm"},{"id":"osm:node:13982154626","latitude":42.8441121,"longitude":-2.67547,"name":"Floridako ibilbidea by Ignacio Aldekoa Kultur Etxea","properties":{"access":"unknown","bicycle_pa":"stands","capacity":10,"covered":"no","fee":"","operator":"","nameSource":"landmark"},"sourceId":"osm"},{"id":"osm:node:13982175835","latitude":42.8435629,"longitude":-2.675434,"name":"Santiago Ramon y Cajal kalea near Florida kalea","properties":{"access":"unknown","bicycle_pa":"stands","capacity":2,"covered":"no","fee":"","operator":"","nameSource":"junction"},"sourceId":"osm"},{"id":"osm:node:2449407524","latitude":42.8470322,"longitude":-2.6597192,"name":"Santa Luzia kalea near Errekatxiki kalea","properties":{"access":"unknown","bicycle_pa":"stands","capacity":4,"covered":"no","fee":"","operator":"","nameSource":"junction"},"sourceId":"osm"},{"id":"osm:node:2449407525","latitude":42.8469658,"longitude":-2.6597192,"name":"Santa Luzia kalea near Errekatxiki kalea","properties":{"access":"unknown","bicycle_pa":"stands","capacity":4,"covered":"no","fee":"","operator":"","nameSource":"junction"},"sourceId":"osm"},{"id":"osm:node:2449409205","latitude":42.8374421,"longitude":-2.6651816,"name":"Trikitixa kalea by La Jungla","properties":{"access":"unknown","bicycle_pa":"","capacity":6,"covered":"","fee":"","operator":"","nameSource":"landmark"},"sourceId":"osm"},{"id":"osm:node:2449418533","latitude":42.8470646,"longitude":-2.6810765,"name":"Adriano VI.aren kalea near Gasteiz hiribidea","properties":{"access":"unknown","bicycle_pa":"stands","capacity":0,"covered":"no","fee":"","operator":"","nameSource":"junction"},"sourceId":"osm"},{"id":"osm:node:4466120775","latitude":42.8473954,"longitude":-2.6819037,"name":"Gasteiz hiribidea near Adriano VI.aren kalea","properties":{"access":"unknown","bicycle_pa":"stands","capacity":12,"covered":"no","fee":"","operator":"","nameSource":"junction"},"sourceId":"osm"},{"id":"osm:node:4466120776","latitude":42.8476286,"longitude":-2.6825819,"name":"Adriano VI.aren kalea near Abendaño kalea","properties":{"access":"unknown","bicycle_pa":"","capacity":0,"covered":"","fee":"","operator":"","nameSource":"junction"},"sourceId":"osm"},{"id":"osm:node:4622483777","latitude":42.8447006,"longitude":-2.681101,"name":"Arantzabal kalea cycle parking","properties":{"access":"unknown","bicycle_pa":"stands","capacity":10,"covered":"no","fee":"","operator":"","nameSource":"street"},"sourceId":"osm"},{"id":"osm:node:4898269356","latitude":42.8520298,"longitude":-2.6858356,"name":"Txile kalea near Vicente Gonzalez de Etxabarri kalea","properties":{"access":"unknown","bicycle_pa":"","capacity":0,"covered":"yes","fee":"","operator":"","nameSource":"junction"},"sourceId":"osm"},{"id":"osm:node:4898269357","latitude":42.853557,"longitude":-2.6853435,"name":"Vicente Gonzalez de Etxabarri kalea by Miguel de Unamuno institutua","properties":{"access":"private","bicycle_pa":"","capacity":0,"covered":"","fee":"","operator":"","nameSource":"landmark"},"sourceId":"osm"},{"id":"osm:node:4898269358","latitude":42.8532909,"longitude":-2.685403,"name":"Vicente Gonzalez de Etxabarri kalea by Miguel de Unamuno institutua","properties":{"access":"unknown","bicycle_pa":"","capacity":0,"covered":"","fee":"","operator":"","nameSource":"landmark"},"sourceId":"osm"},{"id":"osm:node:4949057381","latitude":42.8515952,"longitude":-2.688598,"name":"Diego Borika Retegi kalea by Iraty","properties":{"access":"unknown","bicycle_pa":"stands","capacity":14,"covered":"no","fee":"","operator":"","nameSource":"landmark"},"sourceId":"osm"},{"id":"osm:node:4949057385","latitude":42.8527824,"longitude":-2.6908645,"name":"Diego Borika Retegi kalea cycle parking","properties":{"access":"unknown","bicycle_pa":"","capacity":0,"covered":"","fee":"","operator":"","nameSource":"street"},"sourceId":"osm"},{"id":"osm:node:5047028133","latitude":42.8462395,"longitude":-2.6781803,"name":"Magdalena kalea near Lovaina plaza","properties":{"access":"unknown","bicycle_pa":"stands","capacity":0,"covered":"","fee":"","operator":"","nameSource":"junction"},"sourceId":"osm"},{"id":"osm:node:5048797319","latitude":42.846832,"longitude":-2.6794336,"name":"Antso Jakitunaren kalea near Lovaina plaza","properties":{"access":"unknown","bicycle_pa":"stands","capacity":14,"covered":"no","fee":"","operator":"","nameSource":"junction"},"sourceId":"osm"},{"id":"osm:node:5413746567","latitude":42.8585302,"longitude":-2.685455,"name":"VGbiziz Geltokia","properties":{"access":"yes","bicycle_pa":"building","capacity":100,"covered":"","fee":"yes","operator":"","nameSource":"source"},"sourceId":"osm"},{"id":"osm:node:5413746568","latitude":42.8647776,"longitude":-2.6804138,"name":"VGbiziz Arriaga","properties":{"access":"yes","bicycle_pa":"shed","capacity":50,"covered":"yes","fee":"yes","operator":"","nameSource":"source"},"sourceId":"osm"},{"id":"osm:node:5413746569","latitude":42.8460855,"longitude":-2.6660025,"name":"VGbiziz Santiago","properties":{"access":"yes","bicycle_pa":"shed","capacity":50,"covered":"yes","fee":"yes","operator":"","nameSource":"source"},"sourceId":"osm"},{"id":"osm:node:5413746570","latitude":42.8405037,"longitude":-2.6713994,"name":"VGbiziz Campusa","properties":{"access":"yes","bicycle_pa":"shed","capacity":50,"covered":"yes","fee":"yes","operator":"","nameSource":"source"},"sourceId":"osm"},{"id":"osm:node:5413746571","latitude":42.8376034,"longitude":-2.6869841,"name":"VGbiziz Mendizorrotza","properties":{"access":"yes","bicycle_pa":"shed","capacity":50,"covered":"yes","fee":"yes","operator":"","nameSource":"source"},"sourceId":"osm"},{"id":"osm:node:5476377133","latitude":42.8588235,"longitude":-2.6755171,"name":"Guatemala kalea near Venezuela kalea","properties":{"access":"unknown","bicycle_pa":"","capacity":0,"covered":"","fee":"","operator":"","nameSource":"junction"},"sourceId":"osm"},{"id":"osm:node:5476377134","latitude":42.8598012,"longitude":-2.6762219,"name":"Panama kalea cycle parking","properties":{"access":"unknown","bicycle_pa":"","capacity":0,"covered":"","fee":"","operator":"","nameSource":"street"},"sourceId":"osm"},{"id":"osm:node:5476377135","latitude":42.8603916,"longitude":-2.676023,"name":"Panama kalea near Juan Garai kalea","properties":{"access":"unknown","bicycle_pa":"","capacity":0,"covered":"","fee":"","operator":"","nameSource":"junction"},"sourceId":"osm"},{"id":"osm:node:5476377136","latitude":42.8592256,"longitude":-2.6780604,"name":"Brasil kalea by El Pilar","properties":{"access":"unknown","bicycle_pa":"","capacity":0,"covered":"","fee":"","operator":"","nameSource":"landmark"},"sourceId":"osm"},{"id":"osm:node:5476377137","latitude":42.8601008,"longitude":-2.6776709,"name":"Paraguai kalea near Juan Garai kalea","properties":{"access":"unknown","bicycle_pa":"","capacity":0,"covered":"","fee":"","operator":"","nameSource":"junction"},"sourceId":"osm"},{"id":"osm:node:5476377138","latitude":42.8598479,"longitude":-2.6778763,"name":"Paraguai kalea near Juan Garai kalea","properties":{"access":"unknown","bicycle_pa":"","capacity":0,"covered":"","fee":"","operator":"","nameSource":"junction"},"sourceId":"osm"},{"id":"osm:node:5476377139","latitude":42.8575118,"longitude":-2.6791299,"name":"Puerto Rico kalea near Venezuela kalea","properties":{"access":"unknown","bicycle_pa":"","capacity":0,"covered":"","fee":"","operator":"","nameSource":"junction"},"sourceId":"osm"},{"id":"osm:node:5476377140","latitude":42.8587159,"longitude":-2.6800969,"name":"Kuba kalea by Habana-Kubako Osasun Zentroa","properties":{"access":"unknown","bicycle_pa":"","capacity":0,"covered":"","fee":"","operator":"","nameSource":"landmark"},"sourceId":"osm"},{"id":"osm:node:5483688856","latitude":42.8395795,"longitude":-2.6739634,"name":"Julio Caro Baroja kalea near René Cassin kalea","properties":{"access":"unknown","bicycle_pa":"","capacity":20,"covered":"","fee":"","operator":"","nameSource":"junction"},"sourceId":"osm"},{"id":"osm:node:5483688857","latitude":42.8394442,"longitude":-2.6738058,"name":"Julio Caro Baroja kalea near René Cassin kalea","properties":{"access":"unknown","bicycle_pa":"","capacity":20,"covered":"","fee":"","operator":"","nameSource":"junction"},"sourceId":"osm"},{"id":"osm:node:5483700182","latitude":42.8389624,"longitude":-2.6744628,"name":"Jorge Diez Elorza lorategia near Nieves Cano kalea","properties":{"access":"yes","bicycle_pa":"stands","capacity":10,"covered":"","fee":"no","operator":"","nameSource":"junction"},"sourceId":"osm"},{"id":"osm:node:5483700183","latitude":42.8390804,"longitude":-2.6745111,"name":"Jorge Diez Elorza lorategia near Nieves Cano kalea","properties":{"access":"yes","bicycle_pa":"stands","capacity":36,"covered":"no","fee":"no","operator":"","nameSource":"junction"},"sourceId":"osm"},{"id":"osm:node:5483700184","latitude":42.8392112,"longitude":-2.6746331,"name":"Jorge Diez Elorza lorategia near Nieves Cano kalea","properties":{"access":"yes","bicycle_pa":"stands","capacity":36,"covered":"no","fee":"","operator":"","nameSource":"junction"},"sourceId":"osm"},{"id":"osm:node:5968271223","latitude":42.836573,"longitude":-2.6639237,"name":"VGbiziz Los Molinos 50","properties":{"access":"unknown","bicycle_pa":"shed","capacity":50,"covered":"yes","fee":"","operator":"VGBiziz","nameSource":"source"},"sourceId":"osm"},{"id":"osm:node:6074249351","latitude":42.8522726,"longitude":-2.6803903,"name":"Gasteiz hiribidea near Gurutze Zuriko kalea","properties":{"access":"unknown","bicycle_pa":"stands","capacity":16,"covered":"no","fee":"","operator":"","nameSource":"junction"},"sourceId":"osm"},{"id":"osm:node:6152536666","latitude":42.8448128,"longitude":-2.6699421,"name":"Alaba Jeneralaren kalea near Foru kalea","properties":{"access":"unknown","bicycle_pa":"stands","capacity":0,"covered":"no","fee":"","operator":"","nameSource":"junction"},"sourceId":"osm"},{"id":"osm:node:6178979706","latitude":42.8472214,"longitude":-2.6749965,"name":"Jesusen Zerbitzarien Fundatzailearen kalea near Probintzia plaza","properties":{"access":"yes","bicycle_pa":"stands","capacity":40,"covered":"no","fee":"no","operator":"","nameSource":"junction"},"sourceId":"osm"},{"id":"osm:node:6436872987","latitude":42.8523545,"longitude":-2.6705078,"name":"San Ignacio Loiolakoaren kalea near Santa Maria kantoia","properties":{"access":"unknown","bicycle_pa":"","capacity":0,"covered":"no","fee":"","operator":"","nameSource":"junction"},"sourceId":"osm"},{"id":"osm:node:6436872988","latitude":42.8519669,"longitude":-2.6704952,"name":"Santa Maria kantoia near San Ignacio Loiolakoaren kalea","properties":{"access":"unknown","bicycle_pa":"stands","capacity":12,"covered":"no","fee":"","operator":"","nameSource":"junction"},"sourceId":"osm"},{"id":"osm:node:6436872990","latitude":42.8516038,"longitude":-2.6708253,"name":"Bueno Monreal kalea near Antepara kalea","properties":{"access":"unknown","bicycle_pa":"stands","capacity":22,"covered":"no","fee":"","operator":"","nameSource":"junction"},"sourceId":"osm"},{"id":"osm:node:6436945285","latitude":42.84977,"longitude":-2.6712853,"name":"Aiztogile kalea near Santa Ana kantoia","properties":{"access":"unknown","bicycle_pa":"","capacity":0,"covered":"","fee":"","operator":"","nameSource":"junction"},"sourceId":"osm"},{"id":"osm:node:6438065485","latitude":42.8454867,"longitude":-2.6741553,"name":"Loma Jeneralaren plaza near Posta kalea","properties":{"access":"yes","bicycle_pa":"stands","capacity":70,"covered":"no","fee":"no","operator":"","nameSource":"junction"},"sourceId":"osm"},{"id":"osm:node:6438065585","latitude":42.8451798,"longitude":-2.6746661,"name":"Floridako ibilbidea by Caressa-Repostería Creativa","properties":{"access":"unknown","bicycle_pa":"stands","capacity":36,"covered":"no","fee":"","operator":"","nameSource":"landmark"},"sourceId":"osm"},{"id":"osm:node:6502303085","latitude":42.8545012,"longitude":-2.6675281,"name":"Zuberoa plaza near Behenafarroa kalea","properties":{"access":"unknown","bicycle_pa":"stands","capacity":0,"covered":"no","fee":"","operator":"","nameSource":"junction"},"sourceId":"osm"},{"id":"osm:node:6502303086","latitude":42.854875,"longitude":-2.6676561,"name":"Zuberoa plaza near Behenafarroa kalea","properties":{"access":"unknown","bicycle_pa":"stands","capacity":0,"covered":"no","fee":"","operator":"","nameSource":"junction"},"sourceId":"osm"},{"id":"osm:node:6510707385","latitude":42.8596216,"longitude":-2.6841577,"name":"Euskaltzaindiaren plaza near Resurreccion Maria de Azkue kalea","properties":{"access":"unknown","bicycle_pa":"stands","capacity":0,"covered":"no","fee":"","operator":"","nameSource":"junction"},"sourceId":"osm"},{"id":"osm:node:6510707485","latitude":42.8595865,"longitude":-2.6839869,"name":"Rafael Alberti kalea near Jorge Guillen kalea","properties":{"access":"unknown","bicycle_pa":"stands","capacity":0,"covered":"no","fee":"","operator":"","nameSource":"junction"},"sourceId":"osm"},{"id":"osm:node:6510707585","latitude":42.8595449,"longitude":-2.6839652,"name":"Rafael Alberti kalea near Jorge Guillen kalea","properties":{"access":"unknown","bicycle_pa":"stands","capacity":0,"covered":"no","fee":"","operator":"","nameSource":"junction"},"sourceId":"osm"},{"id":"osm:node:6510707685","latitude":42.8594479,"longitude":-2.6839546,"name":"Rafael Alberti kalea near Jorge Guillen kalea","properties":{"access":"unknown","bicycle_pa":"stands","capacity":140,"covered":"no","fee":"","operator":"","nameSource":"junction"},"sourceId":"osm"},{"id":"osm:node:6545060687","latitude":42.8399698,"longitude":-2.7075198,"name":"Iruña-Veleia hiribidea near Eskuernaga kalea","properties":{"access":"unknown","bicycle_pa":"","capacity":0,"covered":"","fee":"","operator":"","nameSource":"junction"},"sourceId":"osm"},{"id":"osm:node:6545075386","latitude":42.8400684,"longitude":-2.7072215,"name":"Oion kalea by A. García Otaño","properties":{"access":"unknown","bicycle_pa":"","capacity":0,"covered":"","fee":"","operator":"","nameSource":"landmark"},"sourceId":"osm"},{"id":"osm:node:6633045989","latitude":42.8571627,"longitude":-2.6635919,"name":"Legutianoko atea near Gamarrako atea","properties":{"access":"unknown","bicycle_pa":"stands","capacity":0,"covered":"no","fee":"","operator":"","nameSource":"junction"},"sourceId":"osm"},{"id":"osm:node:6633061587","latitude":42.8569852,"longitude":-2.6634385,"name":"Legutianoko atea near Betoñuko atea","properties":{"access":"unknown","bicycle_pa":"","capacity":0,"covered":"no","fee":"","operator":"","nameSource":"junction"},"sourceId":"osm"},{"id":"osm:node:6633132389","latitude":42.8611802,"longitude":-2.6698034,"name":"Zaramaga kalea near Nafarroako Errege-Erreginen kalea","properties":{"access":"unknown","bicycle_pa":"","capacity":0,"covered":"","fee":"","operator":"","nameSource":"junction"},"sourceId":"osm"},{"id":"osm:node:6633143185","latitude":42.860644,"longitude":-2.6695239,"name":"Nafarroako Errege-Erreginen kalea near Urkiola mendatearen kalea","properties":{"access":"unknown","bicycle_pa":"","capacity":0,"covered":"","fee":"","operator":"","nameSource":"junction"},"sourceId":"osm"},{"id":"osm:node:6864236301","latitude":42.8541015,"longitude":-2.6919603,"name":"Francisco Leandro Viana kalea by Txagorritxuko kanpo kontsultak","properties":{"access":"unknown","bicycle_pa":"stands","capacity":0,"covered":"no","fee":"","operator":"","nameSource":"landmark"},"sourceId":"osm"},{"id":"osm:node:6864236302","latitude":42.8544619,"longitude":-2.6922267,"name":"Francisco Leandro Viana kalea by Txagorritxuko kanpo kontsultak","properties":{"access":"unknown","bicycle_pa":"stands","capacity":0,"covered":"no","fee":"","operator":"","nameSource":"landmark"},"sourceId":"osm"},{"id":"osm:node:6898919652","latitude":42.8370982,"longitude":-2.6720832,"name":"Herminio Madinabeitia kalea near Domingo Martinez de Aragon kalea","properties":{"access":"unknown","bicycle_pa":"","capacity":8,"covered":"","fee":"","operator":"","nameSource":"junction"},"sourceId":"osm"},{"id":"osm:node:6903887841","latitude":42.8537789,"longitude":-2.6861564,"name":"Maximo Gisasola kalea by Miguel de Unamuno institutua","properties":{"access":"private","bicycle_pa":"","capacity":0,"covered":"","fee":"","operator":"","nameSource":"landmark"},"sourceId":"osm"},{"id":"osm:node:6903960517","latitude":42.8549091,"longitude":-2.6835487,"name":"Argentina kalea by San Viator ikastetxea","properties":{"access":"unknown","bicycle_pa":"","capacity":14,"covered":"","fee":"","operator":"","nameSource":"landmark"},"sourceId":"osm"},{"id":"osm:node:6903975689","latitude":42.8542833,"longitude":-2.683671,"name":"Argentina kalea near Ekuador kalea","properties":{"access":"unknown","bicycle_pa":"","capacity":6,"covered":"no","fee":"","operator":"","nameSource":"junction"},"sourceId":"osm"},{"id":"osm:node:6903975690","latitude":42.8547162,"longitude":-2.6836089,"name":"Argentina kalea cycle parking","properties":{"access":"unknown","bicycle_pa":"","capacity":16,"covered":"","fee":"","operator":"","nameSource":"street"},"sourceId":"osm"},{"id":"osm:node:6903975691","latitude":42.8552501,"longitude":-2.6834172,"name":"Argentina kalea near San Viator kalea","properties":{"access":"unknown","bicycle_pa":"stands","capacity":4,"covered":"no","fee":"","operator":"","nameSource":"junction"},"sourceId":"osm"},{"id":"osm:node:6903975692","latitude":42.8551014,"longitude":-2.6834563,"name":"Argentina kalea near San Viator kalea","properties":{"access":"unknown","bicycle_pa":"stands","capacity":10,"covered":"no","fee":"","operator":"","nameSource":"junction"},"sourceId":"osm"},{"id":"osm:node:6903975693","latitude":42.8555576,"longitude":-2.6833403,"name":"Argentina kalea near San Viator kalea","properties":{"access":"unknown","bicycle_pa":"stands","capacity":6,"covered":"no","fee":"","operator":"","nameSource":"junction"},"sourceId":"osm"},{"id":"osm:node:6968776745","latitude":42.8446949,"longitude":-2.6674773,"name":"VGbiziz Santa Bárbara","properties":{"access":"unknown","bicycle_pa":"shed","capacity":66,"covered":"yes","fee":"yes","operator":"","nameSource":"source"},"sourceId":"osm"},{"id":"osm:node:7071976518","latitude":42.8418015,"longitude":-2.6915104,"name":"VGbiziz Ariznabarra","properties":{"access":"unknown","bicycle_pa":"shed","capacity":50,"covered":"yes","fee":"yes","operator":"","nameSource":"source"},"sourceId":"osm"},{"id":"osm:node:7071976519","latitude":42.8492441,"longitude":-2.6591626,"name":"VGbiziz Arana","properties":{"access":"yes","bicycle_pa":"shed","capacity":50,"covered":"yes","fee":"yes","operator":"","nameSource":"source"},"sourceId":"osm"},{"id":"osm:node:7124114985","latitude":42.8521743,"longitude":-2.6862393,"name":"Txile kalea near Jose Miguel Barandiaran kalea","properties":{"access":"unknown","bicycle_pa":"","capacity":0,"covered":"","fee":"","operator":"","nameSource":"junction"},"sourceId":"osm"},{"id":"osm:node:7146555985","latitude":42.8589375,"longitude":-2.6832822,"name":"Euskal Herria bulebarra near Rafael Alberti kalea","properties":{"access":"unknown","bicycle_pa":"stands","capacity":0,"covered":"no","fee":"","operator":"","nameSource":"junction"},"sourceId":"osm"},{"id":"osm:node:7274083187","latitude":42.854124,"longitude":-2.6672382,"name":"Karlos I enperadorearen plaza near Herrandarren kalea","properties":{"access":"unknown","bicycle_pa":"","capacity":0,"covered":"no","fee":"","operator":"","nameSource":"junction"},"sourceId":"osm"},{"id":"osm:node:7274086385","latitude":42.8543333,"longitude":-2.6669876,"name":"Karlos I enperadorearen plaza near Legutianoko atea","properties":{"access":"unknown","bicycle_pa":"","capacity":0,"covered":"no","fee":"","operator":"","nameSource":"junction"},"sourceId":"osm"},{"id":"osm:node:7629800225","latitude":42.8433842,"longitude":-2.6908335,"name":"Ariznabarra kalea near Ariznabarra Kalea","properties":{"access":"unknown","bicycle_pa":"","capacity":6,"covered":"","fee":"","operator":"","nameSource":"junction"},"sourceId":"osm"},{"id":"osm:node:8059366348","latitude":42.843782,"longitude":-2.6806298,"name":"Bizenta Mogel kalea near Micaela Portilla kalea","properties":{"access":"unknown","bicycle_pa":"stands","capacity":0,"covered":"no","fee":"","operator":"","nameSource":"junction"},"sourceId":"osm"},{"id":"osm:node:8059366349","latitude":42.8436657,"longitude":-2.6809659,"name":"Laskarai kalea near Micaela Portilla kalea","properties":{"access":"unknown","bicycle_pa":"","capacity":0,"covered":"","fee":"","operator":"","nameSource":"junction"},"sourceId":"osm"},{"id":"osm:node:8151190692","latitude":42.8449778,"longitude":-2.6602355,"name":"Errekatxiki kalea cycle parking","properties":{"access":"yes","bicycle_pa":"streetpod","capacity":4,"covered":"no","fee":"no","operator":"","nameSource":"street"},"sourceId":"osm"},{"id":"osm:node:8480404317","latitude":42.8364622,"longitude":-2.701414,"name":"Armentiagana kalea cycle parking","properties":{"access":"unknown","bicycle_pa":"stands","capacity":20,"covered":"no","fee":"","operator":"","nameSource":"street"},"sourceId":"osm"},{"id":"osm:node:8553246606","latitude":42.8488677,"longitude":-2.6736779,"name":"VGbiziz Correría","properties":{"access":"unknown","bicycle_pa":"building","capacity":30,"covered":"yes","fee":"yes","operator":"","nameSource":"source"},"sourceId":"osm"},{"id":"osm:node:8871988217","latitude":42.8573319,"longitude":-2.6711887,"name":"Gasteizko Taldearen kalea near Azazeta mendatearen kalea","properties":{"access":"unknown","bicycle_pa":"","capacity":0,"covered":"","fee":"","operator":"","nameSource":"junction"},"sourceId":"osm"},{"id":"osm:node:8872040018","latitude":42.8444525,"longitude":-2.6822999,"name":"Gasteiz hiribidea near Ignacio Diaz Ruiz de Olano margolariaren kalea","properties":{"access":"unknown","bicycle_pa":"stands","capacity":8,"covered":"no","fee":"","operator":"","nameSource":"junction"},"sourceId":"osm"},{"id":"osm:node:8872066217","latitude":42.8440319,"longitude":-2.682634,"name":"Gasteiz hiribidea near Ignacio Diaz Ruiz de Olano margolariaren kalea","properties":{"access":"unknown","bicycle_pa":"stands","capacity":16,"covered":"no","fee":"","operator":"","nameSource":"junction"},"sourceId":"osm"},{"id":"osm:node:8872066218","latitude":42.8441768,"longitude":-2.6821047,"name":"Laskarai kalea near Gasteiz hiribidea","properties":{"access":"unknown","bicycle_pa":"stands","capacity":46,"covered":"no","fee":"","operator":"","nameSource":"junction"},"sourceId":"osm"},{"id":"osm:node:8872074717","latitude":42.8442961,"longitude":-2.6826196,"name":"Ignacio Diaz Ruiz de Olano margolariaren kalea near Gasteiz hiribidea","properties":{"access":"unknown","bicycle_pa":"stands","capacity":6,"covered":"no","fee":"","operator":"","nameSource":"junction"},"sourceId":"osm"},{"id":"osm:node:8872903017","latitude":42.8581773,"longitude":-2.6716661,"name":"Azazeta mendatearen kalea by Paulo Freire (Zaramaga) helduen ezkuntzako ikastetxea","properties":{"access":"unknown","bicycle_pa":"","capacity":0,"covered":"","fee":"","operator":"","nameSource":"landmark"},"sourceId":"osm"},{"id":"osm:node:8872903117","latitude":42.8589484,"longitude":-2.6722113,"name":"Azazeta mendatearen kalea by Cándido Ruiz de Garibay ikastetxea","properties":{"access":"unknown","bicycle_pa":"","capacity":0,"covered":"","fee":"","operator":"","nameSource":"landmark"},"sourceId":"osm"},{"id":"osm:node:8894962018","latitude":42.8578102,"longitude":-2.6802741,"name":"Venezuela kalea near Kuba kalea","properties":{"access":"unknown","bicycle_pa":"","capacity":0,"covered":"","fee":"","operator":"","nameSource":"junction"},"sourceId":"osm"},{"id":"osm:node:8894967619","latitude":42.8575003,"longitude":-2.6804912,"name":"Puerto Rico kalea by Etchaberry","properties":{"access":"unknown","bicycle_pa":"","capacity":0,"covered":"","fee":"","operator":"","nameSource":"landmark"},"sourceId":"osm"},{"id":"osm:node:9085933161","latitude":42.8585211,"longitude":-2.6375683,"name":"Las Balsas cycle parking","properties":{"access":"yes","bicycle_pa":"","capacity":7,"covered":"no","fee":"no","operator":"","nameSource":"place"},"sourceId":"osm"},{"id":"osm:way:1291299389","latitude":42.85244475999999,"longitude":-2.6919627000000004,"name":"VGbiziz HUA","properties":{"access":"unknown","bicycle_pa":"shed","capacity":50,"covered":"yes","fee":"","operator":"VGbiziz","nameSource":"source"},"sourceId":"osm"},{"id":"osm:way:1309470407","latitude":42.84041738,"longitude":-2.69194608,"name":"Kexaako gazteluaren kalea near Fontetxako gazteluaren kalea","properties":{"access":"yes","bicycle_pa":"","capacity":0,"covered":"no","fee":"no","operator":"","nameSource":"junction"},"sourceId":"osm"},{"id":"osm:way:1336512005","latitude":42.847700259999996,"longitude":-2.65350006,"name":"Budapest hiribidea by Aldi","properties":{"access":"unknown","bicycle_pa":"stands","capacity":6,"covered":"no","fee":"","operator":"","nameSource":"landmark"},"sourceId":"osm"},{"id":"osm:way:1539802952","latitude":42.84606292727272,"longitude":-2.6739859636363636,"name":"Loma Jeneralaren plaza near Posta kalea","properties":{"access":"unknown","bicycle_pa":"","capacity":0,"covered":"","fee":"","operator":"","nameSource":"junction"},"sourceId":"osm"},{"id":"osm:way:665779315","latitude":42.8432725,"longitude":-2.67446832,"name":"San Antonio kalea near Florida kalea","properties":{"access":"yes","bicycle_pa":"rack","capacity":10,"covered":"no","fee":"no","operator":"","nameSource":"junction"},"sourceId":"osm"}],"schemaVersion":2}
