{"key":"12/1980/1496","points":[{"categories":["shop"],"id":"osm:node:11220438034","latitude":43.5720292,"longitude":-5.9288246,"name":"Stelvio Cycling Store","properties":{},"sourceId":"osm"},{"categories":["hire"],"id":"osm:node:12639009153","latitude":43.5517498,"longitude":-5.9142335,"name":"Cycle hire","properties":{},"sourceId":"osm"},{"categories":["repair"],"id":"osm:node:13065498969","latitude":43.5784895,"longitude":-5.9530594,"name":"Bicycle repair station","properties":{},"sourceId":"osm"},{"categories":["shop"],"id":"osm:node:3118240471","latitude":43.5467758,"longitude":-5.9334215,"name":"Garaje Pola","properties":{},"sourceId":"osm"},{"categories":["hire"],"id":"osm:node:5462111296","latitude":43.5566519,"longitude":-5.9258503,"name":"Punto de préstamo de bicicleta","properties":{},"sourceId":"osm"},{"categories":["hire"],"id":"osm:node:5462121751","latitude":43.5559824,"longitude":-5.9341073,"name":"Punto de préstamo de bicicletas","properties":{},"sourceId":"osm"},{"categories":["hire"],"id":"osm:node:5478658169","latitude":43.5376672,"longitude":-5.9036089,"name":"Punto de préstamo de bicicletas","properties":{},"sourceId":"osm"},{"categories":["hire"],"id":"osm:node:9574995759","latitude":43.5611808,"longitude":-5.9230043,"name":"Punto de préstamo de bicicletas","properties":{},"sourceId":"osm"},{"categories":["repair"],"id":"osm:node:9653725814","latitude":43.5373832,"longitude":-5.8906446,"name":"Ayuntamiento","properties":{"fee":"no","operator":"Ayuntamiento"},"sourceId":"osm"}],"schemaVersion":2}
