{"key":"12/2057/1334","points":[{"id":"osm:node:13985464843","latitude":52.9668751,"longitude":0.8141872,"name":"Lady Anne's Drive cycle parking","properties":{"access":"unknown","bicycle_pa":"stands","capacity":8,"covered":"yes","fee":"","operator":"","nameSource":"street"},"sourceId":"osm"},{"id":"osm:node:1873272793","latitude":52.9728628,"longitude":0.8470337,"name":"Wells-next-the-Sea cycle parking","properties":{"access":"unknown","bicycle_pa":"stands","capacity":8,"covered":"yes","fee":"","operator":"","nameSource":"place"},"sourceId":"osm"},{"id":"osm:node:8848365916","latitude":52.9724748,"longitude":0.8493151,"name":"Beach Road by Joules","properties":{"access":"yes","bicycle_pa":"rack","capacity":10,"covered":"no","fee":"","operator":"","nameSource":"landmark"},"sourceId":"osm"},{"id":"osm:node:8848389133","latitude":52.9674141,"longitude":0.814975,"name":"Lady Anne's Drive by the lookout","properties":{"access":"yes","bicycle_pa":"ground_slots","capacity":10,"covered":"no","fee":"","operator":"","nameSource":"landmark"},"sourceId":"osm"},{"id":"osm:node:8848389134","latitude":52.9665785,"longitude":0.8142053,"name":"Lady Anne's Drive cycle parking","properties":{"access":"yes","bicycle_pa":"stands","capacity":10,"covered":"no","fee":"","operator":"","nameSource":"street"},"sourceId":"osm"}],"schemaVersion":2}
