{"key":"12/2057/1337","points":[{"id":"osm:node:10108492164","latitude":52.8298978,"longitude":0.8475633,"name":"The Square near The Link Road","properties":{"access":"unknown","bicycle_pa":"stands","capacity":16,"covered":"","fee":"","operator":"","nameSource":"junction"},"sourceId":"osm"},{"id":"osm:node:10115990221","latitude":52.8313113,"longitude":0.8463221,"name":"Oak Street near Chapel Court","properties":{"access":"unknown","bicycle_pa":"wall_loops","capacity":6,"covered":"","fee":"","operator":"","nameSource":"junction"},"sourceId":"osm"},{"id":"osm:node:4128067820","latitude":52.8325478,"longitude":0.8504657,"name":"Queens Road cycle parking","properties":{"access":"unknown","bicycle_pa":"stands","capacity":6,"covered":"no","fee":"","operator":"","nameSource":"street"},"sourceId":"osm"},{"id":"osm:node:4161294149","latitude":52.8303468,"longitude":0.8505313,"name":"Queens Road near Holt Road","properties":{"access":"unknown","bicycle_pa":"stands","capacity":6,"covered":"no","fee":"","operator":"","nameSource":"junction"},"sourceId":"osm"},{"id":"osm:node:4161294156","latitude":52.8304004,"longitude":0.846838,"name":"Oak Street near Old Post Office Street","properties":{"access":"unknown","bicycle_pa":"stands","capacity":6,"covered":"no","fee":"","operator":"","nameSource":"junction"},"sourceId":"osm"},{"id":"osm:node:4161294224","latitude":52.8314747,"longitude":0.8461444,"name":"Oak Street near Chapel Court","properties":{"access":"unknown","bicycle_pa":"stands","capacity":8,"covered":"no","fee":"","operator":"","nameSource":"junction"},"sourceId":"osm"},{"id":"osm:node:721063137","latitude":52.8292045,"longitude":0.8419554,"name":"Hempton cycle parking","properties":{"access":"unknown","bicycle_pa":"stands","capacity":4,"covered":"","fee":"","operator":"","nameSource":"place"},"sourceId":"osm"}],"schemaVersion":2}
