{"key":"12/2057/1368","points":[{"id":"osm:node:10780741987","latitude":51.1471323,"longitude":0.8727786,"name":"Church Road near Norwood Street","properties":{"access":"unknown","bicycle_pa":"stands","capacity":18,"covered":"no","fee":"","operator":"","nameSource":"junction"},"sourceId":"osm"},{"id":"osm:node:10895750598","latitude":51.1589261,"longitude":0.868398,"name":"M20 cycle parking","properties":{"access":"unknown","bicycle_pa":"stands","capacity":22,"covered":"yes","fee":"","operator":"","nameSource":"street"},"sourceId":"osm"},{"id":"osm:node:11215886751","latitude":51.1440441,"longitude":0.8766954,"name":"Station Approach by Brompton Dock","properties":{"access":"unknown","bicycle_pa":"stands","capacity":8,"covered":"no","fee":"","operator":"","nameSource":"landmark"},"sourceId":"osm"},{"id":"osm:node:11215886752","latitude":51.1440235,"longitude":0.8766036,"name":"Station Approach by Brompton Dock","properties":{"access":"unknown","bicycle_pa":"stands","capacity":12,"covered":"no","fee":"","operator":"","nameSource":"landmark"},"sourceId":"osm"},{"id":"osm:node:11215886753","latitude":51.1439903,"longitude":0.8767471,"name":"Station Approach by Brompton Dock","properties":{"access":"unknown","bicycle_pa":"stands","capacity":8,"covered":"no","fee":"","operator":"","nameSource":"landmark"},"sourceId":"osm"},{"id":"osm:node:11215886754","latitude":51.1439541,"longitude":0.8766793,"name":"Station Approach by Brompton Dock","properties":{"access":"unknown","bicycle_pa":"stands","capacity":12,"covered":"no","fee":"","operator":"","nameSource":"landmark"},"sourceId":"osm"},{"id":"osm:node:11220341209","latitude":51.1348118,"longitude":0.8772134,"name":"Kimberley Way cycle parking","properties":{"access":"unknown","bicycle_pa":"stands","capacity":6,"covered":"no","fee":"no","operator":"","nameSource":"street"},"sourceId":"osm"},{"id":"osm:node:11220341210","latitude":51.1356197,"longitude":0.8765107,"name":"Kimberley Way by Caffè Nero","properties":{"access":"unknown","bicycle_pa":"wall_loops","capacity":3,"covered":"no","fee":"no","operator":"","nameSource":"landmark"},"sourceId":"osm"},{"id":"osm:node:11220341211","latitude":51.1360738,"longitude":0.8780524,"name":"Monsoon cycle parking","properties":{"access":"unknown","bicycle_pa":"stands","capacity":10,"covered":"no","fee":"no","operator":"","nameSource":"landmark"},"sourceId":"osm"},{"id":"osm:node:11220341212","latitude":51.1368984,"longitude":0.8768397,"name":"Avenue Jacques Faucheux by Denby","properties":{"access":"unknown","bicycle_pa":"stands","capacity":10,"covered":"no","fee":"no","operator":"","nameSource":"landmark"},"sourceId":"osm"},{"id":"osm:node:11220341213","latitude":51.1368702,"longitude":0.8768193,"name":"Avenue Jacques Faucheux by Havaianas","properties":{"access":"unknown","bicycle_pa":"wall_loops","capacity":3,"covered":"no","fee":"no","operator":"","nameSource":"landmark"},"sourceId":"osm"},{"id":"osm:node:11220341214","latitude":51.1368365,"longitude":0.8781679,"name":"Belmont Place by Ben Sherman","properties":{"access":"unknown","bicycle_pa":"stands","capacity":10,"covered":"no","fee":"no","operator":"","nameSource":"landmark"},"sourceId":"osm"},{"id":"osm:node:11220341215","latitude":51.1383417,"longitude":0.8782612,"name":"Ted Baker cycle parking","properties":{"access":"unknown","bicycle_pa":"stands","capacity":8,"covered":"no","fee":"no","operator":"","nameSource":"landmark"},"sourceId":"osm"},{"id":"osm:node:11222536037","latitude":51.1314245,"longitude":0.8250596,"name":"Mock Lane cycle parking","properties":{"access":"unknown","bicycle_pa":"stands","capacity":12,"covered":"yes","fee":"","operator":"","nameSource":"street"},"sourceId":"osm"},{"id":"osm:node:11234842390","latitude":51.156955,"longitude":0.8541806,"name":"Repton Avenue near Sir Bernard Paget Avenue","properties":{"access":"unknown","bicycle_pa":"stands","capacity":20,"covered":"no","fee":"","operator":"Repton Community Trust","nameSource":"junction"},"sourceId":"osm"},{"id":"osm:node:11236937371","latitude":51.1555339,"longitude":0.8495779,"name":"Laurens van der Post Way near Sir John Killick Road","properties":{"access":"unknown","bicycle_pa":"stands","capacity":10,"covered":"no","fee":"","operator":"","nameSource":"junction"},"sourceId":"osm"},{"id":"osm:node:11238676852","latitude":51.1558408,"longitude":0.8527604,"name":"Sir Bernard Paget Avenue near Rene Mac Kisray Place","properties":{"access":"unknown","bicycle_pa":"stands","capacity":6,"covered":"no","fee":"","operator":"","nameSource":"junction"},"sourceId":"osm"},{"id":"osm:node:11238676874","latitude":51.1564509,"longitude":0.8520219,"name":"Laurens van der Post Way cycle parking","properties":{"access":"unknown","bicycle_pa":"stands","capacity":6,"covered":"no","fee":"","operator":"","nameSource":"street"},"sourceId":"osm"},{"id":"osm:node:11244812731","latitude":51.1553348,"longitude":0.8576914,"name":"Templer Way near Repton Avenue","properties":{"access":"unknown","bicycle_pa":"stands","capacity":10,"covered":"yes","fee":"","operator":"","nameSource":"junction"},"sourceId":"osm"},{"id":"osm:node:11258203023","latitude":51.1544297,"longitude":0.8494804,"name":"Jack Dunbar Place near Sir Henry Brackenbury Road","properties":{"access":"yes","bicycle_pa":"stands","capacity":8,"covered":"no","fee":"no","operator":"","nameSource":"junction"},"sourceId":"osm"},{"id":"osm:node:11258207881","latitude":51.1466395,"longitude":0.8696446,"name":"Bank Street near Elwick Road","properties":{"access":"yes","bicycle_pa":"stands","capacity":10,"covered":"no","fee":"no","operator":"","nameSource":"junction"},"sourceId":"osm"},{"id":"osm:node:11258207882","latitude":51.1463061,"longitude":0.8695577,"name":"Elwick Road near Bank Street","properties":{"access":"yes","bicycle_pa":"stands","capacity":20,"covered":"no","fee":"no","operator":"","nameSource":"junction"},"sourceId":"osm"},{"id":"osm:node:11258207883","latitude":51.1465903,"longitude":0.8702768,"name":"Elwick Road near Bank Street","properties":{"access":"yes","bicycle_pa":"stands","capacity":10,"covered":"no","fee":"no","operator":"","nameSource":"junction"},"sourceId":"osm"},{"id":"osm:node:11397565137","latitude":51.1506929,"longitude":0.8681432,"name":"New Street near Forge Lane","properties":{"access":"unknown","bicycle_pa":"stands","capacity":4,"covered":"no","fee":"","operator":"","nameSource":"junction"},"sourceId":"osm"},{"id":"osm:node:11397636680","latitude":51.1515337,"longitude":0.8666378,"name":"Barrow Hill near Barrowhill Place","properties":{"access":"unknown","bicycle_pa":"stands","capacity":2,"covered":"no","fee":"","operator":"","nameSource":"junction"},"sourceId":"osm"},{"id":"osm:node:11397645571","latitude":51.1454664,"longitude":0.8726332,"name":"Elwick Road near Church Road","properties":{"access":"unknown","bicycle_pa":"stands","capacity":6,"covered":"no","fee":"","operator":"","nameSource":"junction"},"sourceId":"osm"},{"id":"osm:node:11397653374","latitude":51.1489065,"longitude":0.8671099,"name":"West Street cycle parking","properties":{"access":"unknown","bicycle_pa":"stands","capacity":6,"covered":"no","fee":"","operator":"","nameSource":"street"},"sourceId":"osm"},{"id":"osm:node:1170951397","latitude":51.1457943,"longitude":0.877787,"name":"Tannery Lane by The Stour Centre Cafe","properties":{"access":"unknown","bicycle_pa":"","capacity":0,"covered":"yes","fee":"","operator":"","nameSource":"landmark"},"sourceId":"osm"},{"id":"osm:node:1173354524","latitude":51.135498,"longitude":0.8701183,"name":"Norman Road by Paul Simon","properties":{"access":"unknown","bicycle_pa":"stands","capacity":14,"covered":"no","fee":"","operator":"","nameSource":"landmark"},"sourceId":"osm"},{"id":"osm:node:1184559504","latitude":51.1631212,"longitude":0.8723676,"name":"Grosvenor Drive cycle parking","properties":{"access":"unknown","bicycle_pa":"stands","capacity":24,"covered":"yes","fee":"","operator":"","nameSource":"street"},"sourceId":"osm"},{"id":"osm:node:1191153557","latitude":51.1576442,"longitude":0.8785786,"name":"Cemetery Lane by New Hayesbank Surgery","properties":{"access":"unknown","bicycle_pa":"","capacity":3,"covered":"no","fee":"","operator":"","nameSource":"landmark"},"sourceId":"osm"},{"id":"osm:node:1198652426","latitude":51.131369,"longitude":0.853698,"name":"Otterden Close near Hextable Close","properties":{"access":"unknown","bicycle_pa":"stands","capacity":8,"covered":"no","fee":"","operator":"","nameSource":"junction"},"sourceId":"osm"},{"id":"osm:node:12030072923","latitude":51.1385456,"longitude":0.8400706,"name":"Hoxton Close by Singleton Village Hall","properties":{"access":"unknown","bicycle_pa":"stands","capacity":10,"covered":"no","fee":"","operator":"","nameSource":"landmark"},"sourceId":"osm"},{"id":"osm:node:1203042229","latitude":51.1622471,"longitude":0.8705501,"name":"Drive Through by McDonald's","properties":{"access":"unknown","bicycle_pa":"stands","capacity":10,"covered":"no","fee":"","operator":"","nameSource":"landmark"},"sourceId":"osm"},{"id":"osm:node:1203042238","latitude":51.1627743,"longitude":0.8703006,"name":"Rutherford Road by Beefeater","properties":{"access":"unknown","bicycle_pa":"stands","capacity":10,"covered":"no","fee":"","operator":"","nameSource":"landmark"},"sourceId":"osm"},{"id":"osm:node:1203042239","latitude":51.1630156,"longitude":0.8702554,"name":"Rutherford Road cycle parking","properties":{"access":"unknown","bicycle_pa":"stands","capacity":10,"covered":"no","fee":"","operator":"","nameSource":"street"},"sourceId":"osm"},{"id":"osm:node:1203042243","latitude":51.1610354,"longitude":0.8708632,"name":"Pilgrims Cycle Trail cycle parking","properties":{"access":"unknown","bicycle_pa":"stands","capacity":10,"covered":"no","fee":"","operator":"","nameSource":"street"},"sourceId":"osm"},{"id":"osm:node:12122742939","latitude":51.1383499,"longitude":0.8776772,"name":"Avenue Jacques Faucheux by ASICS","properties":{"access":"yes","bicycle_pa":"","capacity":10,"covered":"yes","fee":"no","operator":"","nameSource":"landmark"},"sourceId":"osm"},{"id":"osm:node:1231008103","latitude":51.14316,"longitude":0.8630059,"name":"Jemmett Road cycle parking","properties":{"access":"yes","bicycle_pa":"stands","capacity":8,"covered":"no","fee":"no","operator":"","nameSource":"street"},"sourceId":"osm"},{"id":"osm:node:12713749926","latitude":51.1540284,"longitude":0.8461712,"name":"Loudon Way near Loudon Court","properties":{"access":"unknown","bicycle_pa":"","capacity":0,"covered":"","fee":"","operator":"","nameSource":"junction"},"sourceId":"osm"},{"id":"osm:node:13265623258","latitude":51.1519801,"longitude":0.8580013,"name":"Carlton Road near Bridge Road","properties":{"access":"unknown","bicycle_pa":"stands","capacity":7,"covered":"yes","fee":"","operator":"","nameSource":"junction"},"sourceId":"osm"},{"id":"osm:node:13265623259","latitude":51.1519621,"longitude":0.8582687,"name":"Carlton Road near Bridge Road","properties":{"access":"unknown","bicycle_pa":"stands","capacity":7,"covered":"yes","fee":"","operator":"","nameSource":"junction"},"sourceId":"osm"},{"id":"osm:node:13953847182","latitude":51.1434109,"longitude":0.8632309,"name":"Jemmett Road by Victoria Park Day Nursery","properties":{"access":"yes","bicycle_pa":"stands","capacity":6,"covered":"no","fee":"no","operator":"","nameSource":"landmark"},"sourceId":"osm"},{"id":"osm:node:13953847183","latitude":51.1433336,"longitude":0.8633666,"name":"Jemmett Road by Victoria Park Day Nursery","properties":{"access":"yes","bicycle_pa":"stands","capacity":4,"covered":"no","fee":"no","operator":"","nameSource":"landmark"},"sourceId":"osm"},{"id":"osm:node:13953847184","latitude":51.1432615,"longitude":0.863493,"name":"Jemmett Road by Victoria Park Day Nursery","properties":{"access":"yes","bicycle_pa":"stands","capacity":6,"covered":"no","fee":"no","operator":"","nameSource":"landmark"},"sourceId":"osm"},{"id":"osm:node:13953847186","latitude":51.1434752,"longitude":0.8631182,"name":"Jemmett Road by Victoria Park Day Nursery","properties":{"access":"yes","bicycle_pa":"shed","capacity":4,"covered":"yes","fee":"","operator":"","nameSource":"landmark"},"sourceId":"osm"},{"id":"osm:node:1488479815","latitude":51.1579052,"longitude":0.8675341,"name":"Simone Weil Avenue cycle parking","properties":{"access":"unknown","bicycle_pa":"stands","capacity":14,"covered":"yes","fee":"","operator":"","nameSource":"street"},"sourceId":"osm"},{"id":"osm:node:1488479869","latitude":51.1597047,"longitude":0.8735179,"name":"Pilgrims Cycle Trail by Subway","properties":{"access":"unknown","bicycle_pa":"stands","capacity":12,"covered":"no","fee":"","operator":"","nameSource":"landmark"},"sourceId":"osm"},{"id":"osm:node:1918025864","latitude":51.1303601,"longitude":0.8574257,"name":"Stanhope Road near Eastry Close","properties":{"access":"unknown","bicycle_pa":"stands","capacity":10,"covered":"no","fee":"","operator":"","nameSource":"junction"},"sourceId":"osm"},{"id":"osm:node:1963343906","latitude":51.1342921,"longitude":0.8778625,"name":"Kimberley Way by Asda","properties":{"access":"unknown","bicycle_pa":"stands","capacity":18,"covered":"yes","fee":"","operator":"","nameSource":"landmark"},"sourceId":"osm"},{"id":"osm:node:1975578303","latitude":51.1464349,"longitude":0.8608486,"name":"Leacon Road near Suffolk Drive","properties":{"access":"unknown","bicycle_pa":"wall_loops","capacity":10,"covered":"yes","fee":"","operator":"","nameSource":"junction"},"sourceId":"osm"},{"id":"osm:node:1984871108","latitude":51.1354296,"longitude":0.8712269,"name":"Norman Road by Currys","properties":{"access":"unknown","bicycle_pa":"stands","capacity":14,"covered":"no","fee":"","operator":"","nameSource":"landmark"},"sourceId":"osm"},{"id":"osm:node:2098424221","latitude":51.1368742,"longitude":0.8705408,"name":"Norman Road by B&Q","properties":{"access":"unknown","bicycle_pa":"stands","capacity":16,"covered":"yes","fee":"","operator":"","nameSource":"landmark"},"sourceId":"osm"},{"id":"osm:node:2098424227","latitude":51.1374012,"longitude":0.8712199,"name":"B&Q cycle parking","properties":{"access":"unknown","bicycle_pa":"stands","capacity":14,"covered":"no","fee":"","operator":"","nameSource":"landmark"},"sourceId":"osm"},{"id":"osm:node:2139080469","latitude":51.158001,"longitude":0.8716317,"name":"Simone Weil Avenue by M&S Foodhall","properties":{"access":"unknown","bicycle_pa":"wall_loops","capacity":4,"covered":"","fee":"","operator":"","nameSource":"landmark"},"sourceId":"osm"},{"id":"osm:node:317284626","latitude":51.1440415,"longitude":0.8757977,"name":"Station Approach cycle parking","properties":{"access":"unknown","bicycle_pa":"stands","capacity":36,"covered":"no","fee":"","operator":"","nameSource":"street"},"sourceId":"osm"},{"id":"osm:node:320694395","latitude":51.1470517,"longitude":0.8696968,"name":"Elwick Road near Bank Street","properties":{"access":"unknown","bicycle_pa":"stands","capacity":8,"covered":"no","fee":"","operator":"","nameSource":"junction"},"sourceId":"osm"},{"id":"osm:node:320694396","latitude":51.1471951,"longitude":0.8694872,"name":"Elwick Road near Bank Street","properties":{"access":"unknown","bicycle_pa":"stands","capacity":8,"covered":"no","fee":"","operator":"","nameSource":"junction"},"sourceId":"osm"},{"id":"osm:node:320694397","latitude":51.1472732,"longitude":0.8693677,"name":"Elwick Road near Bank Street","properties":{"access":"unknown","bicycle_pa":"stands","capacity":8,"covered":"no","fee":"","operator":"","nameSource":"junction"},"sourceId":"osm"},{"id":"osm:node:320694399","latitude":51.1473394,"longitude":0.8692574,"name":"Elwick Road by Chill Time","properties":{"access":"unknown","bicycle_pa":"stands","capacity":6,"covered":"no","fee":"","operator":"","nameSource":"landmark"},"sourceId":"osm"},{"id":"osm:node:320694404","latitude":51.1476009,"longitude":0.8686407,"name":"Elwick Road near Apsley Street","properties":{"access":"unknown","bicycle_pa":"stands","capacity":10,"covered":"no","fee":"","operator":"","nameSource":"junction"},"sourceId":"osm"},{"id":"osm:node:320694406","latitude":51.1477369,"longitude":0.8684178,"name":"Elwick Road near Apsley Street","properties":{"access":"unknown","bicycle_pa":"stands","capacity":10,"covered":"no","fee":"","operator":"","nameSource":"junction"},"sourceId":"osm"},{"id":"osm:node:320697046","latitude":51.1495646,"longitude":0.8676447,"name":"West Street near Forge Lane","properties":{"access":"unknown","bicycle_pa":"stands","capacity":4,"covered":"no","fee":"","operator":"","nameSource":"junction"},"sourceId":"osm"},{"id":"osm:node:320697048","latitude":51.149677,"longitude":0.8678456,"name":"Forge Lane near Norwood Gardens","properties":{"access":"unknown","bicycle_pa":"stands","capacity":8,"covered":"no","fee":"","operator":"","nameSource":"junction"},"sourceId":"osm"},{"id":"osm:node:322577312","latitude":51.1702376,"longitude":0.870791,"name":"Pilgrims Cycle Trail by EasySmile Dental Practice","properties":{"access":"unknown","bicycle_pa":"stands","capacity":12,"covered":"no","fee":"","operator":"","nameSource":"landmark"},"sourceId":"osm"},{"id":"osm:node:322597747","latitude":51.1484951,"longitude":0.8709378,"name":"Bank Street near Tufton Street","properties":{"access":"unknown","bicycle_pa":"stands","capacity":10,"covered":"no","fee":"","operator":"","nameSource":"junction"},"sourceId":"osm"},{"id":"osm:node:322854338","latitude":51.1489387,"longitude":0.8756281,"name":"High Street near Station Road","properties":{"access":"unknown","bicycle_pa":"stands","capacity":18,"covered":"no","fee":"","operator":"","nameSource":"junction"},"sourceId":"osm"},{"id":"osm:node:322854340","latitude":51.148866,"longitude":0.8755811,"name":"High Street near Station Road","properties":{"access":"unknown","bicycle_pa":"stands","capacity":12,"covered":"no","fee":"","operator":"","nameSource":"junction"},"sourceId":"osm"},{"id":"osm:node:3324970673","latitude":51.1581219,"longitude":0.861402,"name":"Fougeres Way cycle parking","properties":{"access":"unknown","bicycle_pa":"stands","capacity":6,"covered":"no","fee":"","operator":"","nameSource":"street"},"sourceId":"osm"},{"id":"osm:node:3324970677","latitude":51.158772,"longitude":0.8610478,"name":"Fougeres Way cycle parking","properties":{"access":"unknown","bicycle_pa":"stands","capacity":24,"covered":"yes","fee":"","operator":"","nameSource":"street"},"sourceId":"osm"},{"id":"osm:node:339804242","latitude":51.1341583,"longitude":0.8401334,"name":"Wesley School Road by The John Wesley Church of England & Methodist Voluntary Aided Primary School","properties":{"access":"private","bicycle_pa":"stands","capacity":20,"covered":"yes","fee":"","operator":"","nameSource":"landmark"},"sourceId":"osm"},{"id":"osm:node:339805695","latitude":51.1333492,"longitude":0.8382004,"name":"Chart Road cycle parking","properties":{"access":"unknown","bicycle_pa":"stands","capacity":12,"covered":"no","fee":"","operator":"","nameSource":"street"},"sourceId":"osm"},{"id":"osm:node:360490271","latitude":51.134,"longitude":0.8779272,"name":"Asda cycle parking","properties":{"access":"unknown","bicycle_pa":"stands","capacity":14,"covered":"yes","fee":"","operator":"","nameSource":"landmark"},"sourceId":"osm"},{"id":"osm:node:361135912","latitude":51.1502454,"longitude":0.8687381,"name":"Forge Lane near New Street","properties":{"access":"unknown","bicycle_pa":"front_wheel","capacity":10,"covered":"no","fee":"","operator":"","nameSource":"junction"},"sourceId":"osm"},{"id":"osm:node:364406998","latitude":51.1715587,"longitude":0.8731995,"name":"Pilgrims Cycle Trail near Hurst Road","properties":{"access":"unknown","bicycle_pa":"stands","capacity":12,"covered":"no","fee":"","operator":"","nameSource":"junction"},"sourceId":"osm"},{"id":"osm:node:364408435","latitude":51.170723,"longitude":0.8711581,"name":"Pilgrims Cycle Trail by Tesco Express","properties":{"access":"unknown","bicycle_pa":"stands","capacity":16,"covered":"no","fee":"","operator":"","nameSource":"landmark"},"sourceId":"osm"},{"id":"osm:node:364408437","latitude":51.1701652,"longitude":0.8716692,"name":"Pilgrims Cycle Trail by The Pheasant","properties":{"access":"unknown","bicycle_pa":"stands","capacity":10,"covered":"no","fee":"","operator":"","nameSource":"landmark"},"sourceId":"osm"},{"id":"osm:node:364410875","latitude":51.1702785,"longitude":0.8715681,"name":"Pilgrims Cycle Trail by Completely Bathrooms & Kitchens","properties":{"access":"unknown","bicycle_pa":"stands","capacity":28,"covered":"no","fee":"","operator":"","nameSource":"landmark"},"sourceId":"osm"},{"id":"osm:node:498774781","latitude":51.1492264,"longitude":0.8720385,"name":"High Street near Bank Street","properties":{"access":"unknown","bicycle_pa":"stands","capacity":2,"covered":"no","fee":"","operator":"","nameSource":"junction"},"sourceId":"osm"},{"id":"osm:node:498774782","latitude":51.1493211,"longitude":0.8726738,"name":"High Street near Middle Row","properties":{"access":"unknown","bicycle_pa":"stands","capacity":2,"covered":"no","fee":"","operator":"","nameSource":"junction"},"sourceId":"osm"},{"id":"osm:node:498774783","latitude":51.1490778,"longitude":0.8733921,"name":"Middle Row near High Street","properties":{"access":"unknown","bicycle_pa":"stands","capacity":2,"covered":"no","fee":"","operator":"","nameSource":"junction"},"sourceId":"osm"},{"id":"osm:node:498774784","latitude":51.1491064,"longitude":0.8738922,"name":"High Street near St. John's Passage","properties":{"access":"unknown","bicycle_pa":"stands","capacity":2,"covered":"no","fee":"","operator":"","nameSource":"junction"},"sourceId":"osm"},{"id":"osm:node:498774786","latitude":51.1490532,"longitude":0.8738801,"name":"High Street near St. John's Passage","properties":{"access":"unknown","bicycle_pa":"stands","capacity":2,"covered":"no","fee":"","operator":"","nameSource":"junction"},"sourceId":"osm"},{"id":"osm:node:498774789","latitude":51.1489135,"longitude":0.8743539,"name":"High Street near St. John's Passage","properties":{"access":"unknown","bicycle_pa":"","capacity":2,"covered":"no","fee":"","operator":"","nameSource":"junction"},"sourceId":"osm"},{"id":"osm:node:498774792","latitude":51.1488839,"longitude":0.8748764,"name":"High Street near Station Road","properties":{"access":"unknown","bicycle_pa":"stands","capacity":2,"covered":"no","fee":"","operator":"","nameSource":"junction"},"sourceId":"osm"},{"id":"osm:node:599596577","latitude":51.1381418,"longitude":0.8585415,"name":"Noakes Meadow by St Simon of England Roman Catholic Primary School","properties":{"access":"private","bicycle_pa":"stands","capacity":40,"covered":"yes","fee":"","operator":"","nameSource":"landmark"},"sourceId":"osm"},{"id":"osm:node:662976795","latitude":51.1438066,"longitude":0.875948,"name":"Station Approach by Costa","properties":{"access":"unknown","bicycle_pa":"stands","capacity":70,"covered":"yes","fee":"","operator":"","nameSource":"landmark"},"sourceId":"osm"},{"id":"osm:node:662976796","latitude":51.1438707,"longitude":0.8761239,"name":"Station Approach by Costa","properties":{"access":"unknown","bicycle_pa":"stands","capacity":22,"covered":"no","fee":"","operator":"","nameSource":"landmark"},"sourceId":"osm"},{"id":"osm:node:662976797","latitude":51.1436897,"longitude":0.8765149,"name":"Station Approach by Costa","properties":{"access":"unknown","bicycle_pa":"stands","capacity":24,"covered":"no","fee":"","operator":"","nameSource":"landmark"},"sourceId":"osm"},{"id":"osm:node:6780758106","latitude":51.1457413,"longitude":0.8732858,"name":"Elwick Road near Church Road","properties":{"access":"private","bicycle_pa":"shed","capacity":0,"covered":"","fee":"","operator":"","nameSource":"junction"},"sourceId":"osm"},{"id":"osm:node:6780758107","latitude":51.1458568,"longitude":0.8739618,"name":"Station Road near Dover Place","properties":{"access":"unknown","bicycle_pa":"","capacity":0,"covered":"","fee":"","operator":"","nameSource":"junction"},"sourceId":"osm"},{"id":"osm:node:783320899","latitude":51.147968,"longitude":0.8741252,"name":"Vicarage Lane near College Court","properties":{"access":"unknown","bicycle_pa":"stands","capacity":6,"covered":"no","fee":"","operator":"","nameSource":"junction"},"sourceId":"osm"},{"id":"osm:node:783321423","latitude":51.1479328,"longitude":0.8740478,"name":"Vicarage Lane near College Court","properties":{"access":"unknown","bicycle_pa":"front_wheel","capacity":12,"covered":"yes","fee":"","operator":"","nameSource":"junction"},"sourceId":"osm"},{"id":"osm:node:8569799338","latitude":51.170241,"longitude":0.8714927,"name":"Pilgrims Cycle Trail by The Pheasant","properties":{"access":"unknown","bicycle_pa":"stands","capacity":28,"covered":"no","fee":"","operator":"","nameSource":"landmark"},"sourceId":"osm"},{"id":"osm:node:8569799339","latitude":51.1701859,"longitude":0.8714747,"name":"Pilgrims Cycle Trail by Q Day Nurseries Ltd","properties":{"access":"unknown","bicycle_pa":"stands","capacity":28,"covered":"no","fee":"","operator":"","nameSource":"landmark"},"sourceId":"osm"},{"id":"osm:node:8569799352","latitude":51.1706546,"longitude":0.8712794,"name":"Pilgrims Cycle Trail by Tesco Express","properties":{"access":"unknown","bicycle_pa":"","capacity":0,"covered":"","fee":"","operator":"","nameSource":"landmark"},"sourceId":"osm"},{"id":"osm:node:979089010","latitude":51.1718824,"longitude":0.8703991,"name":"Kennington Lees cycle parking","properties":{"access":"unknown","bicycle_pa":"","capacity":4,"covered":"","fee":"","operator":"","nameSource":"place"},"sourceId":"osm"},{"id":"osm:node:9838492470","latitude":51.1460478,"longitude":0.8462074,"name":"Great Chart Bypass by The Wyvern School","properties":{"access":"unknown","bicycle_pa":"stands","capacity":20,"covered":"yes","fee":"","operator":"","nameSource":"landmark"},"sourceId":"osm"},{"id":"osm:node:998070151","latitude":51.1603288,"longitude":0.8735188,"name":"Pilgrims Cycle Trail by Nando's","properties":{"access":"unknown","bicycle_pa":"stands","capacity":14,"covered":"yes","fee":"","operator":"","nameSource":"landmark"},"sourceId":"osm"},{"id":"osm:node:998070159","latitude":51.1609352,"longitude":0.873043,"name":"Rutherford Road by Pizza Hut","properties":{"access":"unknown","bicycle_pa":"stands","capacity":14,"covered":"yes","fee":"","operator":"","nameSource":"landmark"},"sourceId":"osm"},{"id":"osm:way:853988085","latitude":51.12805758333334,"longitude":0.8587565666666667,"name":"The Limes by The Limes Community Garden","properties":{"access":"private","bicycle_pa":"shed","capacity":0,"covered":"","fee":"","operator":"","nameSource":"landmark"},"sourceId":"osm"},{"id":"osm:way:996844461","latitude":51.14382508571429,"longitude":0.8759191142857141,"name":"Station Approach by Costa","properties":{"access":"unknown","bicycle_pa":"building","capacity":0,"covered":"","fee":"","operator":"","nameSource":"landmark"},"sourceId":"osm"}],"schemaVersion":2}
