{"key":"12/2057/1537","points":[{"id":"osm:node:10787313043","latitude":40.9117222,"longitude":0.8318976,"name":"Carrer de La Santa María cycle parking","properties":{"access":"unknown","bicycle_pa":"stands","capacity":10,"covered":"no","fee":"","operator":"","nameSource":"street"},"sourceId":"osm"},{"id":"osm:node:1081940140","latitude":40.8945123,"longitude":0.8148968,"name":"Llop Marí cycle parking","properties":{"access":"unknown","bicycle_pa":"","capacity":10,"covered":"no","fee":"","operator":"","nameSource":"place"},"sourceId":"osm"},{"id":"osm:node:1081940145","latitude":40.8945329,"longitude":0.8152653,"name":"la Cala Nova cycle parking","properties":{"access":"unknown","bicycle_pa":"","capacity":20,"covered":"no","fee":"","operator":"","nameSource":"place"},"sourceId":"osm"},{"id":"osm:node:10895643451","latitude":40.9078315,"longitude":0.8104785,"name":"Carrer de l'Arc de Sant Martí near Avinguda de les Tres Cales","properties":{"access":"unknown","bicycle_pa":"wall_loops","capacity":6,"covered":"no","fee":"","operator":"","nameSource":"junction"},"sourceId":"osm"},{"id":"osm:node:13522391777","latitude":40.8892153,"longitude":0.7972477,"name":"Carretera del Platé by Lidl","properties":{"access":"unknown","bicycle_pa":"stands","capacity":8,"covered":"no","fee":"","operator":"","nameSource":"landmark"},"sourceId":"osm"},{"id":"osm:node:4782704853","latitude":40.8910667,"longitude":0.7960518,"name":"Carretera del Platé near TV-3025","properties":{"access":"unknown","bicycle_pa":"anchors","capacity":7,"covered":"yes","fee":"","operator":"","nameSource":"junction"},"sourceId":"osm"}],"schemaVersion":2}
