{"key":"12/2076/1517","points":[{"categories":["shop"],"id":"osm:node:11225183846","latitude":42.1767819,"longitude":2.4923193,"name":"Triesports","properties":{},"sourceId":"osm"},{"categories":["shop"],"id":"osm:node:12109706453","latitude":42.1852449,"longitude":2.4944742,"name":"Cicles Tarrés","properties":{"openingHours":"Mo-Fr 09:00-13:00,16:00-20:00"},"sourceId":"osm"},{"categories":["hire"],"id":"osm:node:13609142018","latitude":42.1752777,"longitude":2.4808785,"name":"Centre Logistic De Bicicletes","properties":{},"sourceId":"osm"},{"categories":["shop","repair","hire"],"id":"osm:node:8072684325","latitude":42.1754389,"longitude":2.4809089,"name":"Garrotxa amb Bici","properties":{"operator":"Garrotxa amb bici","serviceRental":"yes","serviceRepair":"yes"},"sourceId":"osm"},{"categories":["shop","repair"],"id":"osm:node:961754749","latitude":42.1805162,"longitude":2.4862005,"name":"Cicles Camps","properties":{"openingHours":"Mo-Fr 09:30-13:30,16:30-20:30; Sa 09:30-13:30","servicePump":"no","serviceRepair":"yes"},"sourceId":"osm"}],"schemaVersion":2}
