{"key":"12/2024/1342","points":[{"id":"osm:node:11033346178","latitude":52.5423556,"longitude":-2.0634441,"name":"High Street near Upper Church Lane","properties":{"access":"unknown","bicycle_pa":"stands","capacity":6,"covered":"no","fee":"","operator":"","nameSource":"junction"},"sourceId":"osm"},{"id":"osm:node:12036895453","latitude":52.5522438,"longitude":-2.023223,"name":"Floor Maze near Union Street","properties":{"access":"unknown","bicycle_pa":"","capacity":12,"covered":"","fee":"","operator":"","nameSource":"junction"},"sourceId":"osm"},{"id":"osm:node:12051925080","latitude":52.5518534,"longitude":-2.0222817,"name":"O'Connell Walk by InPost (Morrisons)","properties":{"access":"unknown","bicycle_pa":"","capacity":8,"covered":"","fee":"","operator":"","nameSource":"landmark"},"sourceId":"osm"},{"id":"osm:node:12051925114","latitude":52.5518924,"longitude":-2.0220034,"name":"O'Connell Walk by Wednesbury Foot Surgery","properties":{"access":"unknown","bicycle_pa":"","capacity":2,"covered":"","fee":"","operator":"","nameSource":"landmark"},"sourceId":"osm"},{"id":"osm:node:12083833395","latitude":52.5473108,"longitude":-2.0340302,"name":"Bagnalls Wharf near Callear Road","properties":{"access":"unknown","bicycle_pa":"","capacity":6,"covered":"","fee":"","operator":"","nameSource":"junction"},"sourceId":"osm"},{"id":"osm:node:12378800446","latitude":52.5808811,"longitude":-2.0933206,"name":"Hollington Road near Hurstbourne Crescent","properties":{"access":"unknown","bicycle_pa":"","capacity":0,"covered":"","fee":"","operator":"","nameSource":"junction"},"sourceId":"osm"},{"id":"osm:node:2136109653","latitude":52.5651752,"longitude":-2.0746086,"name":"Hall Street near Market Street","properties":{"access":"unknown","bicycle_pa":"","capacity":0,"covered":"","fee":"","operator":"","nameSource":"junction"},"sourceId":"osm"},{"id":"osm:node:2972699150","latitude":52.5830702,"longitude":-2.052643,"name":"Walsall Street near Bow Street","properties":{"access":"unknown","bicycle_pa":"","capacity":0,"covered":"no","fee":"","operator":"","nameSource":"junction"},"sourceId":"osm"},{"id":"osm:node:2972712465","latitude":52.5853313,"longitude":-2.0543463,"name":"Union Street near Upper Lichfield Street","properties":{"access":"unknown","bicycle_pa":"","capacity":0,"covered":"","fee":"","operator":"","nameSource":"junction"},"sourceId":"osm"},{"id":"osm:node:4099974354","latitude":52.5559895,"longitude":-2.0575161,"name":"Bradley Lane cycle parking","properties":{"access":"unknown","bicycle_pa":"stands","capacity":10,"covered":"no","fee":"","operator":"Midland Metro Limited","nameSource":"street"},"sourceId":"osm"},{"id":"osm:node:4099974868","latitude":52.5588306,"longitude":-2.0606577,"name":"Maple Grove near Sorbus Street","properties":{"access":"unknown","bicycle_pa":"","capacity":0,"covered":"yes","fee":"","operator":"","nameSource":"junction"},"sourceId":"osm"},{"id":"osm:node:4100046729","latitude":52.5602325,"longitude":-2.0660651,"name":"Northcott Road cycle parking","properties":{"access":"unknown","bicycle_pa":"stands","capacity":10,"covered":"no","fee":"","operator":"","nameSource":"street"},"sourceId":"osm"},{"id":"osm:node:7554261545","latitude":52.5671526,"longitude":-2.0353047,"name":"King Street Precinct near A4038","properties":{"access":"yes","bicycle_pa":"stands","capacity":4,"covered":"no","fee":"no","operator":"","nameSource":"junction"},"sourceId":"osm"},{"id":"osm:node:763652330","latitude":52.572071,"longitude":-2.098048,"name":"Brunel Way cycle parking","properties":{"access":"unknown","bicycle_pa":"stands","capacity":10,"covered":"no","fee":"","operator":"Midland Metro Limited","nameSource":"street"},"sourceId":"osm"},{"id":"osm:node:8648907913","latitude":52.5680518,"longitude":-2.081068,"name":"The Crescent near Wellington Road","properties":{"access":"unknown","bicycle_pa":"stands","capacity":10,"covered":"no","fee":"","operator":"","nameSource":"junction"},"sourceId":"osm"},{"id":"osm:node:8648929570","latitude":52.549032,"longitude":-2.0258438,"name":"Great Western Street cycle parking","properties":{"access":"unknown","bicycle_pa":"stands","capacity":10,"covered":"no","fee":"","operator":"Midland Metro Limited","nameSource":"street"},"sourceId":"osm"},{"id":"osm:node:8648954117","latitude":52.5497134,"longitude":-2.0317662,"name":"Hallens Drive by Platform 1","properties":{"access":"unknown","bicycle_pa":"stands","capacity":10,"covered":"yes","fee":"","operator":"Midland Metro Limited","nameSource":"landmark"},"sourceId":"osm"},{"id":"osm:way:1077544879","latitude":52.569614720000004,"longitude":-2.0498055600000002,"name":"Grace Academy Darlaston cycle parking","properties":{"access":"unknown","bicycle_pa":"","capacity":0,"covered":"","fee":"","operator":"","nameSource":"landmark"},"sourceId":"osm"},{"id":"osm:way:1125376189","latitude":52.56387808333334,"longitude":-2.0751589999999998,"name":"Bristol Street near Black Country Route","properties":{"access":"unknown","bicycle_pa":"anchors","capacity":10,"covered":"","fee":"no","operator":"Morrisons","nameSource":"junction"},"sourceId":"osm"},{"id":"osm:way:1298155424","latitude":52.548245179999995,"longitude":-2.0247896599999997,"name":"Old Field Road cycle parking","properties":{"access":"private","bicycle_pa":"shed","capacity":0,"covered":"","fee":"","operator":"","nameSource":"street"},"sourceId":"osm"},{"id":"osm:way:1418673293","latitude":52.5480328,"longitude":-2.04807674,"name":"Jackson Close cycle parking","properties":{"access":"private","bicycle_pa":"shed","capacity":0,"covered":"yes","fee":"","operator":"","nameSource":"street"},"sourceId":"osm"},{"id":"osm:way:584236010","latitude":52.5614917,"longitude":-2.0774403799999996,"name":"Dudley Street near Nettlefolds Way","properties":{"access":"private","bicycle_pa":"rack","capacity":0,"covered":"yes","fee":"","operator":"Ormiston SWB Academy","nameSource":"junction"},"sourceId":"osm"}],"schemaVersion":2}
