{"key":"12/2024/1355","points":[{"id":"osm:node:10023076655","latitude":51.8797897,"longitude":-2.1081108,"name":"Caernarvon Road by Market Street Cafe","properties":{"access":"unknown","bicycle_pa":"stands","capacity":8,"covered":"yes","fee":"","operator":"","nameSource":"landmark"},"sourceId":"osm"},{"id":"osm:node:10023109517","latitude":51.8797405,"longitude":-2.1081553,"name":"Caernarvon Road by Wash.me","properties":{"access":"unknown","bicycle_pa":"stands","capacity":10,"covered":"yes","fee":"","operator":"","nameSource":"landmark"},"sourceId":"osm"},{"id":"osm:node:10914553209","latitude":51.8879034,"longitude":-2.0928105,"name":"Northcroft near Rowena Cade Avenue","properties":{"access":"unknown","bicycle_pa":"wall_loops","capacity":4,"covered":"no","fee":"","operator":"","nameSource":"junction"},"sourceId":"osm"},{"id":"osm:node:11291306341","latitude":51.8787817,"longitude":-2.0980179,"name":"Shurdington Road cycle parking","properties":{"access":"unknown","bicycle_pa":"stands","capacity":10,"covered":"yes","fee":"","operator":"","nameSource":"street"},"sourceId":"osm"},{"id":"osm:node:11331485579","latitude":51.8803416,"longitude":-2.1078178,"name":"Caernarvon Road near Justicia Way","properties":{"access":"unknown","bicycle_pa":"stands","capacity":6,"covered":"no","fee":"","operator":"","nameSource":"junction"},"sourceId":"osm"},{"id":"osm:node:11331494247","latitude":51.8803655,"longitude":-2.1078089,"name":"Caernarvon Road near Justicia Way","properties":{"access":"unknown","bicycle_pa":"stands","capacity":6,"covered":"no","fee":"","operator":"","nameSource":"junction"},"sourceId":"osm"},{"id":"osm:node:11331563595","latitude":51.88134,"longitude":-2.1070281,"name":"Hulbert Crescent near Glebe Farm Court","properties":{"access":"unknown","bicycle_pa":"wall_loops","capacity":2,"covered":"no","fee":"","operator":"","nameSource":"junction"},"sourceId":"osm"},{"id":"osm:node:11331572869","latitude":51.881229,"longitude":-2.1072113,"name":"Hulbert Crescent near Glebe Farm Court","properties":{"access":"unknown","bicycle_pa":"wall_loops","capacity":3,"covered":"no","fee":"","operator":"","nameSource":"junction"},"sourceId":"osm"},{"id":"osm:node:11889536158","latitude":51.879369,"longitude":-2.0826008,"name":"Moorend Grove near Arden Road","properties":{"access":"unknown","bicycle_pa":"stands","capacity":10,"covered":"no","fee":"","operator":"","nameSource":"junction"},"sourceId":"osm"},{"id":"osm:node:11891917500","latitude":51.8813838,"longitude":-2.0995146,"name":"Durham Close by Warden Hill Primary School","properties":{"access":"unknown","bicycle_pa":"stands","capacity":0,"covered":"yes","fee":"","operator":"","nameSource":"landmark"},"sourceId":"osm"},{"id":"osm:node:11918024937","latitude":51.8890514,"longitude":-2.0541642,"name":"London Road near Hamilton Street","properties":{"access":"unknown","bicycle_pa":"wall_loops","capacity":3,"covered":"no","fee":"","operator":"","nameSource":"junction"},"sourceId":"osm"},{"id":"osm:node:11918062403","latitude":51.8885481,"longitude":-2.0534608,"name":"London Road near Overbury Street","properties":{"access":"unknown","bicycle_pa":"stands","capacity":6,"covered":"no","fee":"","operator":"","nameSource":"junction"},"sourceId":"osm"},{"id":"osm:node:11950692623","latitude":51.8768816,"longitude":-2.0786099,"name":"Church Road by Leckhampton Village Hall","properties":{"access":"unknown","bicycle_pa":"stands","capacity":4,"covered":"no","fee":"","operator":"","nameSource":"landmark"},"sourceId":"osm"},{"id":"osm:node:12068798782","latitude":51.8824551,"longitude":-2.0761002,"name":"Old Station Drive cycle parking","properties":{"access":"yes","bicycle_pa":"shed","capacity":5,"covered":"yes","fee":"no","operator":"","nameSource":"street"},"sourceId":"osm"},{"id":"osm:node:12068835135","latitude":51.8823142,"longitude":-2.0747185,"name":"Old Station Drive by FirstChoice","properties":{"access":"unknown","bicycle_pa":"wall_loops","capacity":6,"covered":"no","fee":"","operator":"","nameSource":"landmark"},"sourceId":"osm"},{"id":"osm:node:12068866670","latitude":51.8830719,"longitude":-2.0773833,"name":"Rockfield Business Park near Old Station Drive","properties":{"access":"unknown","bicycle_pa":"wall_loops","capacity":8,"covered":"yes","fee":"","operator":"","nameSource":"junction"},"sourceId":"osm"},{"id":"osm:node:12083994255","latitude":51.8816277,"longitude":-2.1077468,"name":"Hulbert Crescent near Glebe Farm Court","properties":{"access":"customers","bicycle_pa":"stands","capacity":0,"covered":"yes","fee":"","operator":"","nameSource":"junction"},"sourceId":"osm"},{"id":"osm:node:12117497675","latitude":51.8835837,"longitude":-2.0765983,"name":"Mead Road near Maida Vale Road","properties":{"access":"unknown","bicycle_pa":"stands","capacity":16,"covered":"no","fee":"","operator":"","nameSource":"junction"},"sourceId":"osm"},{"id":"osm:node:12509682527","latitude":51.8448869,"longitude":-2.1038422,"name":"Cold Slad cycle parking","properties":{"access":"unknown","bicycle_pa":"stands","capacity":10,"covered":"no","fee":"","operator":"","nameSource":"place"},"sourceId":"osm"},{"id":"osm:node:12994744286","latitude":51.8764867,"longitude":-2.0808083,"name":"Church Road cycle parking","properties":{"access":"unknown","bicycle_pa":"stands","capacity":20,"covered":"yes","fee":"","operator":"","nameSource":"street"},"sourceId":"osm"},{"id":"osm:node:13004647053","latitude":51.8780084,"longitude":-2.0662343,"name":"Pilley cycle parking","properties":{"access":"unknown","bicycle_pa":"stands","capacity":12,"covered":"no","fee":"","operator":"","nameSource":"place"},"sourceId":"osm"},{"id":"osm:node:13004694462","latitude":51.8768398,"longitude":-2.0719891,"name":"Old Bath Road near Everest Road","properties":{"access":"unknown","bicycle_pa":"stands","capacity":2,"covered":"no","fee":"","operator":"","nameSource":"junction"},"sourceId":"osm"},{"id":"osm:node:13004728328","latitude":51.8768617,"longitude":-2.0719797,"name":"Everest Road near Old Bath Road","properties":{"access":"unknown","bicycle_pa":"stands","capacity":2,"covered":"no","fee":"","operator":"","nameSource":"junction"},"sourceId":"osm"},{"id":"osm:node:13004764185","latitude":51.8769473,"longitude":-2.0762511,"name":"Pilley Lane near Leckhampton Road","properties":{"access":"unknown","bicycle_pa":"stands","capacity":10,"covered":"no","fee":"","operator":"","nameSource":"junction"},"sourceId":"osm"},{"id":"osm:node:13009627645","latitude":51.8746596,"longitude":-2.070702,"name":"Southern Road by The Richard Pate School","properties":{"access":"private","bicycle_pa":"shed","capacity":0,"covered":"yes","fee":"","operator":"","nameSource":"landmark"},"sourceId":"osm"},{"id":"osm:node:13056977794","latitude":51.8885868,"longitude":-2.0825648,"name":"Grafton Road near Brandon Terrace Lane","properties":{"access":"unknown","bicycle_pa":"stands","capacity":10,"covered":"no","fee":"","operator":"","nameSource":"junction"},"sourceId":"osm"},{"id":"osm:node:13149715775","latitude":51.887384,"longitude":-2.0867512,"name":"The Park near Tudor Lodge Road","properties":{"access":"unknown","bicycle_pa":"stands","capacity":12,"covered":"no","fee":"","operator":"","nameSource":"junction"},"sourceId":"osm"},{"id":"osm:node:13252137559","latitude":51.888961,"longitude":-2.0779724,"name":"Naunton Parade by Providence Baptist Chapel","properties":{"access":"unknown","bicycle_pa":"stands","capacity":4,"covered":"no","fee":"","operator":"","nameSource":"landmark"},"sourceId":"osm"},{"id":"osm:node:13998351542","latitude":51.8769822,"longitude":-2.0932666,"name":"Farm Lane by The High School Leckhampton","properties":{"access":"unknown","bicycle_pa":"stands","capacity":40,"covered":"yes","fee":"","operator":"","nameSource":"landmark"},"sourceId":"osm"},{"id":"osm:node:4115028825","latitude":51.882606,"longitude":-2.1005187,"name":"Oxford Way near Salisbury Avenue","properties":{"access":"unknown","bicycle_pa":"stands","capacity":0,"covered":"no","fee":"","operator":"","nameSource":"junction"},"sourceId":"osm"},{"id":"osm:node:7613352064","latitude":51.8898123,"longitude":-2.070027,"name":"Christowe Lane by Little Apples Nursery","properties":{"access":"unknown","bicycle_pa":"stands","capacity":4,"covered":"yes","fee":"","operator":"","nameSource":"landmark"},"sourceId":"osm"},{"id":"osm:node:7741027494","latitude":51.8819021,"longitude":-2.050986,"name":"Church Piece by Charlton Kings Library and Children's Centre","properties":{"access":"yes","bicycle_pa":"stands","capacity":20,"covered":"no","fee":"","operator":"","nameSource":"landmark"},"sourceId":"osm"},{"id":"osm:node:8825674528","latitude":51.8842804,"longitude":-2.0533893,"name":"Copt Elm Road near Lyefield Road East","properties":{"access":"unknown","bicycle_pa":"","capacity":0,"covered":"","fee":"","operator":"","nameSource":"junction"},"sourceId":"osm"},{"id":"osm:node:9701697059","latitude":51.8874023,"longitude":-2.0868875,"name":"The Park near Tudor Lodge Road","properties":{"access":"yes","bicycle_pa":"shed","capacity":10,"covered":"yes","fee":"no","operator":"","nameSource":"junction"},"sourceId":"osm"},{"id":"osm:node:9701700095","latitude":51.886728,"longitude":-2.0870961,"name":"The Park near Harefield Grove","properties":{"access":"unknown","bicycle_pa":"stands","capacity":10,"covered":"no","fee":"","operator":"","nameSource":"junction"},"sourceId":"osm"},{"id":"osm:node:9710565205","latitude":51.8877593,"longitude":-2.0872404,"name":"The Park by Park Campus Medical Centre","properties":{"access":"customers","bicycle_pa":"shed","capacity":20,"covered":"yes","fee":"no","operator":"","nameSource":"landmark"},"sourceId":"osm"},{"id":"osm:node:9710565207","latitude":51.8879731,"longitude":-2.0874868,"name":"The Park by Park Campus Medical Centre","properties":{"access":"unknown","bicycle_pa":"stands","capacity":20,"covered":"yes","fee":"","operator":"","nameSource":"landmark"},"sourceId":"osm"},{"id":"osm:node:9731580557","latitude":51.8882527,"longitude":-2.0881253,"name":"The Park near Tivoli Road","properties":{"access":"yes","bicycle_pa":"shed","capacity":10,"covered":"yes","fee":"no","operator":"","nameSource":"junction"},"sourceId":"osm"},{"id":"osm:node:9735482676","latitude":51.8895968,"longitude":-2.0938033,"name":"Bournside Road cycle parking","properties":{"access":"unknown","bicycle_pa":"stands","capacity":4,"covered":"no","fee":"","operator":"","nameSource":"street"},"sourceId":"osm"},{"id":"osm:node:9758474471","latitude":51.8838943,"longitude":-2.0858496,"name":"Moorend Park Road by Leckhampton Surgery","properties":{"access":"unknown","bicycle_pa":"stands","capacity":4,"covered":"no","fee":"","operator":"","nameSource":"landmark"},"sourceId":"osm"},{"id":"osm:node:9758488510","latitude":51.8823933,"longitude":-2.1006352,"name":"Salisbury Avenue near Oxford Way","properties":{"access":"unknown","bicycle_pa":"stands","capacity":8,"covered":"no","fee":"","operator":"","nameSource":"junction"},"sourceId":"osm"},{"id":"osm:node:9758519623","latitude":51.8824736,"longitude":-2.1010122,"name":"Salisbury Avenue near Oxford Way","properties":{"access":"unknown","bicycle_pa":"stands","capacity":2,"covered":"no","fee":"","operator":"","nameSource":"junction"},"sourceId":"osm"},{"id":"osm:node:9763003249","latitude":51.8874668,"longitude":-2.0981442,"name":"Bettridge School cycle parking","properties":{"access":"unknown","bicycle_pa":"","capacity":0,"covered":"","fee":"","operator":"","nameSource":"landmark"},"sourceId":"osm"},{"id":"osm:node:9768365082","latitude":51.8884707,"longitude":-2.0927168,"name":"Northcroft cycle parking","properties":{"access":"unknown","bicycle_pa":"wall_loops","capacity":2,"covered":"no","fee":"","operator":"","nameSource":"street"},"sourceId":"osm"},{"id":"osm:node:9774033745","latitude":51.8862546,"longitude":-2.0949131,"name":"Merestones Road near Lauriston Park","properties":{"access":"unknown","bicycle_pa":"stands","capacity":20,"covered":"yes","fee":"","operator":"","nameSource":"junction"},"sourceId":"osm"},{"id":"osm:node:9816007067","latitude":51.8856549,"longitude":-2.0854885,"name":"Pavilion Gardens cycle parking","properties":{"access":"unknown","bicycle_pa":"wall_loops","capacity":6,"covered":"no","fee":"","operator":"","nameSource":"street"},"sourceId":"osm"},{"id":"osm:node:9900677614","latitude":51.8899927,"longitude":-2.0784241,"name":"Clare Street near Bath Road","properties":{"access":"unknown","bicycle_pa":"stands","capacity":2,"covered":"no","fee":"","operator":"","nameSource":"junction"},"sourceId":"osm"},{"id":"osm:node:9900731603","latitude":51.8900275,"longitude":-2.0783877,"name":"Bath Road near Clare Street","properties":{"access":"unknown","bicycle_pa":"stands","capacity":2,"covered":"no","fee":"","operator":"","nameSource":"junction"},"sourceId":"osm"},{"id":"osm:node:9900731604","latitude":51.8890596,"longitude":-2.0794501,"name":"Bath Road near Saint Phillip's Street","properties":{"access":"unknown","bicycle_pa":"stands","capacity":2,"covered":"no","fee":"","operator":"","nameSource":"junction"},"sourceId":"osm"},{"id":"osm:node:9900735515","latitude":51.8886463,"longitude":-2.0799324,"name":"Suffolk Street near Bath Road","properties":{"access":"unknown","bicycle_pa":"stands","capacity":6,"covered":"no","fee":"","operator":"","nameSource":"junction"},"sourceId":"osm"},{"id":"osm:node:9900754466","latitude":51.8882559,"longitude":-2.0799719,"name":"Bath Road near Grafton Road","properties":{"access":"unknown","bicycle_pa":"stands","capacity":2,"covered":"no","fee":"","operator":"","nameSource":"junction"},"sourceId":"osm"},{"id":"osm:node:9900763915","latitude":51.889565,"longitude":-2.0788322,"name":"Bath Road near Bath Terrace","properties":{"access":"unknown","bicycle_pa":"stands","capacity":2,"covered":"no","fee":"","operator":"","nameSource":"junction"},"sourceId":"osm"},{"id":"osm:node:9900768505","latitude":51.8896713,"longitude":-2.0787475,"name":"Bath Road near Bath Terrace","properties":{"access":"unknown","bicycle_pa":"stands","capacity":2,"covered":"no","fee":"","operator":"","nameSource":"junction"},"sourceId":"osm"},{"id":"osm:node:9900768558","latitude":51.8890608,"longitude":-2.0793227,"name":"Bath Road near Saint Phillip's Street","properties":{"access":"unknown","bicycle_pa":"stands","capacity":2,"covered":"no","fee":"","operator":"","nameSource":"junction"},"sourceId":"osm"},{"id":"osm:node:9900770264","latitude":51.8882672,"longitude":-2.0799665,"name":"Bath Road near Grafton Road","properties":{"access":"unknown","bicycle_pa":"stands","capacity":2,"covered":"no","fee":"","operator":"","nameSource":"junction"},"sourceId":"osm"},{"id":"osm:node:9900774508","latitude":51.8893701,"longitude":-2.0791797,"name":"Bath Road near Exmouth Street","properties":{"access":"unknown","bicycle_pa":"stands","capacity":2,"covered":"no","fee":"","operator":"","nameSource":"junction"},"sourceId":"osm"},{"id":"osm:node:9900778613","latitude":51.8897267,"longitude":-2.0786957,"name":"Bath Road near Bath Terrace","properties":{"access":"unknown","bicycle_pa":"stands","capacity":2,"covered":"no","fee":"","operator":"","nameSource":"junction"},"sourceId":"osm"},{"id":"osm:node:9900778614","latitude":51.8876454,"longitude":-2.0803021,"name":"Bath Road near A46","properties":{"access":"unknown","bicycle_pa":"stands","capacity":2,"covered":"no","fee":"","operator":"","nameSource":"junction"},"sourceId":"osm"},{"id":"osm:node:9900779454","latitude":51.8876586,"longitude":-2.0802963,"name":"Bath Road near A46","properties":{"access":"unknown","bicycle_pa":"stands","capacity":2,"covered":"no","fee":"","operator":"","nameSource":"junction"},"sourceId":"osm"},{"id":"osm:node:9900783544","latitude":51.8895308,"longitude":-2.0789999,"name":"Upper Bath Street near Bath Road","properties":{"access":"unknown","bicycle_pa":"stands","capacity":2,"covered":"no","fee":"","operator":"","nameSource":"junction"},"sourceId":"osm"},{"id":"osm:node:9900784897","latitude":51.8897384,"longitude":-2.0786821,"name":"Bath Road near Bath Terrace","properties":{"access":"unknown","bicycle_pa":"stands","capacity":2,"covered":"no","fee":"","operator":"","nameSource":"junction"},"sourceId":"osm"},{"id":"osm:node:9900788718","latitude":51.889576,"longitude":-2.078963,"name":"Bath Road near Upper Bath Street","properties":{"access":"unknown","bicycle_pa":"stands","capacity":2,"covered":"no","fee":"","operator":"","nameSource":"junction"},"sourceId":"osm"},{"id":"osm:node:9900788917","latitude":51.8874234,"longitude":-2.0807477,"name":"Shurdington Road near A46","properties":{"access":"unknown","bicycle_pa":"stands","capacity":4,"covered":"no","fee":"","operator":"","nameSource":"junction"},"sourceId":"osm"},{"id":"osm:node:9909992431","latitude":51.8860014,"longitude":-2.0850895,"name":"Harefield Grove cycle parking","properties":{"access":"unknown","bicycle_pa":"wall_loops","capacity":6,"covered":"no","fee":"","operator":"","nameSource":"street"},"sourceId":"osm"},{"id":"osm:node:9919765512","latitude":51.8872961,"longitude":-2.0803277,"name":"Leckhampton Road near Langdon Road","properties":{"access":"unknown","bicycle_pa":"stands","capacity":4,"covered":"no","fee":"","operator":"","nameSource":"junction"},"sourceId":"osm"},{"id":"osm:way:1062222799","latitude":51.887613480000006,"longitude":-2.0994318199999995,"name":"Hillside Close cycle parking","properties":{"access":"private","bicycle_pa":"shed","capacity":0,"covered":"yes","fee":"no","operator":"","nameSource":"street"},"sourceId":"osm"},{"id":"osm:way:1062222800","latitude":51.88812218,"longitude":-2.09964316,"name":"Hillside Close cycle parking","properties":{"access":"private","bicycle_pa":"shed","capacity":0,"covered":"yes","fee":"no","operator":"","nameSource":"street"},"sourceId":"osm"},{"id":"osm:way:1161400713","latitude":51.877981520000006,"longitude":-2.09235116,"name":"Kidnappers Lane cycle parking","properties":{"access":"private","bicycle_pa":"stands","capacity":45,"covered":"yes","fee":"","operator":"","nameSource":"street"},"sourceId":"osm"},{"id":"osm:way:531776312","latitude":51.8874417,"longitude":-2.088336225,"name":"The Refectory cycle parking","properties":{"access":"unknown","bicycle_pa":"stands","capacity":10,"covered":"no","fee":"","operator":"","nameSource":"landmark"},"sourceId":"osm"},{"id":"osm:way:531776313","latitude":51.88752615999999,"longitude":-2.08839772,"name":"The Refectory cycle parking","properties":{"access":"unknown","bicycle_pa":"stands","capacity":14,"covered":"no","fee":"","operator":"","nameSource":"landmark"},"sourceId":"osm"},{"id":"osm:way:531776314","latitude":51.88782328,"longitude":-2.0886910199999997,"name":"The Park by Student Union Bar","properties":{"access":"unknown","bicycle_pa":"stands","capacity":10,"covered":"no","fee":"","operator":"","nameSource":"landmark"},"sourceId":"osm"}],"schemaVersion":2}
