{"key":"12/2019/1363","points":[{"categories":["shop"],"id":"osm:node:3249914037","latitude":51.4300037,"longitude":-2.4784234,"name":"Webbs Cycle Shop","properties":{},"sourceId":"osm"},{"categories":["repair"],"id":"osm:node:3405249671","latitude":51.4306591,"longitude":-2.4761847,"name":"Bicycle repair station","properties":{"servicePump":"yes"},"sourceId":"osm"},{"categories":["repair"],"id":"osm:node:9927858344","latitude":51.4434535,"longitude":-2.5124349,"name":"Hanham Surgery","properties":{"fee":"no","openingHours":"24/7","operator":"Hanham Surgery","servicePump":"yes","serviceRepair":"yes","serviceTools":"yes"},"sourceId":"osm"},{"categories":["repair"],"id":"osm:way:405901689","latitude":51.42938034444444,"longitude":-2.544038266666666,"name":"Halfords","properties":{"brand":"Halfords","openingHours":"Mo-Fr 08:00-20:00; Sa 08:00-18:00; Su 10:00-17:00","serviceRepair":"yes"},"sourceId":"osm"},{"categories":["shop"],"id":"osm:way:498114488","latitude":51.44897854285714,"longitude":-2.5172804857142856,"name":"Woods Cycles","properties":{},"sourceId":"osm"},{"categories":["shop"],"id":"osm:way:503127559","latitude":51.414729727272736,"longitude":-2.497386181818182,"name":"73 Degrees","properties":{},"sourceId":"osm"}],"schemaVersion":2}
