{"key":"12/1995/1600","points":[{"categories":["shop"],"id":"osm:node:11372325569","latitude":36.5483358,"longitude":-4.6183849,"name":"Rhino Bikes","properties":{"openingHours":"Mo-Fr 10:00-14:00, 16:00-20:00; Sa 10:00-14:00","website":"https://rhino-bicycles.negocio.site/"},"sourceId":"osm"},{"categories":["shop"],"id":"osm:node:12282349001","latitude":36.5631843,"longitude":-4.6054099,"name":"Cabberty Bikes","properties":{"openingHours":"Mo-Fr 10:00-18:00","website":"https://cabberty.com/bikes/tienda-bicicletas-fuengirola/"},"sourceId":"osm"},{"categories":["shop","repair"],"id":"osm:node:2419759292","latitude":36.539125,"longitude":-4.6391201,"name":"Bicis Buendia","properties":{"serviceRepair":"yes","website":"http://www.bicisbuendia.com/"},"sourceId":"osm"},{"categories":["shop","repair","hire"],"id":"osm:node:5682256558","latitude":36.5468718,"longitude":-4.6189635,"name":"Williams Bicycles","properties":{"serviceRental":"yes","serviceRepair":"yes"},"sourceId":"osm"},{"categories":["shop"],"id":"osm:node:7208948992","latitude":36.5394876,"longitude":-4.6361437,"name":"Biciterapia","properties":{},"sourceId":"osm"}],"schemaVersion":2}
