{"key":"12/2015/1329","points":[{"id":"osm:node:10676558155","latitude":53.2660015,"longitude":-2.8927502,"name":"EPSV bicycle parking","properties":{"access":"unknown","bicycle_pa":"stands","capacity":40,"covered":"yes","fee":"","operator":"Brio Leisure","nameSource":"source"},"sourceId":"osm"},{"id":"osm:node:11376014714","latitude":53.2266188,"longitude":-2.8895144,"name":"Moston cycle parking","properties":{"access":"unknown","bicycle_pa":"","capacity":0,"covered":"","fee":"","operator":"","nameSource":"place"},"sourceId":"osm"},{"id":"osm:node:11645742320","latitude":53.2672905,"longitude":-2.8862372,"name":"Alnwick Drive near Bunbury Green","properties":{"access":"yes","bicycle_pa":"stands","capacity":6,"covered":"","fee":"","operator":"","nameSource":"junction"},"sourceId":"osm"},{"id":"osm:node:11732195978","latitude":53.2658622,"longitude":-2.884093,"name":"Coliseum Way cycle parking","properties":{"access":"unknown","bicycle_pa":"stands","capacity":6,"covered":"yes","fee":"no","operator":"","nameSource":"street"},"sourceId":"osm"},{"id":"osm:node:11753294197","latitude":53.2276636,"longitude":-2.884769,"name":"Ark Shop cycle parking","properties":{"access":"unknown","bicycle_pa":"stands","capacity":0,"covered":"no","fee":"no","operator":"","nameSource":"landmark"},"sourceId":"osm"},{"id":"osm:node:13043319588","latitude":53.2438965,"longitude":-2.8238337,"name":"Stables cycle parking","properties":{"access":"customers","bicycle_pa":"stands","capacity":0,"covered":"","fee":"","operator":"YHA","nameSource":"landmark"},"sourceId":"osm"},{"id":"osm:node:4316789151","latitude":53.2275655,"longitude":-2.8846583,"name":"Ark Shop cycle parking","properties":{"access":"unknown","bicycle_pa":"","capacity":30,"covered":"","fee":"","operator":"","nameSource":"landmark"},"sourceId":"osm"},{"id":"osm:way:1254562126","latitude":53.26641422,"longitude":-2.8801834,"name":"Russell & Bromley cycle parking","properties":{"access":"unknown","bicycle_pa":"stands","capacity":16,"covered":"","fee":"","operator":"","nameSource":"landmark"},"sourceId":"osm"}],"schemaVersion":2}
