{"key":"12/2020/1329","points":[{"id":"osm:node:4485702743","latitude":53.2715181,"longitude":-2.4597276,"name":"Cheshire Avenue cycle parking","properties":{"access":"unknown","bicycle_pa":"","capacity":0,"covered":"","fee":"","operator":"","nameSource":"street"},"sourceId":"osm"},{"id":"osm:node:4485702744","latitude":53.2716769,"longitude":-2.4598644,"name":"Manchester Road cycle parking","properties":{"access":"unknown","bicycle_pa":"","capacity":0,"covered":"","fee":"","operator":"","nameSource":"street"},"sourceId":"osm"},{"id":"osm:node:4485702747","latitude":53.2721308,"longitude":-2.4583195,"name":"Gibbon Drive near Manchester Road","properties":{"access":"unknown","bicycle_pa":"","capacity":0,"covered":"","fee":"","operator":"","nameSource":"junction"},"sourceId":"osm"},{"id":"osm:node:4485702748","latitude":53.2721878,"longitude":-2.457496,"name":"Cheshire Avenue cycle parking","properties":{"access":"unknown","bicycle_pa":"","capacity":0,"covered":"","fee":"","operator":"","nameSource":"street"},"sourceId":"osm"},{"id":"osm:node:4485702756","latitude":53.2723862,"longitude":-2.4561623,"name":"Triangle Court near Cheshire Avenue","properties":{"access":"unknown","bicycle_pa":"stands","capacity":10,"covered":"yes","fee":"","operator":"","nameSource":"junction"},"sourceId":"osm"}],"schemaVersion":2}
