{"key":"12/2020/1361","points":[{"id":"osm:node:10969437497","latitude":51.5411767,"longitude":-2.4320955,"name":"Station Road near Badminton Road","properties":{"access":"yes","bicycle_pa":"stands","capacity":18,"covered":"yes","fee":"","operator":"Great Western Railway","nameSource":"junction"},"sourceId":"osm"},{"id":"osm:node:10969437498","latitude":51.5410763,"longitude":-2.4316242,"name":"Station Road near Westleigh Close","properties":{"access":"permit","bicycle_pa":"lockers","capacity":18,"covered":"yes","fee":"","operator":"Great Western Railway","nameSource":"junction"},"sourceId":"osm"},{"id":"osm:node:10969437499","latitude":51.5410441,"longitude":-2.4319688,"name":"Station Road near Badminton Road","properties":{"access":"yes","bicycle_pa":"stands","capacity":10,"covered":"no","fee":"","operator":"Great Western Railway","nameSource":"junction"},"sourceId":"osm"},{"id":"osm:node:11761514500","latitude":51.5406921,"longitude":-2.4160359,"name":"West Walk by Yate Leisure Centre","properties":{"access":"unknown","bicycle_pa":"stands","capacity":18,"covered":"no","fee":"","operator":"","nameSource":"landmark"},"sourceId":"osm"},{"id":"osm:node:11761514501","latitude":51.5407158,"longitude":-2.4160227,"name":"West Walk by Yate Leisure Centre","properties":{"access":"unknown","bicycle_pa":"stands","capacity":18,"covered":"no","fee":"","operator":"","nameSource":"landmark"},"sourceId":"osm"},{"id":"osm:node:11761561415","latitude":51.5403157,"longitude":-2.4153545,"name":"West Walk by Pop Inn Café","properties":{"access":"unknown","bicycle_pa":"","capacity":0,"covered":"no","fee":"","operator":"","nameSource":"landmark"},"sourceId":"osm"},{"id":"osm:node:11763732599","latitude":51.539223,"longitude":-2.413748,"name":"South Parade near South Walk","properties":{"access":"unknown","bicycle_pa":"","capacity":0,"covered":"","fee":"","operator":"","nameSource":"junction"},"sourceId":"osm"},{"id":"osm:node:11763732600","latitude":51.5391998,"longitude":-2.4137328,"name":"South Parade near South Walk","properties":{"access":"unknown","bicycle_pa":"","capacity":0,"covered":"","fee":"","operator":"","nameSource":"junction"},"sourceId":"osm"},{"id":"osm:node:11766062278","latitude":51.5403228,"longitude":-2.415393,"name":"West Walk by Pop Inn Café","properties":{"access":"unknown","bicycle_pa":"","capacity":0,"covered":"no","fee":"","operator":"","nameSource":"landmark"},"sourceId":"osm"},{"id":"osm:node:1914270616","latitude":51.5392509,"longitude":-2.4137641,"name":"South Parade near South Walk","properties":{"access":"unknown","bicycle_pa":"","capacity":0,"covered":"","fee":"","operator":"","nameSource":"junction"},"sourceId":"osm"},{"id":"osm:node:3656113886","latitude":51.5273212,"longitude":-2.4238597,"name":"Kelston Close cycle parking","properties":{"access":"unknown","bicycle_pa":"","capacity":4,"covered":"","fee":"","operator":"","nameSource":"street"},"sourceId":"osm"},{"id":"osm:node:376983743","latitude":51.5403302,"longitude":-2.4154332,"name":"West Walk by Pop Inn Café","properties":{"access":"unknown","bicycle_pa":"","capacity":0,"covered":"no","fee":"","operator":"","nameSource":"landmark"},"sourceId":"osm"},{"id":"osm:node:493687813","latitude":51.5424221,"longitude":-2.4051323,"name":"Firgrove Crescent near Broadway","properties":{"access":"unknown","bicycle_pa":"stands","capacity":4,"covered":"no","fee":"","operator":"","nameSource":"junction"},"sourceId":"osm"},{"id":"osm:node:7884106043","latitude":51.5407434,"longitude":-2.416012,"name":"West Walk by Yate Leisure Centre","properties":{"access":"unknown","bicycle_pa":"stands","capacity":18,"covered":"no","fee":"","operator":"","nameSource":"landmark"},"sourceId":"osm"},{"id":"osm:node:7899840408","latitude":51.5412237,"longitude":-2.4125055,"name":"North Parade near North Walk","properties":{"access":"unknown","bicycle_pa":"stands","capacity":16,"covered":"no","fee":"","operator":"","nameSource":"junction"},"sourceId":"osm"},{"id":"osm:node:7899840410","latitude":51.5413544,"longitude":-2.4134252,"name":"North Parade near North Walk","properties":{"access":"unknown","bicycle_pa":"","capacity":0,"covered":"","fee":"","operator":"","nameSource":"junction"},"sourceId":"osm"},{"id":"osm:node:7899840428","latitude":51.5398804,"longitude":-2.4104775,"name":"East Walk cycle parking","properties":{"access":"unknown","bicycle_pa":"stands","capacity":40,"covered":"no","fee":"","operator":"","nameSource":"street"},"sourceId":"osm"},{"id":"osm:node:8112494287","latitude":51.5387907,"longitude":-2.4137564,"name":"Kennedy Way near Sundridge Park","properties":{"access":"unknown","bicycle_pa":"stands","capacity":10,"covered":"no","fee":"no","operator":"","nameSource":"junction"},"sourceId":"osm"},{"id":"osm:node:9566154250","latitude":51.540231,"longitude":-2.4402739,"name":"Badminton Road cycle parking","properties":{"access":"unknown","bicycle_pa":"","capacity":0,"covered":"yes","fee":"","operator":"","nameSource":"street"},"sourceId":"osm"},{"id":"osm:way:1147779430","latitude":51.55343615,"longitude":-2.4234203,"name":"Long Croft cycle parking","properties":{"access":"unknown","bicycle_pa":"shed","capacity":0,"covered":"","fee":"","operator":"","nameSource":"street"},"sourceId":"osm"}],"schemaVersion":2}
