{"key":"12/2020/1596","points":[{"id":"osm:node:10273846038","latitude":36.8676939,"longitude":-2.4449476,"name":"N-340A by base","properties":{"access":"unknown","bicycle_pa":"wall_loops","capacity":0,"covered":"no","fee":"","operator":"","nameSource":"landmark"},"sourceId":"osm"},{"id":"osm:node:10658290470","latitude":36.8442872,"longitude":-2.4462837,"name":"Calle Bernardo Martínez Noval near Calle Villa de Artés","properties":{"access":"unknown","bicycle_pa":"building","capacity":3,"covered":"","fee":"","operator":"","nameSource":"junction"},"sourceId":"osm"},{"id":"osm:node:10739952400","latitude":36.8417765,"longitude":-2.4586629,"name":"Plaza de la Concordia near Avenida Federico García Lorca","properties":{"access":"unknown","bicycle_pa":"","capacity":6,"covered":"","fee":"","operator":"","nameSource":"junction"},"sourceId":"osm"},{"id":"osm:node:10959842579","latitude":36.8567569,"longitude":-2.4370634,"name":"Avenida Torrecárdenas near Calle Planetas","properties":{"access":"yes","bicycle_pa":"","capacity":8,"covered":"no","fee":"","operator":"","nameSource":"junction"},"sourceId":"osm"},{"id":"osm:node:11298348024","latitude":36.8153266,"longitude":-2.432746,"name":"Paseo Marítimo cycle parking","properties":{"access":"yes","bicycle_pa":"stands","capacity":6,"covered":"no","fee":"","operator":"","nameSource":"street"},"sourceId":"osm"},{"id":"osm:node:11298353386","latitude":36.8150866,"longitude":-2.4328596,"name":"Paseo Marítimo cycle parking","properties":{"access":"yes","bicycle_pa":"stands","capacity":6,"covered":"no","fee":"","operator":"","nameSource":"street"},"sourceId":"osm"},{"id":"osm:node:11298818323","latitude":36.8145704,"longitude":-2.4318921,"name":"Paseo Marítimo cycle parking","properties":{"access":"unknown","bicycle_pa":"stands","capacity":4,"covered":"no","fee":"","operator":"","nameSource":"street"},"sourceId":"osm"},{"id":"osm:node:11298818324","latitude":36.8155118,"longitude":-2.4337919,"name":"Paseo Marítimo cycle parking","properties":{"access":"unknown","bicycle_pa":"stands","capacity":6,"covered":"no","fee":"","operator":"","nameSource":"street"},"sourceId":"osm"},{"id":"osm:node:11298818325","latitude":36.8141445,"longitude":-2.4310349,"name":"Paseo Marítimo cycle parking","properties":{"access":"unknown","bicycle_pa":"rack","capacity":6,"covered":"no","fee":"","operator":"","nameSource":"street"},"sourceId":"osm"},{"id":"osm:node:11298818327","latitude":36.8157095,"longitude":-2.4341785,"name":"Paseo Marítimo cycle parking","properties":{"access":"unknown","bicycle_pa":"stands","capacity":6,"covered":"no","fee":"","operator":"","nameSource":"street"},"sourceId":"osm"},{"id":"osm:node:11298818328","latitude":36.8140653,"longitude":-2.4309798,"name":"Paseo Marítimo cycle parking","properties":{"access":"unknown","bicycle_pa":"stands","capacity":4,"covered":"no","fee":"","operator":"","nameSource":"street"},"sourceId":"osm"},{"id":"osm:node:11298818329","latitude":36.8148204,"longitude":-2.4325307,"name":"Paseo Marítimo cycle parking","properties":{"access":"unknown","bicycle_pa":"stands","capacity":4,"covered":"no","fee":"","operator":"","nameSource":"street"},"sourceId":"osm"},{"id":"osm:node:11634361289","latitude":36.8592562,"longitude":-2.4407998,"name":"Avenida del Médico Francisco Pérez Company near Calle Palas Atenea","properties":{"access":"yes","bicycle_pa":"stands","capacity":10,"covered":"no","fee":"no","operator":"","nameSource":"junction"},"sourceId":"osm"},{"id":"osm:node:11634361328","latitude":36.8496749,"longitude":-2.4340325,"name":"Calle Isla de Cabrera near Calle Asia","properties":{"access":"unknown","bicycle_pa":"wide_stands","capacity":16,"covered":"","fee":"","operator":"","nameSource":"junction"},"sourceId":"osm"},{"id":"osm:node:11634361355","latitude":36.8581999,"longitude":-2.4388972,"name":"Avenida Torrecárdenas near Calle Universo","properties":{"access":"yes","bicycle_pa":"wide_stands","capacity":10,"covered":"no","fee":"no","operator":"","nameSource":"junction"},"sourceId":"osm"},{"id":"osm:node:11634361358","latitude":36.8552868,"longitude":-2.4352659,"name":"Avenida Torrecárdenas near Calle Asteroide","properties":{"access":"unknown","bicycle_pa":"wide_stands","capacity":10,"covered":"","fee":"","operator":"","nameSource":"junction"},"sourceId":"osm"},{"id":"osm:node:11636158230","latitude":36.8497414,"longitude":-2.4340164,"name":"Calle Asia near Calle Isla de Cabrera","properties":{"access":"unknown","bicycle_pa":"wide_stands","capacity":16,"covered":"","fee":"","operator":"","nameSource":"junction"},"sourceId":"osm"},{"id":"osm:node:1269030396","latitude":36.8358035,"longitude":-2.4434871,"name":"Plaza Dalias near Calle Fuente Victoria","properties":{"access":"unknown","bicycle_pa":"","capacity":0,"covered":"","fee":"","operator":"","nameSource":"junction"},"sourceId":"osm"},{"id":"osm:node:4414035756","latitude":36.8314068,"longitude":-2.4462284,"name":"Avenida del Mediterráneo near Calle Juglar de Medinaceli","properties":{"access":"yes","bicycle_pa":"stands","capacity":18,"covered":"no","fee":"","operator":"","nameSource":"junction"},"sourceId":"osm"},{"id":"osm:node:4420682391","latitude":36.830935,"longitude":-2.4451687,"name":"Avenida del Mediterráneo by Parque de las Familias","properties":{"access":"unknown","bicycle_pa":"","capacity":0,"covered":"","fee":"","operator":"","nameSource":"landmark"},"sourceId":"osm"},{"id":"osm:node:4449318691","latitude":36.8278638,"longitude":-2.4526312,"name":"Calle Conchas near Calle las Conchas","properties":{"access":"unknown","bicycle_pa":"stands","capacity":24,"covered":"no","fee":"","operator":"","nameSource":"junction"},"sourceId":"osm"},{"id":"osm:node:4924535724","latitude":36.8432019,"longitude":-2.4461449,"name":"Calle Manuel Azaña near Calle Bernardo Martínez Noval","properties":{"access":"yes","bicycle_pa":"stands","capacity":16,"covered":"no","fee":"","operator":"","nameSource":"junction"},"sourceId":"osm"},{"id":"osm:node:4924535725","latitude":36.8427293,"longitude":-2.4470534,"name":"Avenida del Mediterráneo near Calle Jerónima Bellver","properties":{"access":"unknown","bicycle_pa":"rack","capacity":10,"covered":"","fee":"","operator":"","nameSource":"junction"},"sourceId":"osm"},{"id":"osm:node:5357677921","latitude":36.8397994,"longitude":-2.4543128,"name":"Carretera de Ronda near Avenida Padre Méndez","properties":{"access":"yes","bicycle_pa":"stands","capacity":24,"covered":"no","fee":"","operator":"","nameSource":"junction"},"sourceId":"osm"},{"id":"osm:node:5358759521","latitude":36.8596205,"longitude":-2.4442264,"name":"Avenida Madre María Aznar near Avenida Mediterráneo","properties":{"access":"unknown","bicycle_pa":"","capacity":0,"covered":"","fee":"","operator":"","nameSource":"junction"},"sourceId":"osm"},{"id":"osm:node:5582448522","latitude":36.8389508,"longitude":-2.4561976,"name":"Calle Doctor Ferrán near Calle Hermanos Pinzón","properties":{"access":"yes","bicycle_pa":"stands","capacity":34,"covered":"","fee":"no","operator":"","nameSource":"junction"},"sourceId":"osm"},{"id":"osm:node:5655313198","latitude":36.8392966,"longitude":-2.4596277,"name":"Avenida Federico García Lorca near Calle Doctor Gregorio Marañón","properties":{"access":"unknown","bicycle_pa":"","capacity":0,"covered":"","fee":"","operator":"","nameSource":"junction"},"sourceId":"osm"},{"id":"osm:node:6149518840","latitude":36.8440551,"longitude":-2.4414443,"name":"Calle Instinción near Calle Gladiolo","properties":{"access":"yes","bicycle_pa":"rack","capacity":12,"covered":"","fee":"","operator":"","nameSource":"junction"},"sourceId":"osm"},{"id":"osm:node:6149518841","latitude":36.8431749,"longitude":-2.442536,"name":"Calle Manuel Azaña near Calle Jorge Guillén","properties":{"access":"yes","bicycle_pa":"stands","capacity":8,"covered":"no","fee":"","operator":"","nameSource":"junction"},"sourceId":"osm"},{"id":"osm:node:6149552485","latitude":36.84336,"longitude":-2.4461501,"name":"Calle Manuel Azaña near Calle Bernardo Martínez Noval","properties":{"access":"yes","bicycle_pa":"stands","capacity":8,"covered":"no","fee":"","operator":"","nameSource":"junction"},"sourceId":"osm"},{"id":"osm:node:6149552486","latitude":36.8557414,"longitude":-2.4455712,"name":"Avenida del Mediterráneo near Isla Perejil","properties":{"access":"yes","bicycle_pa":"stands","capacity":12,"covered":"no","fee":"","operator":"","nameSource":"junction"},"sourceId":"osm"},{"id":"osm:node:6149552487","latitude":36.8561336,"longitude":-2.4453372,"name":"Calle Fray Juan de Portocarrero by Terraza Mediterráneo","properties":{"access":"unknown","bicycle_pa":"rack","capacity":12,"covered":"","fee":"","operator":"","nameSource":"landmark"},"sourceId":"osm"},{"id":"osm:node:6163644554","latitude":36.8365733,"longitude":-2.4380426,"name":"Camino de la Goleta by Frutas y Verduras Ramón","properties":{"access":"unknown","bicycle_pa":"rack","capacity":10,"covered":"","fee":"","operator":"","nameSource":"landmark"},"sourceId":"osm"},{"id":"osm:node:6222747936","latitude":36.8426763,"longitude":-2.4470587,"name":"Avenida del Mediterráneo near Calle Jerónima Bellver","properties":{"access":"unknown","bicycle_pa":"rack","capacity":10,"covered":"","fee":"","operator":"","nameSource":"junction"},"sourceId":"osm"},{"id":"osm:node:6277261114","latitude":36.8512452,"longitude":-2.4516421,"name":"Calle la Peseta near Plaza Gaudí","properties":{"access":"unknown","bicycle_pa":"rack","capacity":8,"covered":"","fee":"","operator":"","nameSource":"junction"},"sourceId":"osm"},{"id":"osm:node:6277497013","latitude":36.8521708,"longitude":-2.4508175,"name":"Calle la Pilarica near Calle Magnesita","properties":{"access":"unknown","bicycle_pa":"rack","capacity":12,"covered":"","fee":"","operator":"","nameSource":"junction"},"sourceId":"osm"},{"id":"osm:node:6282736835","latitude":36.8512185,"longitude":-2.4518978,"name":"Calle la Peseta near Plaza Gaudí","properties":{"access":"unknown","bicycle_pa":"rack","capacity":16,"covered":"","fee":"","operator":"","nameSource":"junction"},"sourceId":"osm"},{"id":"osm:node:6320733888","latitude":36.8421177,"longitude":-2.4470923,"name":"Calle Gustavo Villapalos by Boulevard Café","properties":{"access":"yes","bicycle_pa":"stands","capacity":12,"covered":"no","fee":"","operator":"","nameSource":"landmark"},"sourceId":"osm"},{"id":"osm:node:6320776352","latitude":36.8404314,"longitude":-2.447242,"name":"Avenida del Mediterráneo near Calle Emilio Campra Bonillo","properties":{"access":"yes","bicycle_pa":"stands","capacity":36,"covered":"no","fee":"","operator":"","nameSource":"junction"},"sourceId":"osm"},{"id":"osm:node:6321909397","latitude":36.8561336,"longitude":-2.4453372,"name":"Calle Fray Juan de Portocarrero by Terraza Mediterráneo","properties":{"access":"yes","bicycle_pa":"stands","capacity":12,"covered":"no","fee":"","operator":"","nameSource":"landmark"},"sourceId":"osm"},{"id":"osm:node:6321909398","latitude":36.8574537,"longitude":-2.4453268,"name":"Calle Costa de la Luz near Avenida Mediterráneo","properties":{"access":"yes","bicycle_pa":"stands","capacity":10,"covered":"no","fee":"","operator":"","nameSource":"junction"},"sourceId":"osm"},{"id":"osm:node:6321912725","latitude":36.8422535,"longitude":-2.4435428,"name":"Calle Gustavo Villapalos near Calle Jorge Guillén","properties":{"access":"yes","bicycle_pa":"stands","capacity":24,"covered":"yes","fee":"","operator":"","nameSource":"junction"},"sourceId":"osm"},{"id":"osm:node:6326166110","latitude":36.8397174,"longitude":-2.4485834,"name":"Calle Padre Méndez near Calle Juan de la Encina","properties":{"access":"yes","bicycle_pa":"stands","capacity":10,"covered":"no","fee":"","operator":"","nameSource":"junction"},"sourceId":"osm"},{"id":"osm:node:6326950502","latitude":36.8455169,"longitude":-2.4518402,"name":"Carretera de Níjar - Los Molinos near Calle Menéndez Pelayo","properties":{"access":"yes","bicycle_pa":"stands","capacity":20,"covered":"no","fee":"","operator":"","nameSource":"junction"},"sourceId":"osm"},{"id":"osm:node:6341289871","latitude":36.8382731,"longitude":-2.4351702,"name":"Calle Acebo by Bay Bay Jaya","properties":{"access":"yes","bicycle_pa":"stands","capacity":18,"covered":"no","fee":"","operator":"","nameSource":"landmark"},"sourceId":"osm"},{"id":"osm:node:6341289872","latitude":36.8379148,"longitude":-2.4323203,"name":"Calle Acebo near Calle Árbol del Amor","properties":{"access":"yes","bicycle_pa":"stands","capacity":10,"covered":"no","fee":"","operator":"","nameSource":"junction"},"sourceId":"osm"},{"id":"osm:node:6341289873","latitude":36.8381204,"longitude":-2.4347241,"name":"Calle Acebo near Calle Árbol de la Seda","properties":{"access":"yes","bicycle_pa":"stands","capacity":18,"covered":"no","fee":"","operator":"","nameSource":"junction"},"sourceId":"osm"},{"id":"osm:node:6341289874","latitude":36.8392169,"longitude":-2.4339271,"name":"La Goleta cycle parking","properties":{"access":"yes","bicycle_pa":"stands","capacity":28,"covered":"no","fee":"","operator":"","nameSource":"place"},"sourceId":"osm"},{"id":"osm:node:6341289875","latitude":36.8380163,"longitude":-2.4341982,"name":"Calle Acebo near Calle Árbol de la Seda","properties":{"access":"yes","bicycle_pa":"stands","capacity":10,"covered":"no","fee":"","operator":"","nameSource":"junction"},"sourceId":"osm"},{"id":"osm:node:6341320367","latitude":36.8618443,"longitude":-2.4415707,"name":"Calle Hermandad de los Donantes de Sangre near Calle Astrofísica","properties":{"access":"yes","bicycle_pa":"stands","capacity":36,"covered":"no","fee":"","operator":"","nameSource":"junction"},"sourceId":"osm"},{"id":"osm:node:6341320368","latitude":36.8444563,"longitude":-2.4407743,"name":"Calle Cómico near Calle Pechina","properties":{"access":"yes","bicycle_pa":"rack","capacity":12,"covered":"no","fee":"","operator":"","nameSource":"junction"},"sourceId":"osm"},{"id":"osm:node:6356627253","latitude":36.8299744,"longitude":-2.4398043,"name":"Calle Adolfo Marsillac near Calle Miguel de Molina","properties":{"access":"yes","bicycle_pa":"stands","capacity":18,"covered":"no","fee":"","operator":"","nameSource":"junction"},"sourceId":"osm"},{"id":"osm:node:6356630760","latitude":36.8301027,"longitude":-2.4382783,"name":"Calle Adolfo Marsillac near Avenida de la Vega de Acá","properties":{"access":"yes","bicycle_pa":"stands","capacity":16,"covered":"no","fee":"","operator":"","nameSource":"junction"},"sourceId":"osm"},{"id":"osm:node:6357852702","latitude":36.8499962,"longitude":-2.4439289,"name":"Calle Líbano near Calle Grecia","properties":{"access":"yes","bicycle_pa":"stands","capacity":12,"covered":"no","fee":"","operator":"","nameSource":"junction"},"sourceId":"osm"},{"id":"osm:node:6358914235","latitude":36.8349835,"longitude":-2.4607179,"name":"Calle Canónigo Molina Alonso near Calle Rafael Alberti","properties":{"access":"yes","bicycle_pa":"stands","capacity":6,"covered":"no","fee":"","operator":"","nameSource":"junction"},"sourceId":"osm"},{"id":"osm:node:6358914237","latitude":36.8349659,"longitude":-2.4608093,"name":"Calle Canónigo Molina Alonso near Calle Rafael Alberti","properties":{"access":"yes","bicycle_pa":"stands","capacity":6,"covered":"no","fee":"","operator":"","nameSource":"junction"},"sourceId":"osm"},{"id":"osm:node:6382011385","latitude":36.8407754,"longitude":-2.4536105,"name":"Calle Doctor Carracido near Carretera de Ronda","properties":{"access":"yes","bicycle_pa":"stands","capacity":12,"covered":"no","fee":"","operator":"","nameSource":"junction"},"sourceId":"osm"},{"id":"osm:node:6390509941","latitude":36.8127337,"longitude":-2.4260288,"name":"Jaúl Bajo cycle parking","properties":{"access":"yes","bicycle_pa":"rack","capacity":5,"covered":"no","fee":"no","operator":"","nameSource":"place"},"sourceId":"osm"},{"id":"osm:node:6390510345","latitude":36.8145698,"longitude":-2.4248277,"name":"Jaúl Bajo cycle parking","properties":{"access":"yes","bicycle_pa":"rack","capacity":5,"covered":"no","fee":"no","operator":"","nameSource":"place"},"sourceId":"osm"},{"id":"osm:node:6400843049","latitude":36.836332,"longitude":-2.4349882,"name":"Camino de la Goleta near Calle Árbol de la Seda","properties":{"access":"yes","bicycle_pa":"stands","capacity":10,"covered":"no","fee":"","operator":"","nameSource":"junction"},"sourceId":"osm"},{"id":"osm:node:6400843672","latitude":36.8374634,"longitude":-2.4346433,"name":"Calle Árbol de la Seda near Calle Acebo","properties":{"access":"yes","bicycle_pa":"stands","capacity":10,"covered":"no","fee":"","operator":"","nameSource":"junction"},"sourceId":"osm"},{"id":"osm:node:6400846663","latitude":36.8367243,"longitude":-2.4349786,"name":"Calle Galán de Noche near Calle Árbol de la Seda","properties":{"access":"customers","bicycle_pa":"rack","capacity":4,"covered":"no","fee":"","operator":"","nameSource":"junction"},"sourceId":"osm"},{"id":"osm:node:6400847747","latitude":36.8355991,"longitude":-2.4337747,"name":"Camino de la Goleta near Calle Árbol del Amor","properties":{"access":"yes","bicycle_pa":"stands","capacity":10,"covered":"no","fee":"","operator":"","nameSource":"junction"},"sourceId":"osm"},{"id":"osm:node:6400853514","latitude":36.8353657,"longitude":-2.432728,"name":"Calle Árbol del Amor cycle parking","properties":{"access":"yes","bicycle_pa":"stands","capacity":10,"covered":"no","fee":"","operator":"","nameSource":"street"},"sourceId":"osm"},{"id":"osm:node:6400861580","latitude":36.8373977,"longitude":-2.431729,"name":"Calle Árbol del Paraíso cycle parking","properties":{"access":"yes","bicycle_pa":"stands","capacity":10,"covered":"no","fee":"","operator":"","nameSource":"street"},"sourceId":"osm"},{"id":"osm:node:6400862585","latitude":36.8364993,"longitude":-2.4317899,"name":"Calle Árbol del Paraíso near Calle Galán de Noche","properties":{"access":"yes","bicycle_pa":"stands","capacity":10,"covered":"no","fee":"","operator":"","nameSource":"junction"},"sourceId":"osm"},{"id":"osm:node:6400867753","latitude":36.8344758,"longitude":-2.4320491,"name":"Calle Árbol del Paraíso near Camino de la Goleta","properties":{"access":"yes","bicycle_pa":"stands","capacity":10,"covered":"no","fee":"","operator":"","nameSource":"junction"},"sourceId":"osm"},{"id":"osm:node:6400876645","latitude":36.8328271,"longitude":-2.4314114,"name":"Los Almendros cycle parking","properties":{"access":"yes","bicycle_pa":"stands","capacity":10,"covered":"no","fee":"","operator":"","nameSource":"street"},"sourceId":"osm"},{"id":"osm:node:6400940478","latitude":36.8230924,"longitude":-2.408517,"name":"Paseo Marítimo de Ribera cycle parking","properties":{"access":"yes","bicycle_pa":"rack","capacity":5,"covered":"no","fee":"","operator":"","nameSource":"street"},"sourceId":"osm"},{"id":"osm:node:6400940479","latitude":36.8182534,"longitude":-2.4160646,"name":"Paseo Marítimo de Ribera cycle parking","properties":{"access":"yes","bicycle_pa":"rack","capacity":5,"covered":"no","fee":"","operator":"","nameSource":"street"},"sourceId":"osm"},{"id":"osm:node:6404152960","latitude":36.8402059,"longitude":-2.4555269,"name":"Calle Hermanos Pinzón near Calle Poeta Paco Aquino","properties":{"access":"yes","bicycle_pa":"stands","capacity":8,"covered":"no","fee":"","operator":"","nameSource":"junction"},"sourceId":"osm"},{"id":"osm:node:6404152962","latitude":36.8405738,"longitude":-2.4552524,"name":"Calle Cardenal Herrera Oria near Calle Hermanos Pinzón","properties":{"access":"yes","bicycle_pa":"stands","capacity":8,"covered":"no","fee":"","operator":"","nameSource":"junction"},"sourceId":"osm"},{"id":"osm:node:6404770597","latitude":36.8412435,"longitude":-2.4548246,"name":"Calle Doctor Carracido near Calle Hermanos Pinzón","properties":{"access":"unknown","bicycle_pa":"stands","capacity":8,"covered":"","fee":"","operator":"","nameSource":"junction"},"sourceId":"osm"},{"id":"osm:node:6416502469","latitude":36.8620009,"longitude":-2.4353857,"name":"Avenida del Médico Francisco Pérez Company by Blue Mountain Café","properties":{"access":"yes","bicycle_pa":"","capacity":16,"covered":"no","fee":"","operator":"","nameSource":"landmark"},"sourceId":"osm"},{"id":"osm:node:6416502470","latitude":36.8619709,"longitude":-2.435445,"name":"Avenida del Médico Francisco Pérez Company by Blue Mountain Café","properties":{"access":"yes","bicycle_pa":"","capacity":16,"covered":"no","fee":"","operator":"","nameSource":"landmark"},"sourceId":"osm"},{"id":"osm:node:6416502471","latitude":36.8620285,"longitude":-2.4353364,"name":"Avenida del Médico Francisco Pérez Company by Blue Mountain Café","properties":{"access":"yes","bicycle_pa":"","capacity":16,"covered":"no","fee":"","operator":"","nameSource":"landmark"},"sourceId":"osm"},{"id":"osm:node:6416502472","latitude":36.8619875,"longitude":-2.4354141,"name":"Avenida del Médico Francisco Pérez Company by Blue Mountain Café","properties":{"access":"yes","bicycle_pa":"","capacity":16,"covered":"no","fee":"","operator":"","nameSource":"landmark"},"sourceId":"osm"},{"id":"osm:node:6416502473","latitude":36.8620161,"longitude":-2.435359,"name":"Avenida del Médico Francisco Pérez Company by Blue Mountain Café","properties":{"access":"yes","bicycle_pa":"","capacity":16,"covered":"no","fee":"","operator":"","nameSource":"landmark"},"sourceId":"osm"},{"id":"osm:node:6416502474","latitude":36.8619562,"longitude":-2.4354834,"name":"Avenida del Médico Francisco Pérez Company by Blue Mountain Café","properties":{"access":"yes","bicycle_pa":"","capacity":16,"covered":"no","fee":"","operator":"","nameSource":"landmark"},"sourceId":"osm"},{"id":"osm:node:6432443440","latitude":36.8305934,"longitude":-2.4042812,"name":"Calle Bernard Vincent near Calle Federico Mayor Zaragoza","properties":{"access":"yes","bicycle_pa":"stands","capacity":24,"covered":"yes","fee":"","operator":"Universidad de Almería","nameSource":"junction"},"sourceId":"osm"},{"id":"osm:node:6432446229","latitude":36.8300349,"longitude":-2.4077725,"name":"Calle Fred van Oystaeyen by Estación Experimental de Zonas Áridas","properties":{"access":"yes","bicycle_pa":"stands","capacity":10,"covered":"no","fee":"","operator":"Universidad de Almería","nameSource":"landmark"},"sourceId":"osm"},{"id":"osm:node:6432448085","latitude":36.8304711,"longitude":-2.4078929,"name":"Calle Fred van Oystaeyen cycle parking","properties":{"access":"yes","bicycle_pa":"rack","capacity":5,"covered":"no","fee":"","operator":"Universidad de Almería","nameSource":"street"},"sourceId":"osm"},{"id":"osm:node:6432453167","latitude":36.8291472,"longitude":-2.4064261,"name":"Calle Humberto López Morales cycle parking","properties":{"access":"yes","bicycle_pa":"stands","capacity":20,"covered":"yes","fee":"","operator":"Universidad de Almería","nameSource":"street"},"sourceId":"osm"},{"id":"osm:node:6432453168","latitude":36.8292257,"longitude":-2.4063435,"name":"Calle Humberto López Morales cycle parking","properties":{"access":"yes","bicycle_pa":"stands","capacity":10,"covered":"no","fee":"","operator":"Universidad de Almería","nameSource":"street"},"sourceId":"osm"},{"id":"osm:node:6432454513","latitude":36.8288407,"longitude":-2.4058508,"name":"Calle Humberto López Morales by Universidad de Almería","properties":{"access":"yes","bicycle_pa":"rack","capacity":5,"covered":"no","fee":"","operator":"Universidad de Almería","nameSource":"landmark"},"sourceId":"osm"},{"id":"osm:node:6432455171","latitude":36.8295205,"longitude":-2.4048537,"name":"Calle Rafael Escuredo near Calle Humberto López Morales","properties":{"access":"yes","bicycle_pa":"stands","capacity":20,"covered":"yes","fee":"","operator":"Universidad de Almería","nameSource":"junction"},"sourceId":"osm"},{"id":"osm:node:6432456408","latitude":36.8295049,"longitude":-2.4042443,"name":"Calle Rafael Escuredo near Calle Bernard Vincent","properties":{"access":"yes","bicycle_pa":"stands","capacity":10,"covered":"yes","fee":"","operator":"Universidad de Almería","nameSource":"junction"},"sourceId":"osm"},{"id":"osm:node:6432457761","latitude":36.8291961,"longitude":-2.4033667,"name":"Patio de los Naranjos cycle parking","properties":{"access":"yes","bicycle_pa":"stands","capacity":20,"covered":"no","fee":"","operator":"Universidad de Almería","nameSource":"street"},"sourceId":"osm"},{"id":"osm:node:6432459205","latitude":36.8290086,"longitude":-2.4037356,"name":"Patio de los Naranjos cycle parking","properties":{"access":"yes","bicycle_pa":"rack","capacity":10,"covered":"no","fee":"","operator":"Universidad de Almería","nameSource":"street"},"sourceId":"osm"},{"id":"osm:node:6432460221","latitude":36.8281775,"longitude":-2.404397,"name":"Calle Rafael Escuredo cycle parking","properties":{"access":"yes","bicycle_pa":"rack","capacity":30,"covered":"no","fee":"","operator":"Universidad de Almería","nameSource":"street"},"sourceId":"osm"},{"id":"osm:node:6432479087","latitude":36.8179651,"longitude":-2.4375662,"name":"Avenida Cabo de Gata by La Nevera Azul","properties":{"access":"yes","bicycle_pa":"stands","capacity":12,"covered":"no","fee":"","operator":"","nameSource":"landmark"},"sourceId":"osm"},{"id":"osm:node:6432479088","latitude":36.8176007,"longitude":-2.4371639,"name":"Paseo Marítimo near Paseo Marítimo Carmen de Burgos","properties":{"access":"yes","bicycle_pa":"rack","capacity":5,"covered":"no","fee":"","operator":"","nameSource":"junction"},"sourceId":"osm"},{"id":"osm:node:6432480191","latitude":36.8185845,"longitude":-2.4385717,"name":"Avenida Cabo de Gata near Calle Horacio Ferrer","properties":{"access":"yes","bicycle_pa":"stands","capacity":6,"covered":"no","fee":"","operator":"","nameSource":"junction"},"sourceId":"osm"},{"id":"osm:node:6432481961","latitude":36.8193667,"longitude":-2.4396822,"name":"Avenida Cabo de Gata near Calle Palos de la Frontera","properties":{"access":"yes","bicycle_pa":"stands","capacity":6,"covered":"no","fee":"","operator":"","nameSource":"junction"},"sourceId":"osm"},{"id":"osm:node:6432481963","latitude":36.819343,"longitude":-2.4396482,"name":"Avenida Cabo de Gata near Calle Palos de la Frontera","properties":{"access":"yes","bicycle_pa":"stands","capacity":6,"covered":"no","fee":"","operator":"","nameSource":"junction"},"sourceId":"osm"},{"id":"osm:node:6432483415","latitude":36.8203302,"longitude":-2.4410326,"name":"Avenida Cabo de Gata near Avenida Maestro Gaspar Vivas","properties":{"access":"yes","bicycle_pa":"stands","capacity":6,"covered":"no","fee":"","operator":"","nameSource":"junction"},"sourceId":"osm"},{"id":"osm:node:6432489285","latitude":36.821229,"longitude":-2.4422978,"name":"Avenida Cabo de Gata near Avenida Vega de Acá","properties":{"access":"yes","bicycle_pa":"stands","capacity":12,"covered":"no","fee":"","operator":"","nameSource":"junction"},"sourceId":"osm"},{"id":"osm:node:6432490535","latitude":36.8215172,"longitude":-2.4427043,"name":"Avenida Cabo de Gata by Moda Paseo","properties":{"access":"yes","bicycle_pa":"stands","capacity":14,"covered":"no","fee":"","operator":"","nameSource":"landmark"},"sourceId":"osm"},{"id":"osm:node:6433841906","latitude":36.8412609,"longitude":-2.4477166,"name":"Avenida del Mediterráneo near Calle Arcipreste de Hita","properties":{"access":"yes","bicycle_pa":"stands","capacity":8,"covered":"no","fee":"","operator":"","nameSource":"junction"},"sourceId":"osm"},{"id":"osm:node:6498680048","latitude":36.8316441,"longitude":-2.4533757,"name":"Plaza de España near Calle Lérida","properties":{"access":"yes","bicycle_pa":"rack","capacity":3,"covered":"no","fee":"","operator":"","nameSource":"junction"},"sourceId":"osm"},{"id":"osm:node:6576346918","latitude":36.8308501,"longitude":-2.457811,"name":"Playa de las Almadrabillas cycle parking","properties":{"access":"unknown","bicycle_pa":"stands","capacity":12,"covered":"no","fee":"no","operator":"","nameSource":"street"},"sourceId":"osm"},{"id":"osm:node:6593137329","latitude":36.8396813,"longitude":-2.4519499,"name":"Avenida Padre Méndez near Calle El Alcázar","properties":{"access":"unknown","bicycle_pa":"stands","capacity":8,"covered":"","fee":"","operator":"","nameSource":"junction"},"sourceId":"osm"},{"id":"osm:node:6593140687","latitude":36.8396688,"longitude":-2.4497104,"name":"Avenida Padre Méndez near Calle Poeta Vicente Aleixandre","properties":{"access":"unknown","bicycle_pa":"stands","capacity":12,"covered":"","fee":"","operator":"","nameSource":"junction"},"sourceId":"osm"},{"id":"osm:node:6593140750","latitude":36.8396757,"longitude":-2.4512991,"name":"Calle Poeta Blas Otero near Avenida Padre Méndez","properties":{"access":"unknown","bicycle_pa":"stands","capacity":8,"covered":"","fee":"","operator":"","nameSource":"junction"},"sourceId":"osm"},{"id":"osm:node:6603069426","latitude":36.8369908,"longitude":-2.4522102,"name":"Calle José Ortega y Gasset near Avenida Nuestra Señora de Montserrat","properties":{"access":"unknown","bicycle_pa":"stands","capacity":12,"covered":"","fee":"","operator":"","nameSource":"junction"},"sourceId":"osm"},{"id":"osm:node:6603076422","latitude":36.8376416,"longitude":-2.4481226,"name":"Avenida del Mediterráneo near Avenida Nuestra Señora de Montserrat","properties":{"access":"unknown","bicycle_pa":"rack","capacity":2,"covered":"","fee":"","operator":"","nameSource":"junction"},"sourceId":"osm"},{"id":"osm:node:6652823318","latitude":36.8341453,"longitude":-2.4574223,"name":"Carretera de Ronda near Calle Soldado Español","properties":{"access":"unknown","bicycle_pa":"stands","capacity":12,"covered":"","fee":"","operator":"","nameSource":"junction"},"sourceId":"osm"},{"id":"osm:node:6652823319","latitude":36.8348999,"longitude":-2.4551786,"name":"Carretera Sierra Alhamilla by Café Estación","properties":{"access":"customers","bicycle_pa":"wide_stands","capacity":10,"covered":"yes","fee":"","operator":"Consorcio de Transporte Metropolitano Área de Almería","nameSource":"landmark"},"sourceId":"osm"},{"id":"osm:node:6652823320","latitude":36.8338474,"longitude":-2.4589344,"name":"Carretera de Ronda near Calle José Artés de Arcos","properties":{"access":"unknown","bicycle_pa":"stands","capacity":12,"covered":"","fee":"","operator":"","nameSource":"junction"},"sourceId":"osm"},{"id":"osm:node:6652823321","latitude":36.8350402,"longitude":-2.4558067,"name":"Glorieta Manuel Fraga Iribarne near Carretera de Ronda","properties":{"access":"unknown","bicycle_pa":"stands","capacity":24,"covered":"","fee":"","operator":"","nameSource":"junction"},"sourceId":"osm"},{"id":"osm:node:6652823323","latitude":36.8342033,"longitude":-2.4580915,"name":"Carretera de Ronda near Calle Soldado Español","properties":{"access":"unknown","bicycle_pa":"stands","capacity":12,"covered":"","fee":"","operator":"","nameSource":"junction"},"sourceId":"osm"},{"id":"osm:node:6653133572","latitude":36.837202,"longitude":-2.4494522,"name":"Avenida Nuestra Señora de Montserrat near Calle Lope de Rueda","properties":{"access":"unknown","bicycle_pa":"stands","capacity":12,"covered":"","fee":"","operator":"","nameSource":"junction"},"sourceId":"osm"},{"id":"osm:node:6653133573","latitude":36.839944,"longitude":-2.44757,"name":"Avenida del Mediterráneo by 73. Avenida Mediterráneo II","properties":{"access":"unknown","bicycle_pa":"stands","capacity":8,"covered":"","fee":"","operator":"","nameSource":"landmark"},"sourceId":"osm"},{"id":"osm:node:6653133574","latitude":36.8373281,"longitude":-2.4489159,"name":"Avenida Nuestra Señora de Montserrat near Calle Lope de Rueda","properties":{"access":"unknown","bicycle_pa":"stands","capacity":12,"covered":"","fee":"","operator":"","nameSource":"junction"},"sourceId":"osm"},{"id":"osm:node:6653133575","latitude":36.8397246,"longitude":-2.4477212,"name":"Calle Padre Méndez near Calle Poeta Fernando Herrera","properties":{"access":"unknown","bicycle_pa":"stands","capacity":8,"covered":"","fee":"","operator":"","nameSource":"junction"},"sourceId":"osm"},{"id":"osm:node:6653133576","latitude":36.8376614,"longitude":-2.4478695,"name":"Avenida del Mediterráneo near Avenida Nuestra Señora de Montserrat","properties":{"access":"customers","bicycle_pa":"stands","capacity":4,"covered":"no","fee":"","operator":"","nameSource":"junction"},"sourceId":"osm"},{"id":"osm:node:6689124110","latitude":36.8619568,"longitude":-2.4448152,"name":"Calle Jacinto de la Trinidad near Carretera de Huércal de Almería","properties":{"access":"unknown","bicycle_pa":"stands","capacity":6,"covered":"","fee":"","operator":"","nameSource":"junction"},"sourceId":"osm"},{"id":"osm:node:6703255303","latitude":36.8234873,"longitude":-2.4438796,"name":"Plaza de Alfredo Kraus near Calle Argentinita","properties":{"access":"yes","bicycle_pa":"stands","capacity":12,"covered":"no","fee":"","operator":"","nameSource":"junction"},"sourceId":"osm"},{"id":"osm:node:6709871831","latitude":36.8609371,"longitude":-2.4349003,"name":"Centro Comercial Torrecárdenas cycle parking","properties":{"access":"unknown","bicycle_pa":"","capacity":20,"covered":"","fee":"","operator":"","nameSource":"landmark"},"sourceId":"osm"},{"id":"osm:node:6709871832","latitude":36.861094,"longitude":-2.4351413,"name":"Centro Comercial Torrecárdenas cycle parking","properties":{"access":"unknown","bicycle_pa":"wall_loops","capacity":20,"covered":"","fee":"","operator":"","nameSource":"landmark"},"sourceId":"osm"},{"id":"osm:node:6709871833","latitude":36.8604164,"longitude":-2.4358486,"name":"Calle Arquitecto Luis Pastor by Leroy Merlin","properties":{"access":"unknown","bicycle_pa":"","capacity":20,"covered":"","fee":"","operator":"","nameSource":"landmark"},"sourceId":"osm"},{"id":"osm:node:6709871834","latitude":36.8607596,"longitude":-2.4351586,"name":"Calle Ciudad de Buenos Aires cycle parking","properties":{"access":"unknown","bicycle_pa":"","capacity":20,"covered":"","fee":"","operator":"","nameSource":"street"},"sourceId":"osm"},{"id":"osm:node:6709871835","latitude":36.8609056,"longitude":-2.4348641,"name":"Calle Ciudad de Buenos Aires by Centro Comercial Torrecárdenas","properties":{"access":"unknown","bicycle_pa":"","capacity":20,"covered":"","fee":"","operator":"","nameSource":"landmark"},"sourceId":"osm"},{"id":"osm:node:6709871836","latitude":36.8603729,"longitude":-2.4358081,"name":"Calle Arquitecto Luis Pastor by Leroy Merlin","properties":{"access":"unknown","bicycle_pa":"","capacity":20,"covered":"","fee":"","operator":"","nameSource":"landmark"},"sourceId":"osm"},{"id":"osm:node:6723089862","latitude":36.8333347,"longitude":-2.4386068,"name":"Calle Ángel Gómez Fuentes near Calle Telemann","properties":{"access":"unknown","bicycle_pa":"stands","capacity":6,"covered":"","fee":"","operator":"","nameSource":"junction"},"sourceId":"osm"},{"id":"osm:node:6723107081","latitude":36.8236901,"longitude":-2.4399959,"name":"Avenida de la Vega de Acá near Calle María Casares","properties":{"access":"unknown","bicycle_pa":"stands","capacity":18,"covered":"","fee":"","operator":"","nameSource":"junction"},"sourceId":"osm"},{"id":"osm:node:6723120769","latitude":36.8281268,"longitude":-2.4373408,"name":"Avenida de la Vega de Acá cycle parking","properties":{"access":"unknown","bicycle_pa":"stands","capacity":16,"covered":"","fee":"","operator":"","nameSource":"street"},"sourceId":"osm"},{"id":"osm:node:6723128459","latitude":36.8228724,"longitude":-2.4404846,"name":"Avenida de la Vega de Acá near Camino del Bobar","properties":{"access":"unknown","bicycle_pa":"stands","capacity":18,"covered":"","fee":"","operator":"","nameSource":"junction"},"sourceId":"osm"},{"id":"osm:node:6817605886","latitude":36.8411569,"longitude":-2.4445532,"name":"Calle Emilio Campra Bonillo by Décimas","properties":{"access":"unknown","bicycle_pa":"stands","capacity":10,"covered":"","fee":"","operator":"","nameSource":"landmark"},"sourceId":"osm"},{"id":"osm:node:6831477630","latitude":36.8280213,"longitude":-2.4527344,"name":"Calle Conchas near Calle las Conchas","properties":{"access":"unknown","bicycle_pa":"stands","capacity":26,"covered":"no","fee":"","operator":"","nameSource":"junction"},"sourceId":"osm"},{"id":"osm:node:6831477631","latitude":36.828185,"longitude":-2.4531901,"name":"Calle Melilla near Travesía Melilla","properties":{"access":"yes","bicycle_pa":"stands","capacity":24,"covered":"no","fee":"no","operator":"","nameSource":"junction"},"sourceId":"osm"},{"id":"osm:node:6837112155","latitude":36.8413913,"longitude":-2.4582324,"name":"Calle Poeta Paco Aquino near Avenida Federico García Lorca","properties":{"access":"unknown","bicycle_pa":"stands","capacity":12,"covered":"","fee":"","operator":"","nameSource":"junction"},"sourceId":"osm"},{"id":"osm:node:6875228072","latitude":36.8431941,"longitude":-2.4352176,"name":"Carretera de Níjar near Calle Bayarque","properties":{"access":"unknown","bicycle_pa":"stands","capacity":8,"covered":"","fee":"","operator":"","nameSource":"junction"},"sourceId":"osm"},{"id":"osm:node:7124490236","latitude":36.8416801,"longitude":-2.4591229,"name":"Calle Santos Zárate near Avenida Federico García Lorca","properties":{"access":"unknown","bicycle_pa":"stands","capacity":4,"covered":"no","fee":"","operator":"","nameSource":"junction"},"sourceId":"osm"},{"id":"osm:node:7124490237","latitude":36.8416566,"longitude":-2.4590551,"name":"Calle Santos Zárate near Avenida Federico García Lorca","properties":{"access":"unknown","bicycle_pa":"stands","capacity":4,"covered":"no","fee":"","operator":"","nameSource":"junction"},"sourceId":"osm"},{"id":"osm:node:7197935063","latitude":36.8275212,"longitude":-2.4382267,"name":"Avenida de la Vega de Acá by Farmacia Vega de Acá","properties":{"access":"unknown","bicycle_pa":"stands","capacity":4,"covered":"yes","fee":"","operator":"","nameSource":"landmark"},"sourceId":"osm"},{"id":"osm:node:7237156714","latitude":36.8297427,"longitude":-2.4559631,"name":"Playa de las Almadrabillas near Calle San Miguel","properties":{"access":"unknown","bicycle_pa":"stands","capacity":12,"covered":"no","fee":"","operator":"","nameSource":"junction"},"sourceId":"osm"},{"id":"osm:node:7237156715","latitude":36.8239833,"longitude":-2.4450618,"name":"Avenida del Mediterráneo near Avenida Mediterraneo","properties":{"access":"unknown","bicycle_pa":"stands","capacity":20,"covered":"","fee":"","operator":"","nameSource":"junction"},"sourceId":"osm"},{"id":"osm:node:7237156716","latitude":36.8237984,"longitude":-2.4451611,"name":"Avenida Mediterraneo near Avenida del Mediterráneo","properties":{"access":"unknown","bicycle_pa":"stands","capacity":20,"covered":"","fee":"","operator":"","nameSource":"junction"},"sourceId":"osm"},{"id":"osm:node:7237183516","latitude":36.8271914,"longitude":-2.4515247,"name":"Calle Sorrento near Calle Capri","properties":{"access":"unknown","bicycle_pa":"stands","capacity":12,"covered":"no","fee":"","operator":"","nameSource":"junction"},"sourceId":"osm"},{"id":"osm:node:7237183517","latitude":36.8275367,"longitude":-2.4521437,"name":"Calle California near Calle Capri","properties":{"access":"unknown","bicycle_pa":"stands","capacity":24,"covered":"no","fee":"","operator":"","nameSource":"junction"},"sourceId":"osm"},{"id":"osm:node:7237183518","latitude":36.828665,"longitude":-2.454096,"name":"Calle García Cañas near Calle Cohete","properties":{"access":"unknown","bicycle_pa":"stands","capacity":12,"covered":"no","fee":"","operator":"","nameSource":"junction"},"sourceId":"osm"},{"id":"osm:node:7550031016","latitude":36.8611715,"longitude":-2.4353489,"name":"Centro Comercial Torrecárdenas cycle parking","properties":{"access":"unknown","bicycle_pa":"wall_loops","capacity":20,"covered":"","fee":"","operator":"","nameSource":"landmark"},"sourceId":"osm"},{"id":"osm:node:7554565910","latitude":36.8347579,"longitude":-2.446604,"name":"Avenida del Mediterráneo near Calle Las Alpujarras","properties":{"access":"unknown","bicycle_pa":"stands","capacity":16,"covered":"","fee":"","operator":"","nameSource":"junction"},"sourceId":"osm"},{"id":"osm:node:7567037587","latitude":36.8515744,"longitude":-2.448719,"name":"Calle Italia near Calle Siria","properties":{"access":"unknown","bicycle_pa":"stands","capacity":14,"covered":"","fee":"","operator":"","nameSource":"junction"},"sourceId":"osm"},{"id":"osm:node:7573420136","latitude":36.8234349,"longitude":-2.4456371,"name":"Paseo Marítimo Carmen de Burgos by Eolo","properties":{"access":"unknown","bicycle_pa":"stands","capacity":12,"covered":"no","fee":"","operator":"","nameSource":"landmark"},"sourceId":"osm"},{"id":"osm:node:7927545595","latitude":36.8479209,"longitude":-2.451651,"name":"Carretera de Ronda cycle parking","properties":{"access":"unknown","bicycle_pa":"stands","capacity":8,"covered":"","fee":"","operator":"","nameSource":"street"},"sourceId":"osm"},{"id":"osm:node:7944854906","latitude":36.8483337,"longitude":-2.4509131,"name":"Calle Haza de Acosta near Calle Mirlo","properties":{"access":"unknown","bicycle_pa":"rack","capacity":5,"covered":"","fee":"","operator":"","nameSource":"junction"},"sourceId":"osm"},{"id":"osm:node:7972984572","latitude":36.8170585,"longitude":-2.4359644,"name":"Avenida Cabo de Gata near Calle Portugal","properties":{"access":"customers","bicycle_pa":"rack","capacity":8,"covered":"","fee":"","operator":"","nameSource":"junction"},"sourceId":"osm"},{"id":"osm:node:8173547667","latitude":36.8441834,"longitude":-2.4578692,"name":"Avenida Federico García Lorca near Calle Rambla Amatisteros","properties":{"access":"unknown","bicycle_pa":"stands","capacity":12,"covered":"","fee":"","operator":"","nameSource":"junction"},"sourceId":"osm"},{"id":"osm:node:8173574655","latitude":36.8426513,"longitude":-2.4578626,"name":"Calle San Juan Bosco near Avenida Federico García Lorca","properties":{"access":"unknown","bicycle_pa":"stands","capacity":8,"covered":"","fee":"","operator":"","nameSource":"junction"},"sourceId":"osm"},{"id":"osm:node:8330132880","latitude":36.843397,"longitude":-2.4339962,"name":"Carretera del Ingenio near Carretera de Níjar","properties":{"access":"unknown","bicycle_pa":"stands","capacity":14,"covered":"","fee":"","operator":"","nameSource":"junction"},"sourceId":"osm"},{"id":"osm:node:8330132881","latitude":36.8444157,"longitude":-2.4331916,"name":"Avenida de la Tolerancia near Calle Mary Robinson","properties":{"access":"unknown","bicycle_pa":"stands","capacity":10,"covered":"","fee":"","operator":"","nameSource":"junction"},"sourceId":"osm"},{"id":"osm:node:8477316933","latitude":36.8597733,"longitude":-2.4398007,"name":"Avenida del Médico Francisco Pérez Company cycle parking","properties":{"access":"unknown","bicycle_pa":"wide_stands","capacity":8,"covered":"","fee":"","operator":"","nameSource":"street"},"sourceId":"osm"},{"id":"osm:node:8516399147","latitude":36.8426413,"longitude":-2.4575068,"name":"Avenida Federico García Lorca near Calle San Juan Bosco","properties":{"access":"unknown","bicycle_pa":"stands","capacity":12,"covered":"","fee":"","operator":"","nameSource":"junction"},"sourceId":"osm"},{"id":"osm:node:8516399148","latitude":36.8427232,"longitude":-2.4574982,"name":"Avenida Federico García Lorca near Calle San Juan Bosco","properties":{"access":"unknown","bicycle_pa":"stands","capacity":12,"covered":"","fee":"","operator":"","nameSource":"junction"},"sourceId":"osm"},{"id":"osm:node:8829130391","latitude":36.8377693,"longitude":-2.4383291,"name":"Calle Belladona cycle parking","properties":{"access":"unknown","bicycle_pa":"stands","capacity":16,"covered":"","fee":"","operator":"","nameSource":"street"},"sourceId":"osm"},{"id":"osm:node:9545457765","latitude":36.8528444,"longitude":-2.4504364,"name":"Calle Fresador near Calle la Pilarica","properties":{"access":"unknown","bicycle_pa":"stands","capacity":8,"covered":"","fee":"","operator":"","nameSource":"junction"},"sourceId":"osm"},{"id":"osm:node:9565725077","latitude":36.827265,"longitude":-2.4451092,"name":"Avenida del Mediterráneo near Avenida Adolfo Suárez","properties":{"access":"unknown","bicycle_pa":"stands","capacity":8,"covered":"no","fee":"","operator":"","nameSource":"junction"},"sourceId":"osm"},{"id":"osm:node:9585151286","latitude":36.8525265,"longitude":-2.4527738,"name":"Calle Nuestra Señora de Araceli near Calle Virgen de Montemayor","properties":{"access":"unknown","bicycle_pa":"stands","capacity":12,"covered":"","fee":"","operator":"","nameSource":"junction"},"sourceId":"osm"},{"id":"osm:node:965995507","latitude":36.8358254,"longitude":-2.4603245,"name":"Calle Hermanos Machado near Calle Rafael Alberti","properties":{"access":"unknown","bicycle_pa":"","capacity":14,"covered":"","fee":"","operator":"","nameSource":"junction"},"sourceId":"osm"},{"id":"osm:node:9949163298","latitude":36.863402,"longitude":-2.4411648,"name":"Calle Hermandad de los Donantes de Sangre cycle parking","properties":{"access":"unknown","bicycle_pa":"stands","capacity":10,"covered":"","fee":"","operator":"","nameSource":"street"},"sourceId":"osm"},{"id":"osm:way:592739790","latitude":36.84418302,"longitude":-2.45786236,"name":"Avenida Federico García Lorca near Calle Rambla Amatisteros","properties":{"access":"yes","bicycle_pa":"","capacity":0,"covered":"no","fee":"","operator":"","nameSource":"junction"},"sourceId":"osm"},{"id":"osm:way:592740364","latitude":36.841398600000005,"longitude":-2.4582329,"name":"Calle Poeta Paco Aquino near Avenida Federico García Lorca","properties":{"access":"yes","bicycle_pa":"","capacity":0,"covered":"no","fee":"","operator":"","nameSource":"junction"},"sourceId":"osm"},{"id":"osm:way:592744484","latitude":36.83878825,"longitude":-2.45246175,"name":"Calle Guadarrama near Calle Rafael Calatrava","properties":{"access":"yes","bicycle_pa":"","capacity":0,"covered":"no","fee":"","operator":"","nameSource":"junction"},"sourceId":"osm"}],"schemaVersion":2}
