{"key":"12/2077/1556","points":[{"id":"osm:node:11078441507","latitude":39.5861529,"longitude":2.6219588,"name":"Carrer de Castella-la Manxa near Carrer de Múrcia","properties":{"access":"unknown","bicycle_pa":"stands","capacity":4,"covered":"no","fee":"","operator":"","nameSource":"junction"},"sourceId":"osm"},{"id":"osm:node:1244674162","latitude":39.5869493,"longitude":2.6272433,"name":"Camí de la Vileta near Carrer d'Andalusia","properties":{"access":"yes","bicycle_pa":"","capacity":0,"covered":"no","fee":"","operator":"","nameSource":"junction"},"sourceId":"osm"},{"id":"osm:node:1282690032","latitude":39.5787567,"longitude":2.632418,"name":"Carrer de Vicenç Joan Rosselló near Carrer de Son Dameto","properties":{"access":"unknown","bicycle_pa":"stands","capacity":4,"covered":"no","fee":"no","operator":"Ajuntament de Palma","nameSource":"junction"},"sourceId":"osm"},{"id":"osm:node:13343018578","latitude":39.5997114,"longitude":2.6158688,"name":"Carrer de Maria Antonia Salvà near Carrer de Son Roqueta","properties":{"access":"yes","bicycle_pa":"stands","capacity":8,"covered":"no","fee":"","operator":"","nameSource":"junction"},"sourceId":"osm"},{"id":"osm:node:13774393619","latitude":39.6011917,"longitude":2.6164569,"name":"Carrer del Cap Enderrocat near Carrer del Cap Blanc","properties":{"access":"yes","bicycle_pa":"stands","capacity":4,"covered":"no","fee":"no","operator":"","nameSource":"junction"},"sourceId":"osm"},{"id":"osm:node:1527055174","latitude":39.5930335,"longitude":2.6168961,"name":"carrer del Ciri near Carrer d'Ancona","properties":{"access":"yes","bicycle_pa":"stands","capacity":0,"covered":"","fee":"no","operator":"","nameSource":"junction"},"sourceId":"osm"},{"id":"osm:node:2953961870","latitude":39.586746,"longitude":2.6278728,"name":"Camí de la Vileta near Carrer d'Andalusia","properties":{"access":"unknown","bicycle_pa":"stands","capacity":20,"covered":"no","fee":"","operator":"","nameSource":"junction"},"sourceId":"osm"},{"id":"osm:node:2953961871","latitude":39.5868115,"longitude":2.6279891,"name":"Camí de Son Moix near carrer de Fèlix Gili","properties":{"access":"unknown","bicycle_pa":"stands","capacity":18,"covered":"no","fee":"","operator":"","nameSource":"junction"},"sourceId":"osm"},{"id":"osm:node:4086373515","latitude":39.6354866,"longitude":2.631854,"name":"Passatge de Newton near Carrer d'Ada Byron","properties":{"access":"unknown","bicycle_pa":"rack","capacity":10,"covered":"no","fee":"","operator":"","nameSource":"junction"},"sourceId":"osm"},{"id":"osm:node:8910611384","latitude":39.5775207,"longitude":2.6335397,"name":"Carrer de la Llibertat near Carrer de Triana","properties":{"access":"unknown","bicycle_pa":"","capacity":0,"covered":"no","fee":"","operator":"","nameSource":"junction"},"sourceId":"osm"}],"schemaVersion":2}
