{"key":"12/2034/1334","points":[{"categories":["hire"],"id":"osm:node:11327982592","latitude":52.9797028,"longitude":-1.1472873,"name":"Lime","properties":{"fee":"yes","network":"Lime"},"sourceId":"osm"},{"categories":["hire"],"id":"osm:node:12949944799","latitude":52.9824944,"longitude":-1.1582394,"name":"Lime","properties":{"brand":"Lime","operator":"Lime","website":"https://www.li.me/en-gb/locations/nottingham"},"sourceId":"osm"},{"categories":["repair"],"id":"osm:node:2288513867","latitude":52.9754336,"longitude":-1.1888378,"name":"Halfords","properties":{"brand":"Halfords","serviceRepair":"yes","website":"https://www.halfords.com/locations/nham-nuthall-store/"},"sourceId":"osm"},{"categories":["shop"],"id":"osm:way:1075532350","latitude":52.97966178750001,"longitude":-1.15296255,"name":"Bikes Love You","properties":{"servicePump":"yes"},"sourceId":"osm"},{"categories":["shop"],"id":"osm:way:435061568","latitude":52.977481680000004,"longitude":-1.1670093,"name":"Specialized Concept Store","properties":{"brand":"Specialized","website":"https://www.specializedconceptstore.co.uk/nottingham-store"},"sourceId":"osm"}],"schemaVersion":2}
