{"key":"12/1844/1708","points":[{"id":"osm:node:13037617253","latitude":28.5871704,"longitude":-17.9094541,"name":"Avenida de la Cruz Roja near Calle José Guzmán Pérez y Pérez","properties":{"access":"yes","bicycle_pa":"stands","capacity":8,"covered":"no","fee":"no","operator":"","nameSource":"junction"},"sourceId":"osm"},{"id":"osm:node:13037617255","latitude":28.5870279,"longitude":-17.9093791,"name":"Avenida de la Cruz Roja near Calle José Guzmán Pérez y Pérez","properties":{"access":"yes","bicycle_pa":"stands","capacity":8,"covered":"no","fee":"no","operator":"","nameSource":"junction"},"sourceId":"osm"},{"id":"osm:node:13037617257","latitude":28.5872724,"longitude":-17.9095704,"name":"Avenida de la Cruz Roja near Calle José Guzmán Pérez y Pérez","properties":{"access":"yes","bicycle_pa":"stands","capacity":6,"covered":"no","fee":"no","operator":"","nameSource":"junction"},"sourceId":"osm"},{"id":"osm:node:13037617258","latitude":28.5870328,"longitude":-17.9094461,"name":"Avenida de la Cruz Roja near Calle José Guzmán Pérez y Pérez","properties":{"access":"yes","bicycle_pa":"stands","capacity":6,"covered":"no","fee":"no","operator":"","nameSource":"junction"},"sourceId":"osm"},{"id":"osm:node:13379093961","latitude":28.5863151,"longitude":-17.9101725,"name":"Paseo Barranco de los Hombres near Paseo Marítimo","properties":{"access":"yes","bicycle_pa":"wall_loops","capacity":5,"covered":"no","fee":"","operator":"","nameSource":"junction"},"sourceId":"osm"},{"id":"osm:node:8432503932","latitude":28.5729568,"longitude":-17.9009316,"name":"LP-213 cycle parking","properties":{"access":"yes","bicycle_pa":"wall_loops","capacity":5,"covered":"no","fee":"","operator":"","nameSource":"street"},"sourceId":"osm"}],"schemaVersion":2}
