{"key":"12/2031/1327","points":[{"categories":["shop","repair"],"id":"osm:node:12198817990","latitude":53.3831868,"longitude":-1.4743996,"name":"Fettle","properties":{"openingHours":"Tu-Fr 09:00-18:00; Sa 09:00-17:00","serviceRepair":"yes","website":"https://www.fettle.cc/workshops/sheffield"},"sourceId":"osm"},{"categories":["shop","repair","hire"],"id":"osm:node:12561434083","latitude":53.3783674,"longitude":-1.4735647,"name":"Russell's Bicycle Shed","properties":{"openingHours":"Mo-Fr 10:00-18:00","serviceRental":"yes","serviceRepair":"yes","website":"https://www.russellsbicycleshed.co.uk/"},"sourceId":"osm"},{"categories":["repair"],"id":"osm:node:13258937986","latitude":53.3812353,"longitude":-1.4832301,"name":"University of Sheffield","properties":{"openingHours":"24/7","operator":"University of Sheffield","servicePump":"yes","serviceTools":"no"},"sourceId":"osm"},{"categories":["repair"],"id":"osm:node:13328393604","latitude":53.3737595,"longitude":-1.4510214,"name":"Bicycle repair station","properties":{"servicePump":"yes"},"sourceId":"osm"},{"categories":["repair"],"id":"osm:node:13369874082","latitude":53.3817221,"longitude":-1.4781708,"name":"Bicycle repair station","properties":{"servicePump":"yes"},"sourceId":"osm"},{"categories":["shop","repair"],"id":"osm:node:13381684932","latitude":53.3755813,"longitude":-1.4725582,"name":"Fox Valley Bikes","properties":{"openingHours":"Mo-Sa 08:30-17:30","serviceRepair":"yes"},"sourceId":"osm"},{"categories":["shop"],"id":"osm:node:7981410627","latitude":53.3741868,"longitude":-1.4467802,"name":"J. F. Wilson Cycle Manufacturer","properties":{"openingHours":"Tu,Th,Sa 10:00-15:00","website":"https://wilsoncycles.co.uk/contact-us"},"sourceId":"osm"},{"categories":["repair"],"id":"osm:node:9075813383","latitude":53.3628249,"longitude":-1.477873,"name":"Bicycle repair station","properties":{"servicePump":"yes"},"sourceId":"osm"},{"categories":["shop","repair"],"id":"osm:way:1205080599","latitude":53.37760194444444,"longitude":-1.477701411111111,"name":"Veloroo","properties":{"openingHours":"Mo,Tu,Th,Fr 08:30-17:30; Sa 09:30-16:00","serviceRepair":"yes","website":"https://www.veloroo.co.uk/"},"sourceId":"osm"},{"categories":["shop","repair"],"id":"osm:way:135856445","latitude":53.357670757142856,"longitude":-1.4826020857142856,"name":"A.E. Butterworth","properties":{"openingHours":"Mo-We,Fr 09:45-17:30; Th 09:45-13:00; Sa 09:45-17:00","serviceRepair":"yes"},"sourceId":"osm"},{"categories":["repair"],"id":"osm:way:137552625","latitude":53.37006182000001,"longitude":-1.4749046749999999,"name":"Go Outdoors","properties":{"brand":"Go Outdoors","openingHours":"Mo-Fr 09:00-20:00; Sa 09:00-18:00; Su 10:30-16:30","serviceRepair":"yes","website":"https://www.gooutdoors.co.uk/stores/go-outdoors-sheffield"},"sourceId":"osm"},{"categories":["shop","repair"],"id":"osm:way:1454479164","latitude":53.35528308000001,"longitude":-1.46719848,"name":"Wobbly Wheel Cyclery","properties":{"openingHours":"Tu-Fr 08:30-17:30; Sa 09:00-13:00","servicePump":"yes","serviceRepair":"yes","website":"https://www.wobblywheelcyclery.com/"},"sourceId":"osm"},{"categories":["repair"],"id":"osm:way:16150561","latitude":53.374186341666665,"longitude":-1.4724902916666667,"name":"Decathlon","properties":{"brand":"Decathlon","openingHours":"Mo-Fr 09:00-20:00; Sa 09:00-19:00; Su 10:30-16:30","serviceRepair":"yes"},"sourceId":"osm"},{"categories":["repair"],"id":"osm:way:168542634","latitude":53.36507401111111,"longitude":-1.4700265999999997,"name":"Halfords","properties":{"brand":"Halfords","openingHours":"Mo-Fr 08:00-20:00; Sa 08:00-18:00; Su 10:00-17:00","serviceRepair":"yes","website":"https://www.halfords.com/locations/sheff-queens-store/"},"sourceId":"osm"},{"categories":["shop","repair"],"id":"osm:way:234587615","latitude":53.35216580000001,"longitude":-1.4874093428571429,"name":"Put Me Back on My Bike","properties":{"openingHours":"Mo,We-Fr 08:30-17:00; Tu 08:30-12:30; Sa 09:00-17:00","serviceRepair":"yes","website":"https://www.putmebackonmybike.co.uk/"},"sourceId":"osm"},{"categories":["shop","repair"],"id":"osm:way:93373499","latitude":53.365568485714284,"longitude":-1.4700683928571425,"name":"Giant","properties":{"brand":"Giant","openingHours":"Mo-Fr 09:30-18:00; Sa 09:30-17:30; Su 11:00-16:00; PH 10:00-16:00","servicePump":"yes","serviceRental":"no","serviceRepair":"yes","website":"https://www.giant-sheffield.co.uk/"},"sourceId":"osm"},{"categories":["shop","repair"],"id":"osm:way:93509108","latitude":53.3670497,"longitude":-1.4714166777777777,"name":"JE James","properties":{"openingHours":"Tu-Th 09:30-18:00; Mo 09:30-19:00; Sa 09:00-17:30; Su 11:00-16:00","servicePump":"yes","serviceRepair":"yes"},"sourceId":"osm"},{"categories":["shop","repair"],"id":"osm:way:93509138","latitude":53.36689927142858,"longitude":-1.4708301142857143,"name":"JE James e-Bike and Brompton Premier Store","properties":{"openingHours":"Mo-Sa 09:00-17:30; Su 11:00-16:00","servicePump":"yes","serviceRepair":"yes"},"sourceId":"osm"},{"categories":["shop","repair","hire"],"id":"osm:way:95252720","latitude":53.35821991,"longitude":-1.47171212,"name":"A Different Gear","properties":{"openingHours":"Mo-Fr 10:00-18:00; Sa 09:00-16:30","servicePump":"yes","serviceRental":"yes","serviceRepair":"yes","website":"https://www.adifferentgear.com/"},"sourceId":"osm"}],"schemaVersion":2}
