{"key":"12/2031/1335","points":[{"categories":["shop","repair"],"id":"osm:node:13200280700","latitude":52.9218901,"longitude":-1.4820776,"name":"Ayup Bikes","properties":{"openingHours":"Mo 10:00-16:00; We 10:00-16:00; Fr-Sa 10:00-16:00","serviceRepair":"yes"},"sourceId":"osm"},{"categories":["shop","repair"],"id":"osm:node:13765852864","latitude":52.9223805,"longitude":-1.476296,"name":"Ayup Bikes","properties":{"openingHours":"Sa 10:00-16:00; Su 11:00-15:00","serviceRepair":"yes"},"sourceId":"osm"},{"categories":["repair"],"id":"osm:node:5242567505","latitude":52.9243644,"longitude":-1.4762438,"name":"Bicycle repair station","properties":{},"sourceId":"osm"},{"categories":["shop"],"id":"osm:node:5424501872","latitude":52.9443484,"longitude":-1.4750543,"name":"Lovevelo","properties":{},"sourceId":"osm"},{"categories":["shop","repair"],"id":"osm:way:172706970","latitude":52.916736712500004,"longitude":-1.4143656875,"name":"Cyclo Monster","properties":{"openingHours":"Mo-Fr 09:30-17:30; Sa 09:30-17:00","serviceRepair":"yes"},"sourceId":"osm"},{"categories":["shop"],"id":"osm:way:59373861","latitude":52.924335953846146,"longitude":-1.4764503615384617,"name":"Bike Works","properties":{},"sourceId":"osm"}],"schemaVersion":2}
