{"key":"12/2031/1336","points":[{"categories":["shop"],"id":"osm:node:3114759878","latitude":52.9068138,"longitude":-1.4518789,"name":"London Road Cycles","properties":{},"sourceId":"osm"},{"categories":["repair"],"id":"osm:node:4868322991","latitude":52.896702,"longitude":-1.4280483,"name":"Bicycle repair station","properties":{"openingHours":"24/7","servicePump":"yes"},"sourceId":"osm"},{"categories":["shop"],"id":"osm:node:5876438300","latitude":52.892759,"longitude":-1.4419414,"name":"DD Cycles","properties":{},"sourceId":"osm"},{"categories":["shop"],"id":"osm:node:9694323617","latitude":52.8961236,"longitude":-1.4522425,"name":"Mercian Cycles","properties":{},"sourceId":"osm"},{"categories":["shop"],"id":"osm:way:117191903","latitude":52.902642820000004,"longitude":-1.4403914,"name":"Hawk Factory Cycle Outlet","properties":{},"sourceId":"osm"}],"schemaVersion":2}
