{"key":"12/1950/1506","points":[{"categories":["repair"],"id":"osm:node:11214245285","latitude":42.8910667,"longitude":-8.5431813,"name":"Bicycle repair station","properties":{"fee":"no","servicePump":"yes","serviceTools":"yes"},"sourceId":"osm"},{"categories":["repair"],"id":"osm:node:11214245286","latitude":42.8782526,"longitude":-8.5552918,"name":"Bicycle repair station","properties":{"fee":"no","servicePump":"yes","serviceTools":"yes"},"sourceId":"osm"},{"categories":["shop","repair"],"id":"osm:node:11407596052","latitude":42.887305,"longitude":-8.5255795,"name":"BikeOne","properties":{"openingHours":"Mo-Sa 10:00-14:00, Mo-Fr 16:30-20:00","serviceRepair":"yes"},"sourceId":"osm"},{"categories":["hire"],"id":"osm:node:11868609216","latitude":42.8914544,"longitude":-8.5454833,"name":"Facultade de Filoloxía","properties":{"fee":"no","network":"éBiCi","openingHours":"Mo-Su 08:00-21:30","operator":"Universidade de Santiago de Compostela"},"sourceId":"osm"},{"categories":["hire"],"id":"osm:node:11868609218","latitude":42.8829469,"longitude":-8.5468925,"name":"Facultade de Odontoloxía","properties":{"fee":"no","network":"éBiCi","openingHours":"Mo-Su 08:00-21:30","operator":"Universidade de Santiago de Compostela"},"sourceId":"osm"},{"categories":["repair"],"id":"osm:node:13761271503","latitude":42.8779469,"longitude":-8.5292195,"name":"Concello de Santiago","properties":{"fee":"no","openingHours":"24/7","operator":"Concello de Santiago","servicePump":"yes","serviceTools":"yes"},"sourceId":"osm"}],"schemaVersion":2}
