{"key":"12/1950/1507","points":[{"categories":["shop"],"id":"osm:node:11038036645","latitude":42.8716177,"longitude":-8.5442476,"name":"New Bikes Santiago","properties":{},"sourceId":"osm"},{"categories":["shop"],"id":"osm:node:11049081409","latitude":42.8627704,"longitude":-8.5417293,"name":"Mytopbike","properties":{"openingHours":"Mo-Fr 09:30-14:00,16:30-20:00"},"sourceId":"osm"},{"categories":["hire"],"id":"osm:node:11868609217","latitude":42.8750639,"longitude":-8.5534952,"name":"Biblioteca Concepción Arenal","properties":{"fee":"no","network":"éBiCi","openingHours":"Mo-Su 08:00-21:30","operator":"Universidade de Santiago de Compostela","website":"https://usc-mobile.discomon.eu/home"},"sourceId":"osm"},{"categories":["hire"],"id":"osm:node:11868609219","latitude":42.8687118,"longitude":-8.5659435,"name":"Hospital Clínico Universitario","properties":{"fee":"no","network":"éBiCi","openingHours":"Mo-Su 08:00-21:30","operator":"Universidade de Santiago de Compostela","website":"https://usc-mobile.discomon.eu/home"},"sourceId":"osm"},{"categories":["repair"],"id":"osm:node:13337164915","latitude":42.872748,"longitude":-8.5386274,"name":"Concello de Santiago","properties":{"fee":"no","openingHours":"24/7","operator":"Concello de Santiago","servicePump":"yes","serviceTools":"yes"},"sourceId":"osm"},{"categories":["repair"],"id":"osm:node:13873593539","latitude":42.8669898,"longitude":-8.5610088,"name":"Concello de Santiago","properties":{"fee":"no","openingHours":"24/7","operator":"Concello de Santiago","servicePump":"yes","serviceTools":"yes"},"sourceId":"osm"},{"categories":["repair"],"id":"osm:node:13949324357","latitude":42.8693792,"longitude":-8.5437983,"name":"Bicycle repair station","properties":{},"sourceId":"osm"},{"categories":["repair"],"id":"osm:node:13993305052","latitude":42.8453893,"longitude":-8.574168,"name":"Bicycle repair station","properties":{},"sourceId":"osm"},{"categories":["shop"],"id":"osm:node:5601851868","latitude":42.8755051,"longitude":-8.5408013,"name":"Rutas Bike","properties":{},"sourceId":"osm"},{"categories":["shop"],"id":"osm:node:6509056282","latitude":42.8643671,"longitude":-8.5559258,"name":"Bicicletas Oliveira","properties":{},"sourceId":"osm"},{"categories":["hire"],"id":"osm:node:8987518319","latitude":42.8740689,"longitude":-8.5441202,"name":"Tournride S.L.","properties":{"operator":"Tournride S.L.","website":"https://www.tournride.com/"},"sourceId":"osm"}],"schemaVersion":2}
