{"key":"12/1870/1719","points":[{"id":"osm:node:10220508994","latitude":27.7547612,"longitude":-15.5778282,"name":"Avenida de Tirajana cycle parking","properties":{"access":"unknown","bicycle_pa":"","capacity":0,"covered":"no","fee":"","operator":"","nameSource":"street"},"sourceId":"osm"},{"id":"osm:node:13724935975","latitude":27.7563349,"longitude":-15.6002831,"name":"Avenida Touroperador Thomson Holidays near Avenida Touroperador Intamu","properties":{"access":"unknown","bicycle_pa":"stands","capacity":8,"covered":"no","fee":"","operator":"","nameSource":"junction"},"sourceId":"osm"},{"id":"osm:node:6760611497","latitude":27.7592416,"longitude":-15.5863206,"name":"Avenida de Touroperador Neckermann cycle parking","properties":{"access":"unknown","bicycle_pa":"wall_loops","capacity":6,"covered":"no","fee":"","operator":"","nameSource":"street"},"sourceId":"osm"},{"id":"osm:node:6760611498","latitude":27.7539312,"longitude":-15.5688205,"name":"Calle Las Dunas by Tipsy Hammock","properties":{"access":"unknown","bicycle_pa":"","capacity":0,"covered":"","fee":"","operator":"","nameSource":"landmark"},"sourceId":"osm"},{"id":"osm:node:6760725764","latitude":27.7566742,"longitude":-15.5914682,"name":"HiperDino cycle parking","properties":{"access":"unknown","bicycle_pa":"","capacity":0,"covered":"","fee":"","operator":"","nameSource":"landmark"},"sourceId":"osm"},{"id":"osm:node:6760725827","latitude":27.7455044,"longitude":-15.5764487,"name":"red path by Helamore","properties":{"access":"unknown","bicycle_pa":"wall_loops","capacity":0,"covered":"no","fee":"","operator":"","nameSource":"landmark"},"sourceId":"osm"},{"id":"osm:node:6760725922","latitude":27.7567386,"longitude":-15.5821667,"name":"Calle Canada near Plaza La Gomera","properties":{"access":"unknown","bicycle_pa":"stands","capacity":10,"covered":"no","fee":"","operator":"","nameSource":"junction"},"sourceId":"osm"},{"id":"osm:node:6760725988","latitude":27.7351636,"longitude":-15.5991726,"name":"Plaza del Faro near Paseo de las Meloneras","properties":{"access":"unknown","bicycle_pa":"wall_loops","capacity":6,"covered":"no","fee":"no","operator":"","nameSource":"junction"},"sourceId":"osm"},{"id":"osm:node:6760725990","latitude":27.7469779,"longitude":-15.5767468,"name":"Plaza Fuerteventura near Avenida de Gran Canaria","properties":{"access":"unknown","bicycle_pa":"","capacity":0,"covered":"","fee":"","operator":"","nameSource":"junction"},"sourceId":"osm"},{"id":"osm:node:8905156332","latitude":27.7360944,"longitude":-15.5955823,"name":"Paseo Charca Maspalomas cycle parking","properties":{"access":"unknown","bicycle_pa":"wall_loops","capacity":6,"covered":"no","fee":"","operator":"","nameSource":"street"},"sourceId":"osm"},{"id":"osm:node:8908178601","latitude":27.7452567,"longitude":-15.611356,"name":"Paseo de las Meloneras by Bellagio","properties":{"access":"unknown","bicycle_pa":"wall_loops","capacity":0,"covered":"no","fee":"","operator":"","nameSource":"landmark"},"sourceId":"osm"}],"schemaVersion":2}
