{"key":"12/2040/1317","points":[{"id":"osm:node:11045420167","latitude":53.8644428,"longitude":-0.6665715,"name":"High Street near Market Place","properties":{"access":"unknown","bicycle_pa":"loops","capacity":1,"covered":"no","fee":"","operator":"","nameSource":"junction"},"sourceId":"osm"},{"id":"osm:node:4964341226","latitude":53.8651058,"longitude":-0.6684707,"name":"Market Place near Holme Road","properties":{"access":"unknown","bicycle_pa":"stands","capacity":4,"covered":"no","fee":"","operator":"","nameSource":"junction"},"sourceId":"osm"},{"id":"osm:node:4964341233","latitude":53.8641608,"longitude":-0.6657515,"name":"High Street near Slater Court","properties":{"access":"unknown","bicycle_pa":"stands","capacity":4,"covered":"no","fee":"","operator":"","nameSource":"junction"},"sourceId":"osm"},{"id":"osm:node:4964341241","latitude":53.8648812,"longitude":-0.6681623,"name":"Holme Road near Market Place","properties":{"access":"unknown","bicycle_pa":"stands","capacity":6,"covered":"no","fee":"","operator":"","nameSource":"junction"},"sourceId":"osm"},{"id":"osm:node:4964341250","latitude":53.8649144,"longitude":-0.6678297,"name":"Londesborough Road near Market Place","properties":{"access":"unknown","bicycle_pa":"stands","capacity":4,"covered":"no","fee":"","operator":"","nameSource":"junction"},"sourceId":"osm"},{"id":"osm:node:5618659080","latitude":53.8746534,"longitude":-0.7015292,"name":"York Road cycle parking","properties":{"access":"unknown","bicycle_pa":"stands","capacity":12,"covered":"no","fee":"","operator":"","nameSource":"street"},"sourceId":"osm"},{"id":"osm:node:6219246416","latitude":53.8646522,"longitude":-0.674638,"name":"Medforth Street near Carpenter Close","properties":{"access":"unknown","bicycle_pa":"","capacity":0,"covered":"","fee":"","operator":"","nameSource":"junction"},"sourceId":"osm"},{"id":"osm:node:6260597855","latitude":53.8652776,"longitude":-0.6688317,"name":"York Road near Market Place","properties":{"access":"unknown","bicycle_pa":"stands","capacity":2,"covered":"no","fee":"","operator":"","nameSource":"junction"},"sourceId":"osm"},{"id":"osm:node:6260597869","latitude":53.8653147,"longitude":-0.6688867,"name":"York Road near Market Place","properties":{"access":"unknown","bicycle_pa":"stands","capacity":2,"covered":"no","fee":"","operator":"","nameSource":"junction"},"sourceId":"osm"},{"id":"osm:node:6260597871","latitude":53.8652048,"longitude":-0.6687164,"name":"Market Place near York Road","properties":{"access":"unknown","bicycle_pa":"stands","capacity":2,"covered":"no","fee":"","operator":"","nameSource":"junction"},"sourceId":"osm"}],"schemaVersion":2}
