{"key":"12/2040/1329","points":[{"id":"osm:node:192709159","latitude":53.2324804,"longitude":-0.6631812,"name":"Doddington cycle parking","properties":{"access":"unknown","bicycle_pa":"stands","capacity":0,"covered":"","fee":"","operator":"","nameSource":"place"},"sourceId":"osm"},{"id":"osm:node:5310297245","latitude":53.2325004,"longitude":-0.6654654,"name":"Doddington cycle parking","properties":{"access":"unknown","bicycle_pa":"stands","capacity":0,"covered":"","fee":"","operator":"","nameSource":"place"},"sourceId":"osm"},{"id":"osm:node:5310297246","latitude":53.2325008,"longitude":-0.6654238,"name":"Doddington cycle parking","properties":{"access":"unknown","bicycle_pa":"stands","capacity":0,"covered":"","fee":"","operator":"","nameSource":"place"},"sourceId":"osm"},{"id":"osm:node:5310297250","latitude":53.2324804,"longitude":-0.6631453,"name":"Doddington cycle parking","properties":{"access":"unknown","bicycle_pa":"stands","capacity":0,"covered":"","fee":"","operator":"","nameSource":"place"},"sourceId":"osm"},{"id":"osm:node:5310319499","latitude":53.2325409,"longitude":-0.6680712,"name":"Five Lane Ends cycle parking","properties":{"access":"unknown","bicycle_pa":"stands","capacity":0,"covered":"","fee":"","operator":"","nameSource":"place"},"sourceId":"osm"},{"id":"osm:node:5310319500","latitude":53.2325409,"longitude":-0.6680202,"name":"Five Lane Ends cycle parking","properties":{"access":"unknown","bicycle_pa":"stands","capacity":0,"covered":"","fee":"","operator":"","nameSource":"place"},"sourceId":"osm"},{"id":"osm:node:704587748","latitude":53.2670935,"longitude":-0.6638485,"name":"Station Approach cycle parking","properties":{"access":"unknown","bicycle_pa":"","capacity":0,"covered":"","fee":"","operator":"","nameSource":"street"},"sourceId":"osm"}],"schemaVersion":2}
