{"key":"12/2040/1352","points":[{"id":"osm:node:12387856323","latitude":52.022687,"longitude":-0.6890704,"name":"Fyfield Barrow by Walnut Tree Community Shop","properties":{"access":"permissive","bicycle_pa":"ring","capacity":2,"covered":"yes","fee":"no","operator":"","nameSource":"landmark"},"sourceId":"osm"},{"id":"osm:node:12394057219","latitude":52.0389509,"longitude":-0.6899107,"name":"Greyfriars Court cycle parking","properties":{"access":"customers","bicycle_pa":"hoop","capacity":4,"covered":"no","fee":"no","operator":"","nameSource":"street"},"sourceId":"osm"},{"id":"osm:node:12394077735","latitude":52.035755,"longitude":-0.6865616,"name":"Winchester Circle cycle parking","properties":{"access":"permissive","bicycle_pa":"rack","capacity":6,"covered":"no","fee":"no","operator":"","nameSource":"street"},"sourceId":"osm"},{"id":"osm:node:12394089525","latitude":52.0380398,"longitude":-0.6887861,"name":"Mandeville Drive near Newmarket Court","properties":{"access":"permissive","bicycle_pa":"hoops_on_benches","capacity":8,"covered":"no","fee":"no","operator":"","nameSource":"junction"},"sourceId":"osm"},{"id":"osm:node:12394091418","latitude":52.0360049,"longitude":-0.68785,"name":"Clarks cycle parking","properties":{"access":"permissive","bicycle_pa":"rack","capacity":6,"covered":"no","fee":"no","operator":"","nameSource":"landmark"},"sourceId":"osm"},{"id":"osm:node:12459345345","latitude":52.0146704,"longitude":-0.6917704,"name":"Bourton Low cycle parking","properties":{"access":"private","bicycle_pa":"hoop","capacity":8,"covered":"yes","fee":"no","operator":"","nameSource":"street"},"sourceId":"osm"},{"id":"osm:node:12539068873","latitude":52.0230141,"longitude":-0.6891079,"name":"Candlewicks by Milton Keynes Vetinerary Group","properties":{"access":"yes","bicycle_pa":"stands","capacity":6,"covered":"no","fee":"no","operator":"","nameSource":"landmark"},"sourceId":"osm"},{"id":"osm:node:1685999720","latitude":52.0221801,"longitude":-0.6907836,"name":"Blackberry Court by Walnut Tree Health Centre","properties":{"access":"yes","bicycle_pa":"hoop","capacity":2,"covered":"no","fee":"no","operator":"","nameSource":"landmark"},"sourceId":"osm"},{"id":"osm:node:2337695112","latitude":52.0388925,"longitude":-0.6876096,"name":"Big Rock Climbing Bike","properties":{"access":"unknown","bicycle_pa":"stands","capacity":8,"covered":"yes","fee":"","operator":"","nameSource":"source"},"sourceId":"osm"},{"id":"osm:node:6241997156","latitude":52.0346591,"longitude":-0.6896411,"name":"Winchester Circle by Caffè Nero","properties":{"access":"unknown","bicycle_pa":"","capacity":8,"covered":"no","fee":"","operator":"","nameSource":"landmark"},"sourceId":"osm"},{"id":"osm:node:6241997157","latitude":52.0359199,"longitude":-0.6877968,"name":"Clarks cycle parking","properties":{"access":"unknown","bicycle_pa":"stands","capacity":9,"covered":"no","fee":"","operator":"","nameSource":"landmark"},"sourceId":"osm"},{"id":"osm:node:6241997158","latitude":52.0362621,"longitude":-0.6878558,"name":"KOKORO cycle parking","properties":{"access":"unknown","bicycle_pa":"stands","capacity":6,"covered":"","fee":"","operator":"","nameSource":"landmark"},"sourceId":"osm"},{"id":"osm:node:8596984698","latitude":52.0479503,"longitude":-0.6885874,"name":"Bluebell Gardens cycle parking","properties":{"access":"unknown","bicycle_pa":"building","capacity":0,"covered":"","fee":"","operator":"","nameSource":"street"},"sourceId":"osm"},{"id":"osm:way:1089979164","latitude":52.03682818,"longitude":-0.66901968,"name":"Magna Park cycle parking","properties":{"access":"unknown","bicycle_pa":"","capacity":0,"covered":"yes","fee":"","operator":"","nameSource":"place"},"sourceId":"osm"}],"schemaVersion":2}
