{"key":"12/2040/1354","points":[{"id":"osm:node:10000405484","latitude":51.9132556,"longitude":-0.6614606,"name":"Grove Road by Cafe in the Park","properties":{"access":"unknown","bicycle_pa":"stands","capacity":10,"covered":"no","fee":"no","operator":"","nameSource":"landmark"},"sourceId":"osm"},{"id":"osm:node:10195261112","latitude":51.9085116,"longitude":-0.6743483,"name":"Mentmore Road by Cedars Upper School","properties":{"access":"unknown","bicycle_pa":"stands","capacity":16,"covered":"yes","fee":"","operator":"","nameSource":"landmark"},"sourceId":"osm"},{"id":"osm:node:10195261113","latitude":51.9085817,"longitude":-0.6743546,"name":"Mentmore Road by Cedars Upper School","properties":{"access":"unknown","bicycle_pa":"stands","capacity":20,"covered":"no","fee":"","operator":"","nameSource":"landmark"},"sourceId":"osm"},{"id":"osm:node:10218694077","latitude":51.9129177,"longitude":-0.6730128,"name":"Mentmore Road cycle parking","properties":{"access":"unknown","bicycle_pa":"stands","capacity":6,"covered":"no","fee":"","operator":"","nameSource":"street"},"sourceId":"osm"},{"id":"osm:node:10226883981","latitude":51.9040452,"longitude":-0.6510769,"name":"Trivia Close near Theedway","properties":{"access":"unknown","bicycle_pa":"staple","capacity":3,"covered":"","fee":"","operator":"","nameSource":"junction"},"sourceId":"osm"},{"id":"osm:node:10839404721","latitude":51.9164269,"longitude":-0.6616029,"name":"Market Square near High Street","properties":{"access":"yes","bicycle_pa":"post_hoop","capacity":4,"covered":"no","fee":"no","operator":"","nameSource":"junction"},"sourceId":"osm"},{"id":"osm:node:1357024167","latitude":51.9164105,"longitude":-0.6613235,"name":"Market Square near High Street","properties":{"access":"unknown","bicycle_pa":"stands","capacity":7,"covered":"no","fee":"no","operator":"","nameSource":"junction"},"sourceId":"osm"},{"id":"osm:node:3665077449","latitude":51.9084546,"longitude":-0.6520401,"name":"Billington Road near Eden Way","properties":{"access":"unknown","bicycle_pa":"stands","capacity":4,"covered":"","fee":"","operator":"","nameSource":"junction"},"sourceId":"osm"},{"id":"osm:node:4584276933","latitude":51.9165897,"longitude":-0.6609711,"name":"Hockliffe Street near Market Square","properties":{"access":"unknown","bicycle_pa":"stands","capacity":0,"covered":"","fee":"","operator":"","nameSource":"junction"},"sourceId":"osm"},{"id":"osm:node:4584276934","latitude":51.9165861,"longitude":-0.6609844,"name":"Hockliffe Street near Market Square","properties":{"access":"unknown","bicycle_pa":"stands","capacity":0,"covered":"","fee":"","operator":"","nameSource":"junction"},"sourceId":"osm"},{"id":"osm:node:4584276935","latitude":51.9165826,"longitude":-0.6609976,"name":"Hockliffe Street near Market Square","properties":{"access":"unknown","bicycle_pa":"stands","capacity":0,"covered":"","fee":"","operator":"","nameSource":"junction"},"sourceId":"osm"},{"id":"osm:node:5210391914","latitude":51.9159833,"longitude":-0.6770932,"name":"South Footbridge by Giardino 14","properties":{"access":"unknown","bicycle_pa":"rack","capacity":116,"covered":"yes","fee":"","operator":"","nameSource":"landmark"},"sourceId":"osm"},{"id":"osm:node:6478048128","latitude":51.9237102,"longitude":-0.6819892,"name":"Alwins Field cycle parking","properties":{"access":"unknown","bicycle_pa":"stands","capacity":3,"covered":"no","fee":"no","operator":"","nameSource":"street"},"sourceId":"osm"},{"id":"osm:node:6977839956","latitude":51.9159622,"longitude":-0.664389,"name":"High Street near Bridge Street","properties":{"access":"unknown","bicycle_pa":"stands","capacity":8,"covered":"no","fee":"no","operator":"","nameSource":"junction"},"sourceId":"osm"},{"id":"osm:node:9025833744","latitude":51.9159289,"longitude":-0.6594523,"name":"Leighton Buzzard Library","properties":{"access":"unknown","bicycle_pa":"","capacity":0,"covered":"","fee":"","operator":"","nameSource":"source"},"sourceId":"osm"},{"id":"osm:node:9915537003","latitude":51.9296064,"longitude":-0.6581195,"name":"Chamberlains Gardens near Heath Road","properties":{"access":"unknown","bicycle_pa":"stands","capacity":4,"covered":"no","fee":"","operator":"","nameSource":"junction"},"sourceId":"osm"},{"id":"osm:node:9948900747","latitude":51.9061309,"longitude":-0.6395016,"name":"Heron Road by Astral Park Sports & Community Centre","properties":{"access":"unknown","bicycle_pa":"stands","capacity":8,"covered":"no","fee":"no","operator":"","nameSource":"landmark"},"sourceId":"osm"},{"id":"osm:node:9962533791","latitude":51.9108193,"longitude":-0.6295844,"name":"Leighton Road cycle parking","properties":{"access":"unknown","bicycle_pa":"stands","capacity":10,"covered":"yes","fee":"","operator":"","nameSource":"street"},"sourceId":"osm"},{"id":"osm:node:9962533792","latitude":51.9116484,"longitude":-0.6299661,"name":"Leighton Road cycle parking","properties":{"access":"unknown","bicycle_pa":"stands","capacity":6,"covered":"yes","fee":"","operator":"","nameSource":"street"},"sourceId":"osm"},{"id":"osm:node:9962533793","latitude":51.9117111,"longitude":-0.6287253,"name":"Fraserfields Way cycle parking","properties":{"access":"unknown","bicycle_pa":"stands","capacity":6,"covered":"no","fee":"","operator":"","nameSource":"street"},"sourceId":"osm"},{"id":"osm:way:1085816779","latitude":51.91603268,"longitude":-0.67705772,"name":"South Footbridge by Giardino 14","properties":{"access":"unknown","bicycle_pa":"stands","capacity":56,"covered":"yes","fee":"no","operator":"","nameSource":"landmark"},"sourceId":"osm"},{"id":"osm:way:1085816780","latitude":51.91601842,"longitude":-0.6768557199999999,"name":"Station Approach by Giardino 14","properties":{"access":"unknown","bicycle_pa":"stands","capacity":12,"covered":"yes","fee":"no","operator":"","nameSource":"landmark"},"sourceId":"osm"},{"id":"osm:way:1085816781","latitude":51.9160596,"longitude":-0.67677148,"name":"Station Approach by Giardino 14","properties":{"access":"unknown","bicycle_pa":"stands","capacity":16,"covered":"yes","fee":"no","operator":"","nameSource":"landmark"},"sourceId":"osm"},{"id":"osm:way:1085816782","latitude":51.91608527999999,"longitude":-0.6770415,"name":"Station Approach by Giardino 14","properties":{"access":"unknown","bicycle_pa":"two-tier","capacity":64,"covered":"yes","fee":"no","operator":"","nameSource":"landmark"},"sourceId":"osm"},{"id":"osm:way:1418135342","latitude":51.91571924,"longitude":-0.6472232000000001,"name":"Brooklands Drive near Waterdell","properties":{"access":"unknown","bicycle_pa":"","capacity":0,"covered":"","fee":"","operator":"","nameSource":"junction"},"sourceId":"osm"}],"schemaVersion":2}
