{"key":"12/2040/1364","points":[{"id":"osm:node:12705095054","latitude":51.3921247,"longitude":-0.6334418,"name":"Cedar Drive by Sunningdale","properties":{"access":"unknown","bicycle_pa":"shed","capacity":26,"covered":"yes","fee":"no","operator":"South Western Railway","nameSource":"landmark"},"sourceId":"osm"},{"id":"osm:node:6022103193","latitude":51.3644594,"longitude":-0.6885527,"name":"Station Road near Lory Ridge","properties":{"access":"unknown","bicycle_pa":"stands","capacity":0,"covered":"no","fee":"","operator":"","nameSource":"junction"},"sourceId":"osm"},{"id":"osm:node:6025287085","latitude":51.3623395,"longitude":-0.6905254,"name":"Townpath from Bridge Road to Wardle Close near Wardle Close","properties":{"access":"unknown","bicycle_pa":"stands","capacity":0,"covered":"no","fee":"","operator":"","nameSource":"junction"},"sourceId":"osm"},{"id":"osm:node:6523510421","latitude":51.3547234,"longitude":-0.6995469,"name":"London Road cycle parking","properties":{"access":"unknown","bicycle_pa":"","capacity":0,"covered":"","fee":"","operator":"","nameSource":"street"},"sourceId":"osm"},{"id":"osm:node:8715219756","latitude":51.3923528,"longitude":-0.6273957,"name":"Chobham Road near Halfpenny Lane","properties":{"access":"unknown","bicycle_pa":"stands","capacity":8,"covered":"no","fee":"","operator":"","nameSource":"junction"},"sourceId":"osm"}],"schemaVersion":2}
