{"key":"12/2040/1365","points":[{"id":"osm:node:4449931697","latitude":51.3174903,"longitude":-0.6221042,"name":"Sussex Road near High Street","properties":{"access":"permissive","bicycle_pa":"stands","capacity":4,"covered":"no","fee":"","operator":"","nameSource":"junction"},"sourceId":"osm"},{"id":"osm:node:476754976","latitude":51.3144189,"longitude":-0.6152593,"name":"Cubitt Way by Cygnet Hospital","properties":{"access":"unknown","bicycle_pa":"stands","capacity":10,"covered":"partial","fee":"","operator":"","nameSource":"landmark"},"sourceId":"osm"},{"id":"osm:node:5825352565","latitude":51.303665,"longitude":-0.6362098,"name":"Pine Avenue by Brookwood","properties":{"access":"unknown","bicycle_pa":"stands","capacity":6,"covered":"yes","fee":"","operator":"","nameSource":"landmark"},"sourceId":"osm"},{"id":"osm:node:5825352566","latitude":51.3036059,"longitude":-0.6371528,"name":"Elphinstone Close cycle parking","properties":{"access":"unknown","bicycle_pa":"stands","capacity":34,"covered":"no","fee":"","operator":"","nameSource":"street"},"sourceId":"osm"},{"id":"osm:node:5825353855","latitude":51.3040058,"longitude":-0.6356714,"name":"Connaught Road near Sheets Heath Lane","properties":{"access":"unknown","bicycle_pa":"stands","capacity":20,"covered":"yes","fee":"","operator":"","nameSource":"junction"},"sourceId":"osm"},{"id":"osm:node:5825353856","latitude":51.30366,"longitude":-0.6362878,"name":"Pine Avenue by Brookwood","properties":{"access":"unknown","bicycle_pa":"stands","capacity":58,"covered":"no","fee":"","operator":"","nameSource":"landmark"},"sourceId":"osm"},{"id":"osm:node:5825354917","latitude":51.3037202,"longitude":-0.6353095,"name":"Pine Avenue cycle parking","properties":{"access":"unknown","bicycle_pa":"stands","capacity":28,"covered":"no","fee":"","operator":"","nameSource":"street"},"sourceId":"osm"},{"id":"osm:node:5825355353","latitude":51.3037107,"longitude":-0.6354543,"name":"Pine Avenue by Brookwood","properties":{"access":"unknown","bicycle_pa":"stands","capacity":40,"covered":"no","fee":"","operator":"","nameSource":"landmark"},"sourceId":"osm"},{"id":"osm:node:5825355354","latitude":51.3037011,"longitude":-0.6356203,"name":"Pine Avenue by Brookwood","properties":{"access":"unknown","bicycle_pa":"stands","capacity":10,"covered":"yes","fee":"","operator":"","nameSource":"landmark"},"sourceId":"osm"},{"id":"osm:node:8935808867","latitude":51.3059145,"longitude":-0.6660977,"name":"Cow Moor cycle parking","properties":{"access":"unknown","bicycle_pa":"ground_slots","capacity":0,"covered":"","fee":"","operator":"","nameSource":"place"},"sourceId":"osm"},{"id":"osm:node:9441033358","latitude":51.3092972,"longitude":-0.7004191,"name":"Mindenhurst Road near The Royal Way","properties":{"access":"unknown","bicycle_pa":"","capacity":0,"covered":"","fee":"","operator":"","nameSource":"junction"},"sourceId":"osm"},{"id":"osm:way:616118379","latitude":51.3037298,"longitude":-0.63630464,"name":"Pine Avenue by Brookwood","properties":{"access":"unknown","bicycle_pa":"rack","capacity":0,"covered":"yes","fee":"","operator":"","nameSource":"landmark"},"sourceId":"osm"}],"schemaVersion":2}
