{"key":"12/2040/1374","points":[{"id":"osm:node:12673247499","latitude":50.7948146,"longitude":-0.6169872,"name":"Elmer Road near Harefield Road","properties":{"access":"unknown","bicycle_pa":"stands","capacity":6,"covered":"no","fee":"","operator":"","nameSource":"junction"},"sourceId":"osm"},{"id":"osm:node:12723105364","latitude":50.7941227,"longitude":-0.6581108,"name":"Arun Leisure Centre cycle parking","properties":{"access":"unknown","bicycle_pa":"stands","capacity":0,"covered":"no","fee":"","operator":"","nameSource":"landmark"},"sourceId":"osm"},{"id":"osm:node:12723126971","latitude":50.7941879,"longitude":-0.6581012,"name":"Arun Leisure Centre cycle parking","properties":{"access":"unknown","bicycle_pa":"stands","capacity":6,"covered":"no","fee":"","operator":"","nameSource":"landmark"},"sourceId":"osm"},{"id":"osm:node:12723142525","latitude":50.7941227,"longitude":-0.6581108,"name":"Arun Leisure Centre cycle parking","properties":{"access":"unknown","bicycle_pa":"stands","capacity":10,"covered":"no","fee":"","operator":"","nameSource":"landmark"},"sourceId":"osm"},{"id":"osm:node:12723144534","latitude":50.7940703,"longitude":-0.6581141,"name":"Arun Leisure Centre cycle parking","properties":{"access":"unknown","bicycle_pa":"stands","capacity":4,"covered":"no","fee":"","operator":"","nameSource":"landmark"},"sourceId":"osm"},{"id":"osm:node:12828096913","latitude":50.8317129,"longitude":-0.640808,"name":"Barnham Road near The Square","properties":{"access":"unknown","bicycle_pa":"stands","capacity":6,"covered":"no","fee":"","operator":"","nameSource":"junction"},"sourceId":"osm"},{"id":"osm:node:13500814836","latitude":50.8065838,"longitude":-0.6645689,"name":"Lidl cycle parking","properties":{"access":"unknown","bicycle_pa":"stands","capacity":14,"covered":"no","fee":"","operator":"","nameSource":"landmark"},"sourceId":"osm"},{"id":"osm:node:13708691247","latitude":50.7969236,"longitude":-0.6903617,"name":"Chichester Road near Central Avenue","properties":{"access":"unknown","bicycle_pa":"stands","capacity":6,"covered":"no","fee":"","operator":"","nameSource":"junction"},"sourceId":"osm"},{"id":"osm:node:427922689","latitude":50.7942604,"longitude":-0.6233107,"name":"Middleton Road near The Byway","properties":{"access":"unknown","bicycle_pa":"stands","capacity":4,"covered":"no","fee":"","operator":"","nameSource":"junction"},"sourceId":"osm"},{"id":"osm:node:4985496728","latitude":50.8035513,"longitude":-0.668238,"name":"Rowan Way by Halfords","properties":{"access":"unknown","bicycle_pa":"","capacity":0,"covered":"","fee":"","operator":"","nameSource":"landmark"},"sourceId":"osm"},{"id":"osm:node:5022418858","latitude":50.793993,"longitude":-0.6380585,"name":"Felpham Way near Flansham Lane","properties":{"access":"unknown","bicycle_pa":"stands","capacity":3,"covered":"no","fee":"","operator":"","nameSource":"junction"},"sourceId":"osm"},{"id":"osm:node:5101606947","latitude":50.8033039,"longitude":-0.6917052,"name":"Kelmscott Way near Lethaby Road","properties":{"access":"unknown","bicycle_pa":"stands","capacity":15,"covered":"yes","fee":"","operator":"","nameSource":"junction"},"sourceId":"osm"},{"id":"osm:node:9581361377","latitude":50.7934395,"longitude":-0.6748788,"name":"Shripney Road cycle parking","properties":{"access":"customers","bicycle_pa":"stands","capacity":4,"covered":"yes","fee":"no","operator":"NHS","nameSource":"street"},"sourceId":"osm"},{"id":"osm:node:9813337767","latitude":50.7980591,"longitude":-0.6660411,"name":"Shripney Road cycle parking","properties":{"access":"customers","bicycle_pa":"stands","capacity":30,"covered":"yes","fee":"no","operator":"Sainsbury's","nameSource":"street"},"sourceId":"osm"},{"id":"osm:way:1298508961","latitude":50.83117510000001,"longitude":-0.64023654,"name":"Barnham Road near Saxby Close","properties":{"access":"unknown","bicycle_pa":"rack","capacity":0,"covered":"yes","fee":"","operator":"Southern Railways","nameSource":"junction"},"sourceId":"osm"},{"id":"osm:way:1352497639","latitude":50.792948849999995,"longitude":-0.6555792500000001,"name":"Drygrounds Lane cycle parking","properties":{"access":"private","bicycle_pa":"shed","capacity":0,"covered":"yes","fee":"no","operator":"Felpham Community College","nameSource":"street"},"sourceId":"osm"},{"id":"osm:way:1352650930","latitude":50.79300221999999,"longitude":-0.65722676,"name":"Felpham Way cycle parking","properties":{"access":"staff","bicycle_pa":"wall_loops","capacity":7,"covered":"no","fee":"no","operator":"Felpham Community College","nameSource":"street"},"sourceId":"osm"},{"id":"osm:way:477933283","latitude":50.7936041,"longitude":-0.6585272,"name":"Arun Leisure Centre cycle parking","properties":{"access":"customers","bicycle_pa":"stands","capacity":48,"covered":"no","fee":"","operator":"Arun Leisure Centre","nameSource":"landmark"},"sourceId":"osm"},{"id":"osm:way:478315895","latitude":50.7940258,"longitude":-0.65543446,"name":"Goodwood Avenue cycle parking","properties":{"access":"unknown","bicycle_pa":"stands","capacity":210,"covered":"no","fee":"","operator":"","nameSource":"street"},"sourceId":"osm"},{"id":"osm:way:478622812","latitude":50.79492954,"longitude":-0.63330446,"name":"Middleton Road near Pennyfields","properties":{"access":"unknown","bicycle_pa":"","capacity":6,"covered":"","fee":"","operator":"","nameSource":"junction"},"sourceId":"osm"},{"id":"osm:way:507841469","latitude":50.80346453333333,"longitude":-0.6659569333333334,"name":"McDonald's Drive Through by McDonald's","properties":{"access":"unknown","bicycle_pa":"stands","capacity":8,"covered":"yes","fee":"","operator":"","nameSource":"landmark"},"sourceId":"osm"},{"id":"osm:way:862130077","latitude":50.79253726,"longitude":-0.6917477999999999,"name":"Applegate Way cycle parking","properties":{"access":"unknown","bicycle_pa":"shed","capacity":0,"covered":"","fee":"","operator":"","nameSource":"street"},"sourceId":"osm"},{"id":"osm:way:862130078","latitude":50.79252432,"longitude":-0.69199312,"name":"Applegate Way cycle parking","properties":{"access":"unknown","bicycle_pa":"shed","capacity":0,"covered":"","fee":"","operator":"","nameSource":"street"},"sourceId":"osm"},{"id":"osm:way:862130079","latitude":50.79259861999999,"longitude":-0.6917797400000001,"name":"Applegate Way cycle parking","properties":{"access":"unknown","bicycle_pa":"shed","capacity":0,"covered":"","fee":"","operator":"","nameSource":"street"},"sourceId":"osm"},{"id":"osm:way:862130080","latitude":50.79258652,"longitude":-0.6920004599999999,"name":"Applegate Way cycle parking","properties":{"access":"unknown","bicycle_pa":"shed","capacity":0,"covered":"","fee":"","operator":"","nameSource":"street"},"sourceId":"osm"}],"schemaVersion":2}
