{"key":"12/2001/1597","points":[{"categories":["hire"],"id":"osm:node:1290232736","latitude":36.7812397,"longitude":-4.1047732,"name":"Cycle hire","properties":{},"sourceId":"osm"},{"categories":["shop"],"id":"osm:node:1474309977","latitude":36.7669704,"longitude":-4.1022244,"name":"Bicitecnia","properties":{},"sourceId":"osm"},{"categories":["shop"],"id":"osm:node:319285878","latitude":36.7458901,"longitude":-4.0991952,"name":"Bicis Yeyo","properties":{},"sourceId":"osm"},{"categories":["shop"],"id":"osm:node:4595092098","latitude":36.7486184,"longitude":-4.0601555,"name":"Ciclos Martín","properties":{},"sourceId":"osm"},{"categories":["shop","repair","hire"],"id":"osm:node:4598555292","latitude":36.7408135,"longitude":-4.098874,"name":"bike-to-the-future","properties":{"serviceRental":"yes","serviceRepair":"yes","website":"https://www.bike-to-the-future.com/"},"sourceId":"osm"}],"schemaVersion":2}
