{"key":"12/2006/1514","points":[{"id":"osm:node:10939098075","latitude":42.3629216,"longitude":-3.6614363,"name":"Calle María de Maeztu by Colegio de Educación Infantil y Primaria de Villímar Isabel de Basilea","properties":{"access":"unknown","bicycle_pa":"stands","capacity":6,"covered":"yes","fee":"no","operator":"","nameSource":"landmark"},"sourceId":"osm"},{"id":"osm:node:11991040898","latitude":42.3705226,"longitude":-3.6658146,"name":"Avenida Princesa de Asturias by Europcar","properties":{"access":"members","bicycle_pa":"stands","capacity":8,"covered":"yes","fee":"yes","operator":"","nameSource":"landmark"},"sourceId":"osm"},{"id":"osm:node:12309332857","latitude":42.4147305,"longitude":-3.6898434,"name":"Calle la Iglesia near BU-V-6281","properties":{"access":"yes","bicycle_pa":"wall_loops","capacity":5,"covered":"no","fee":"no","operator":"","nameSource":"junction"},"sourceId":"osm"},{"id":"osm:node:12622782066","latitude":42.3631386,"longitude":-3.660326,"name":"Calle Teresa Jornet Santa Fundadora cycle parking","properties":{"access":"yes","bicycle_pa":"stands","capacity":12,"covered":"no","fee":"no","operator":"","nameSource":"street"},"sourceId":"osm"},{"id":"osm:node:1768861690","latitude":42.3704421,"longitude":-3.6668229,"name":"Avenida Princesa de Asturias by Bicibur - Estación tren Rosa Manzano","properties":{"access":"unknown","bicycle_pa":"stands","capacity":40,"covered":"no","fee":"","operator":"","nameSource":"landmark"},"sourceId":"osm"},{"id":"osm:node:2318819978","latitude":42.3590181,"longitude":-3.671317,"name":"Calle Camino Casa la Vega near Calle Hermanas Mirabal","properties":{"access":"unknown","bicycle_pa":"stands","capacity":8,"covered":"no","fee":"","operator":"","nameSource":"junction"},"sourceId":"osm"},{"id":"osm:node:2354323051","latitude":42.3645628,"longitude":-3.6190413,"name":"Carretera de Orbaneja near Calle la Española","properties":{"access":"unknown","bicycle_pa":"anchors","capacity":0,"covered":"","fee":"","operator":"","nameSource":"junction"},"sourceId":"osm"},{"id":"osm:node:2467659602","latitude":42.3608305,"longitude":-3.6825971,"name":"Calle Victoria Balfé cycle parking","properties":{"access":"unknown","bicycle_pa":"stands","capacity":28,"covered":"no","fee":"","operator":"","nameSource":"street"},"sourceId":"osm"},{"id":"osm:node:2467659608","latitude":42.3609166,"longitude":-3.6827157,"name":"Calle Victoria Balfé cycle parking","properties":{"access":"unknown","bicycle_pa":"anchors","capacity":12,"covered":"no","fee":"","operator":"","nameSource":"street"},"sourceId":"osm"},{"id":"osm:node:3194939857","latitude":42.3591979,"longitude":-3.6648764,"name":"Plaza Sierra Nevada near Camino de los Andaluces","properties":{"access":"unknown","bicycle_pa":"stands","capacity":8,"covered":"no","fee":"","operator":"","nameSource":"junction"},"sourceId":"osm"},{"id":"osm:node:3194939858","latitude":42.3596268,"longitude":-3.6714443,"name":"Paseo de las Abuelas de Gamonal cycle parking","properties":{"access":"unknown","bicycle_pa":"stands","capacity":8,"covered":"no","fee":"","operator":"","nameSource":"street"},"sourceId":"osm"},{"id":"osm:node:3194939859","latitude":42.3597321,"longitude":-3.6820736,"name":"Calle Victoria Balfé near Avenida Islas Canarias","properties":{"access":"unknown","bicycle_pa":"stands","capacity":8,"covered":"no","fee":"","operator":"","nameSource":"junction"},"sourceId":"osm"},{"id":"osm:node:3194942361","latitude":42.3607375,"longitude":-3.6874354,"name":"VitalAire cycle parking","properties":{"access":"unknown","bicycle_pa":"stands","capacity":12,"covered":"no","fee":"","operator":"","nameSource":"landmark"},"sourceId":"osm"},{"id":"osm:node:3194942362","latitude":42.3609798,"longitude":-3.6811438,"name":"Calle Victoria Balfé by Colegio de Educación Infantil y Primaria Miguel Delibes","properties":{"access":"unknown","bicycle_pa":"stands","capacity":6,"covered":"no","fee":"","operator":"","nameSource":"landmark"},"sourceId":"osm"},{"id":"osm:node:3194942363","latitude":42.3612945,"longitude":-3.67609,"name":"Calle Condesa Mencía by Pretty","properties":{"access":"unknown","bicycle_pa":"stands","capacity":16,"covered":"no","fee":"","operator":"","nameSource":"landmark"},"sourceId":"osm"},{"id":"osm:node:3194942366","latitude":42.3616288,"longitude":-3.6691942,"name":"Calle Esteban Sáez Alvarado cycle parking","properties":{"access":"unknown","bicycle_pa":"wall_loops","capacity":0,"covered":"no","fee":"","operator":"","nameSource":"street"},"sourceId":"osm"},{"id":"osm:node:3194942367","latitude":42.362811,"longitude":-3.676126,"name":"Calle Victoria Balfé near Calle Camino Casa la Vega","properties":{"access":"unknown","bicycle_pa":"stands","capacity":6,"covered":"no","fee":"","operator":"","nameSource":"junction"},"sourceId":"osm"},{"id":"osm:node:3194942368","latitude":42.3638758,"longitude":-3.6653469,"name":"Calle Lazarillo de Tormes cycle parking","properties":{"access":"yes","bicycle_pa":"ground_slots","capacity":0,"covered":"no","fee":"no","operator":"","nameSource":"street"},"sourceId":"osm"},{"id":"osm:node:3194942369","latitude":42.3639684,"longitude":-3.6589504,"name":"Calle Vela Zanetti cycle parking","properties":{"access":"yes","bicycle_pa":"ground_slots","capacity":0,"covered":"no","fee":"no","operator":"","nameSource":"street"},"sourceId":"osm"},{"id":"osm:node:3194942370","latitude":42.364341,"longitude":-3.6572806,"name":"Calle Vela Zanetti near Calle María Moliner","properties":{"access":"yes","bicycle_pa":"ground_slots","capacity":0,"covered":"no","fee":"no","operator":"","nameSource":"junction"},"sourceId":"osm"},{"id":"osm:node:3194942373","latitude":42.3654714,"longitude":-3.6745028,"name":"Avenida Princesa de Asturias by Carrefour Express","properties":{"access":"unknown","bicycle_pa":"wall_loops","capacity":0,"covered":"no","fee":"","operator":"","nameSource":"landmark"},"sourceId":"osm"},{"id":"osm:node:3196208696","latitude":42.3626952,"longitude":-3.6319498,"name":"Calle Vitoria cycle parking","properties":{"access":"unknown","bicycle_pa":"rack","capacity":8,"covered":"no","fee":"","operator":"","nameSource":"street"},"sourceId":"osm"},{"id":"osm:node:3306802077","latitude":42.3607353,"longitude":-3.6824868,"name":"Calle Victoria Balfé cycle parking","properties":{"access":"unknown","bicycle_pa":"stands","capacity":10,"covered":"no","fee":"","operator":"","nameSource":"street"},"sourceId":"osm"},{"id":"osm:node:3347930476","latitude":42.3587514,"longitude":-3.6615756,"name":"Carretera Poza by Instituto de Educación Secundaria Diego Marín Aguilera","properties":{"access":"unknown","bicycle_pa":"stands","capacity":10,"covered":"no","fee":"","operator":"","nameSource":"landmark"},"sourceId":"osm"},{"id":"osm:node:3347930477","latitude":42.3597197,"longitude":-3.6678103,"name":"Calle José María Codón by Bicibur - Centro Cívico Gamonal Norte","properties":{"access":"unknown","bicycle_pa":"stands","capacity":12,"covered":"no","fee":"","operator":"","nameSource":"landmark"},"sourceId":"osm"},{"id":"osm:node:3347930478","latitude":42.360356,"longitude":-3.6746055,"name":"Calle Loudun cycle parking","properties":{"access":"unknown","bicycle_pa":"stands","capacity":10,"covered":"no","fee":"","operator":"","nameSource":"street"},"sourceId":"osm"},{"id":"osm:node:3347930479","latitude":42.3617689,"longitude":-3.6695295,"name":"Calle Esteban Sáez Alvarado cycle parking","properties":{"access":"unknown","bicycle_pa":"stands","capacity":6,"covered":"no","fee":"","operator":"","nameSource":"street"},"sourceId":"osm"},{"id":"osm:node:3347930480","latitude":42.3618312,"longitude":-3.6689099,"name":"Calle Esteban Sáez Alvarado near Paseo de las Abuelas de Gamonal","properties":{"access":"unknown","bicycle_pa":"stands","capacity":6,"covered":"no","fee":"","operator":"","nameSource":"junction"},"sourceId":"osm"},{"id":"osm:node:3347930487","latitude":42.3638506,"longitude":-3.6660084,"name":"Calle Lazarillo de Tormes cycle parking","properties":{"access":"unknown","bicycle_pa":"stands","capacity":10,"covered":"no","fee":"","operator":"","nameSource":"street"},"sourceId":"osm"},{"id":"osm:node:3353241220","latitude":42.3606126,"longitude":-3.6859512,"name":"Avenida Islas Baleares by Hospital Universitario","properties":{"access":"unknown","bicycle_pa":"stands","capacity":20,"covered":"no","fee":"","operator":"","nameSource":"landmark"},"sourceId":"osm"},{"id":"osm:node:3353241222","latitude":42.3620777,"longitude":-3.6589918,"name":"Calle Teresa Jornet Santa Fundadora by Centro Veterinario Teresa Jornet","properties":{"access":"unknown","bicycle_pa":"stands","capacity":6,"covered":"no","fee":"","operator":"","nameSource":"landmark"},"sourceId":"osm"},{"id":"osm:node:3353241223","latitude":42.3637263,"longitude":-3.6551405,"name":"Calle Madre Isabel de Larrañaga near Calle Mérida","properties":{"access":"yes","bicycle_pa":"stands","capacity":10,"covered":"no","fee":"no","operator":"","nameSource":"junction"},"sourceId":"osm"},{"id":"osm:node:3369872418","latitude":42.3605292,"longitude":-3.6658221,"name":"Calle José María Codón cycle parking","properties":{"access":"unknown","bicycle_pa":"stands","capacity":10,"covered":"","fee":"","operator":"","nameSource":"street"},"sourceId":"osm"},{"id":"osm:node:3683602852","latitude":42.3592353,"longitude":-3.6344366,"name":"CEEI Burgos","properties":{"access":"unknown","bicycle_pa":"anchors","capacity":10,"covered":"","fee":"","operator":"","nameSource":"source"},"sourceId":"osm"},{"id":"osm:node:4216301491","latitude":42.4229947,"longitude":-3.6786569,"name":"Camino del Destierro near Avenida del Cid Campeador","properties":{"access":"unknown","bicycle_pa":"anchors","capacity":6,"covered":"no","fee":"","operator":"","nameSource":"junction"},"sourceId":"osm"},{"id":"osm:node:5052344782","latitude":42.3639407,"longitude":-3.6330186,"name":"La Dehesilla cycle parking","properties":{"access":"unknown","bicycle_pa":"rack","capacity":8,"covered":"no","fee":"","operator":"","nameSource":"place"},"sourceId":"osm"},{"id":"osm:node:5583337604","latitude":42.3622402,"longitude":-3.6309573,"name":"Avenida Antonio Medrano de Pedro cycle parking","properties":{"access":"unknown","bicycle_pa":"stands","capacity":8,"covered":"no","fee":"","operator":"","nameSource":"street"},"sourceId":"osm"},{"id":"osm:node:5650463637","latitude":42.3628447,"longitude":-3.6730452,"name":"Calle José Vicente del Val near Calle Conde Lucanor","properties":{"access":"unknown","bicycle_pa":"stands","capacity":4,"covered":"no","fee":"","operator":"","nameSource":"junction"},"sourceId":"osm"},{"id":"osm:node:5650463638","latitude":42.3613147,"longitude":-3.6789165,"name":"Calle Duque de Frías near Calle Victoria Balfé","properties":{"access":"unknown","bicycle_pa":"stands","capacity":6,"covered":"no","fee":"","operator":"","nameSource":"junction"},"sourceId":"osm"},{"id":"osm:node:5744547599","latitude":42.3623773,"longitude":-3.6528744,"name":"Calle Padre Arregui near Barrio de San Cristóbal","properties":{"access":"unknown","bicycle_pa":"stands","capacity":12,"covered":"no","fee":"","operator":"","nameSource":"junction"},"sourceId":"osm"},{"id":"osm:node:5813428398","latitude":42.3689566,"longitude":-3.6564592,"name":"Calle Río Viejo near Calle Guzmán de Alfarache","properties":{"access":"unknown","bicycle_pa":"stands","capacity":10,"covered":"no","fee":"","operator":"","nameSource":"junction"},"sourceId":"osm"},{"id":"osm:node:5910439762","latitude":42.3626825,"longitude":-3.6786604,"name":"Calle Marqués de Berlanga cycle parking","properties":{"access":"unknown","bicycle_pa":"stands","capacity":6,"covered":"","fee":"","operator":"","nameSource":"street"},"sourceId":"osm"},{"id":"osm:node:6008558912","latitude":42.3587479,"longitude":-3.6653338,"name":"Calle Esteban Sáez Alvarado near Calle Sevilla","properties":{"access":"unknown","bicycle_pa":"stands","capacity":6,"covered":"no","fee":"","operator":"","nameSource":"junction"},"sourceId":"osm"},{"id":"osm:node:6152633469","latitude":42.3603101,"longitude":-3.6520464,"name":"Calle Alcalde Martín Cobos near Glorieta Vicente Redondo","properties":{"access":"unknown","bicycle_pa":"stands","capacity":10,"covered":"no","fee":"","operator":"","nameSource":"junction"},"sourceId":"osm"},{"id":"osm:node:6152633470","latitude":42.358705,"longitude":-3.6516274,"name":"Calle Alcalde Martín Cobos near Glorieta Baldomero Nicolás-Correa Barajas","properties":{"access":"unknown","bicycle_pa":"stands","capacity":8,"covered":"no","fee":"","operator":"","nameSource":"junction"},"sourceId":"osm"},{"id":"osm:node:6159843374","latitude":42.3673112,"longitude":-3.6533429,"name":"Calle Villatoro near Calle Poza","properties":{"access":"yes","bicycle_pa":"stands","capacity":8,"covered":"no","fee":"no","operator":"","nameSource":"junction"},"sourceId":"osm"},{"id":"osm:node:6171626027","latitude":42.3619759,"longitude":-3.6528884,"name":"Calle Alcalde Martín Cobos cycle parking","properties":{"access":"unknown","bicycle_pa":"","capacity":10,"covered":"","fee":"","operator":"","nameSource":"street"},"sourceId":"osm"},{"id":"osm:node:6262417845","latitude":42.3631769,"longitude":-3.6270932,"name":"Calle Vitoria cycle parking","properties":{"access":"unknown","bicycle_pa":"","capacity":8,"covered":"","fee":"","operator":"","nameSource":"street"},"sourceId":"osm"},{"id":"osm:node:6336672578","latitude":42.3704566,"longitude":-3.6656804,"name":"Avenida Princesa de Asturias by Europcar","properties":{"access":"yes","bicycle_pa":"stands","capacity":8,"covered":"no","fee":"no","operator":"","nameSource":"landmark"},"sourceId":"osm"},{"id":"osm:node:648956102","latitude":42.3617514,"longitude":-3.65875,"name":"Calle Teresa Jornet Santa Fundadora near Calle López Rodó","properties":{"access":"customers","bicycle_pa":"stands","capacity":1,"covered":"no","fee":"no","operator":"","nameSource":"junction"},"sourceId":"osm"},{"id":"osm:node:6496386538","latitude":42.3642324,"longitude":-3.6504424,"name":"Barrio de San Cristóbal cycle parking","properties":{"access":"unknown","bicycle_pa":"stands","capacity":8,"covered":"no","fee":"","operator":"","nameSource":"street"},"sourceId":"osm"},{"id":"osm:node:6799443742","latitude":42.3587566,"longitude":-3.661799,"name":"Carretera Poza by Instituto de Educación Secundaria Diego Marín Aguilera","properties":{"access":"unknown","bicycle_pa":"","capacity":0,"covered":"","fee":"","operator":"","nameSource":"landmark"},"sourceId":"osm"},{"id":"osm:node:7259054943","latitude":42.3604086,"longitude":-3.6742082,"name":"Calle Loudun near Calle Camino Casa la Vega","properties":{"access":"unknown","bicycle_pa":"","capacity":8,"covered":"","fee":"","operator":"","nameSource":"junction"},"sourceId":"osm"},{"id":"osm:node:8174727912","latitude":42.4219764,"longitude":-3.6794037,"name":"Calle Don Rodrigo Díaz de Vivar cycle parking","properties":{"access":"yes","bicycle_pa":"wall_loops","capacity":6,"covered":"no","fee":"no","operator":"","nameSource":"street"},"sourceId":"osm"},{"id":"osm:node:8607466992","latitude":42.3648153,"longitude":-3.6551087,"name":"Carretera Poza cycle parking","properties":{"access":"yes","bicycle_pa":"","capacity":6,"covered":"","fee":"no","operator":"","nameSource":"street"},"sourceId":"osm"},{"id":"osm:node:8708888257","latitude":42.3684664,"longitude":-3.6558349,"name":"Calle Villayerno near Calle Río Viejo","properties":{"access":"customers","bicycle_pa":"stands","capacity":4,"covered":"yes","fee":"no","operator":"","nameSource":"junction"},"sourceId":"osm"},{"id":"osm:node:9155453821","latitude":42.3635238,"longitude":-3.6578626,"name":"Calle María Moliner near Calle Rosa Chacel","properties":{"access":"yes","bicycle_pa":"","capacity":12,"covered":"","fee":"","operator":"","nameSource":"junction"},"sourceId":"osm"},{"id":"osm:node:9181020131","latitude":42.358786,"longitude":-3.6706111,"name":"Avenida Castilla y León near Calle Santa Genoveva Torres","properties":{"access":"yes","bicycle_pa":"stands","capacity":6,"covered":"no","fee":"no","operator":"","nameSource":"junction"},"sourceId":"osm"},{"id":"osm:node:9220884622","latitude":42.3659894,"longitude":-3.6645935,"name":"Calle Conde Lucanor near Calle Parque Juan Pablo II","properties":{"access":"unknown","bicycle_pa":"stands","capacity":12,"covered":"no","fee":"no","operator":"","nameSource":"junction"},"sourceId":"osm"},{"id":"osm:node:9294037221","latitude":42.3648247,"longitude":-3.6558911,"name":"Calle Vela Zanetti near Calle Rafael Núñez Rosaenz","properties":{"access":"yes","bicycle_pa":"ground_slots","capacity":0,"covered":"no","fee":"no","operator":"","nameSource":"junction"},"sourceId":"osm"},{"id":"osm:node:9416227577","latitude":42.3645311,"longitude":-3.6632286,"name":"Calle José María Francés Gil near Calle Lazarillo de Tormes","properties":{"access":"yes","bicycle_pa":"ground_slots","capacity":0,"covered":"no","fee":"no","operator":"","nameSource":"junction"},"sourceId":"osm"},{"id":"osm:node:9561129007","latitude":42.3642018,"longitude":-3.6741073,"name":"Calle José Vicente del Val near Calle Fuenteovejuna","properties":{"access":"yes","bicycle_pa":"stands","capacity":12,"covered":"no","fee":"no","operator":"","nameSource":"junction"},"sourceId":"osm"},{"id":"osm:node:9561129008","latitude":42.3607808,"longitude":-3.6804876,"name":"Calle Victoria Balfé by G3","properties":{"access":"yes","bicycle_pa":"stands","capacity":12,"covered":"no","fee":"no","operator":"","nameSource":"landmark"},"sourceId":"osm"},{"id":"osm:node:9580014901","latitude":42.3608537,"longitude":-3.6783757,"name":"Calle Duque de Frías near Calle Guiomar Fernández","properties":{"access":"permissive","bicycle_pa":"stands","capacity":8,"covered":"no","fee":"no","operator":"","nameSource":"junction"},"sourceId":"osm"},{"id":"osm:node:9797076548","latitude":42.3635171,"longitude":-3.6391571,"name":"Circunvalación de Burgos cycle parking","properties":{"access":"yes","bicycle_pa":"stands","capacity":4,"covered":"no","fee":"no","operator":"","nameSource":"street"},"sourceId":"osm"}],"schemaVersion":2}
