{"key":"12/2006/1515","points":[{"id":"osm:node:10750367974","latitude":42.3530647,"longitude":-3.6792041,"name":"Calle Severo Ochoa by Don Diente","properties":{"access":"unknown","bicycle_pa":"stands","capacity":6,"covered":"no","fee":"","operator":"","nameSource":"landmark"},"sourceId":"osm"},{"id":"osm:node:10751658816","latitude":42.3492655,"longitude":-3.6850968,"name":"Paseo Comuneros de Castilla by Escuela Infantil Municipal de Río Vena","properties":{"access":"unknown","bicycle_pa":"","capacity":10,"covered":"yes","fee":"no","operator":"","nameSource":"landmark"},"sourceId":"osm"},{"id":"osm:node:10825046448","latitude":42.3429029,"longitude":-3.6285792,"name":"Calle Gonzalo Gómez de Espinosa near Calle Obispo Juan de Fonseca","properties":{"access":"unknown","bicycle_pa":"","capacity":8,"covered":"","fee":"","operator":"","nameSource":"junction"},"sourceId":"osm"},{"id":"osm:node:11162827943","latitude":42.3518718,"longitude":-3.669513,"name":"Plaza Roma near Calle Alejandro Yagüe","properties":{"access":"yes","bicycle_pa":"stands","capacity":10,"covered":"no","fee":"no","operator":"","nameSource":"junction"},"sourceId":"osm"},{"id":"osm:node:11162827945","latitude":42.3517941,"longitude":-3.6757078,"name":"Plaza Lavaderos near Calle Lavaderos","properties":{"access":"yes","bicycle_pa":"stands","capacity":8,"covered":"no","fee":"no","operator":"","nameSource":"junction"},"sourceId":"osm"},{"id":"osm:node:12038312552","latitude":42.3469284,"longitude":-3.676901,"name":"Calle Cristóbal Acuña by Piscina infantil","properties":{"access":"customers","bicycle_pa":"wall_loops","capacity":10,"covered":"no","fee":"no","operator":"","nameSource":"landmark"},"sourceId":"osm"},{"id":"osm:node:12038312553","latitude":42.3469628,"longitude":-3.6768267,"name":"Calle Cristóbal Acuña by Piscina infantil","properties":{"access":"customers","bicycle_pa":"wall_loops","capacity":10,"covered":"no","fee":"no","operator":"","nameSource":"landmark"},"sourceId":"osm"},{"id":"osm:node:12038312554","latitude":42.3473525,"longitude":-3.6760986,"name":"Cafetería de la Ciudad Deportiva Militar cycle parking","properties":{"access":"customers","bicycle_pa":"wall_loops","capacity":12,"covered":"no","fee":"no","operator":"","nameSource":"landmark"},"sourceId":"osm"},{"id":"osm:node:12038312555","latitude":42.3473698,"longitude":-3.6760607,"name":"Cafetería de la Ciudad Deportiva Militar cycle parking","properties":{"access":"customers","bicycle_pa":"wall_loops","capacity":12,"covered":"no","fee":"no","operator":"","nameSource":"landmark"},"sourceId":"osm"},{"id":"osm:node:12064466349","latitude":42.3503998,"longitude":-3.66965,"name":"Calle Barcelona by Aromas Artesanales","properties":{"access":"yes","bicycle_pa":"stands","capacity":12,"covered":"no","fee":"no","operator":"","nameSource":"landmark"},"sourceId":"osm"},{"id":"osm:node:12193383172","latitude":42.349725,"longitude":-3.6482446,"name":"Calle Alcalde Martín Cobos near Glorieta Antonio Medrano","properties":{"access":"yes","bicycle_pa":"stands","capacity":4,"covered":"no","fee":"no","operator":"","nameSource":"junction"},"sourceId":"osm"},{"id":"osm:node:12193383173","latitude":42.3497195,"longitude":-3.6479345,"name":"Calle Alcalde Martín Cobos near Glorieta Antonio Medrano","properties":{"access":"yes","bicycle_pa":"stands","capacity":6,"covered":"no","fee":"no","operator":"","nameSource":"junction"},"sourceId":"osm"},{"id":"osm:node:12417520965","latitude":42.3511024,"longitude":-3.6786874,"name":"Calle Eulalia Cáceres cycle parking","properties":{"access":"yes","bicycle_pa":"stands","capacity":6,"covered":"no","fee":"no","operator":"","nameSource":"street"},"sourceId":"osm"},{"id":"osm:node:12417520966","latitude":42.3511243,"longitude":-3.678467,"name":"Calle Eulalia Cáceres cycle parking","properties":{"access":"yes","bicycle_pa":"stands","capacity":4,"covered":"no","fee":"no","operator":"","nameSource":"street"},"sourceId":"osm"},{"id":"osm:node:12455961198","latitude":42.3491534,"longitude":-3.6704328,"name":"Calle Fundación Sonsoles Ballvé by Centro Cívico Capiscol","properties":{"access":"yes","bicycle_pa":"stands","capacity":8,"covered":"no","fee":"no","operator":"","nameSource":"landmark"},"sourceId":"osm"},{"id":"osm:node:12455961199","latitude":42.349178,"longitude":-3.6704234,"name":"Calle Fundación Sonsoles Ballvé by Centro Cívico Capiscol","properties":{"access":"yes","bicycle_pa":"stands","capacity":8,"covered":"no","fee":"no","operator":"","nameSource":"landmark"},"sourceId":"osm"},{"id":"osm:node:12467909595","latitude":42.3514892,"longitude":-3.677177,"name":"Calle Miguel Delibes near Calle Ucrania","properties":{"access":"yes","bicycle_pa":"stands","capacity":8,"covered":"no","fee":"no","operator":"","nameSource":"junction"},"sourceId":"osm"},{"id":"osm:node:12640674701","latitude":42.3451583,"longitude":-3.6874671,"name":"Calle las Calzadas near Avenida Cantabria","properties":{"access":"unknown","bicycle_pa":"stands","capacity":6,"covered":"no","fee":"","operator":"","nameSource":"junction"},"sourceId":"osm"},{"id":"osm:node:12650313358","latitude":42.3526367,"longitude":-3.6774901,"name":"Calle Ucrania near Calle Severo Ochoa","properties":{"access":"yes","bicycle_pa":"stands","capacity":10,"covered":"yes","fee":"no","operator":"Aldi","nameSource":"junction"},"sourceId":"osm"},{"id":"osm:node:12718330906","latitude":42.3572051,"longitude":-3.6757812,"name":"Avenida Castilla y León cycle parking","properties":{"access":"unknown","bicycle_pa":"stands","capacity":6,"covered":"no","fee":"","operator":"","nameSource":"street"},"sourceId":"osm"},{"id":"osm:node:12760913427","latitude":42.3492854,"longitude":-3.663326,"name":"Plaza Avelino Antolín Toledano cycle parking","properties":{"access":"unknown","bicycle_pa":"stands","capacity":10,"covered":"no","fee":"","operator":"","nameSource":"street"},"sourceId":"osm"},{"id":"osm:node:12921137047","latitude":42.3459831,"longitude":-3.6700941,"name":"Calle Plantío near Calle Villafranca","properties":{"access":"unknown","bicycle_pa":"stands","capacity":12,"covered":"","fee":"","operator":"","nameSource":"junction"},"sourceId":"osm"},{"id":"osm:node:12960956056","latitude":42.3496277,"longitude":-3.6683033,"name":"Calle San Juan de Ortega near Calle Santiago Apóstol","properties":{"access":"yes","bicycle_pa":"","capacity":8,"covered":"","fee":"","operator":"","nameSource":"junction"},"sourceId":"osm"},{"id":"osm:node:12962334190","latitude":42.3547645,"longitude":-3.664713,"name":"Calle Vitoria by Cid","properties":{"access":"yes","bicycle_pa":"","capacity":6,"covered":"","fee":"","operator":"","nameSource":"landmark"},"sourceId":"osm"},{"id":"osm:node:12998153337","latitude":42.3455372,"longitude":-3.6483607,"name":"Calle Alcalde Martín Cobos by BurgoCar","properties":{"access":"yes","bicycle_pa":"stands","capacity":10,"covered":"no","fee":"no","operator":"","nameSource":"landmark"},"sourceId":"osm"},{"id":"osm:node:12998153338","latitude":42.347558,"longitude":-3.648513,"name":"Calle Alcalde Martín Cobos near Calle del Páramo","properties":{"access":"yes","bicycle_pa":"stands","capacity":10,"covered":"no","fee":"no","operator":"","nameSource":"junction"},"sourceId":"osm"},{"id":"osm:node:13158714458","latitude":42.3441847,"longitude":-3.6490097,"name":"Calle Miguel Hernández near Calle Labradores","properties":{"access":"yes","bicycle_pa":"stands","capacity":10,"covered":"no","fee":"no","operator":"","nameSource":"junction"},"sourceId":"osm"},{"id":"osm:node:13396629553","latitude":42.347625,"longitude":-3.6663599,"name":"Pasaje Fernando de Rojas near Avenida de los Derechos Humanos","properties":{"access":"yes","bicycle_pa":"stands","capacity":10,"covered":"no","fee":"no","operator":"","nameSource":"junction"},"sourceId":"osm"},{"id":"osm:node:13452590647","latitude":42.3474852,"longitude":-3.6690437,"name":"Avenida de la Constitución Española near Calle San Juan de Ortega","properties":{"access":"yes","bicycle_pa":"stands","capacity":10,"covered":"no","fee":"no","operator":"","nameSource":"junction"},"sourceId":"osm"},{"id":"osm:node:13584407086","latitude":42.3513052,"longitude":-3.6777806,"name":"Calle Eulalia Cáceres near Calle Miguel Delibes","properties":{"access":"unknown","bicycle_pa":"stands","capacity":6,"covered":"","fee":"","operator":"","nameSource":"junction"},"sourceId":"osm"},{"id":"osm:node:13584409600","latitude":42.3435387,"longitude":-3.6299653,"name":"Calle Isla de Tidore near Calle Hernardo de la Torre","properties":{"access":"unknown","bicycle_pa":"stands","capacity":12,"covered":"","fee":"","operator":"","nameSource":"junction"},"sourceId":"osm"},{"id":"osm:node:1364759232","latitude":42.3516701,"longitude":-3.6658128,"name":"Pasaje del Mercado near Calle Luis Alberdi","properties":{"access":"unknown","bicycle_pa":"stands","capacity":6,"covered":"no","fee":"","operator":"","nameSource":"junction"},"sourceId":"osm"},{"id":"osm:node:1364759267","latitude":42.3513925,"longitude":-3.6651557,"name":"Pasaje del Mercado near Calle Luis Alberdi","properties":{"access":"unknown","bicycle_pa":"stands","capacity":8,"covered":"no","fee":"","operator":"","nameSource":"junction"},"sourceId":"osm"},{"id":"osm:node:1364759378","latitude":42.3510715,"longitude":-3.663659,"name":"Calle María Amigo near Glorieta Luis Braille","properties":{"access":"unknown","bicycle_pa":"stands","capacity":10,"covered":"no","fee":"","operator":"","nameSource":"junction"},"sourceId":"osm"},{"id":"osm:node:13650421744","latitude":42.3483241,"longitude":-3.6891585,"name":"Avenida Cantabria cycle parking","properties":{"access":"unknown","bicycle_pa":"rack","capacity":12,"covered":"no","fee":"no","operator":"","nameSource":"street"},"sourceId":"osm"},{"id":"osm:node:13650421745","latitude":42.3478841,"longitude":-3.6891963,"name":"Avenida Cantabria by Colegio Virgen de la Rosa","properties":{"access":"unknown","bicycle_pa":"","capacity":14,"covered":"no","fee":"no","operator":"","nameSource":"landmark"},"sourceId":"osm"},{"id":"osm:node:1374433671","latitude":42.3518933,"longitude":-3.6890422,"name":"Calle Ernest Merimée cycle parking","properties":{"access":"unknown","bicycle_pa":"stands","capacity":18,"covered":"no","fee":"","operator":"","nameSource":"street"},"sourceId":"osm"},{"id":"osm:node:1587589705","latitude":42.3532406,"longitude":-3.6882381,"name":"Calle Francisco de Vitoria by Centro Integrado de Formación Profesional Juan de Colonia — Comercio","properties":{"access":"unknown","bicycle_pa":"wall_loops","capacity":8,"covered":"no","fee":"","operator":"","nameSource":"landmark"},"sourceId":"osm"},{"id":"osm:node:1655239688","latitude":42.3453201,"longitude":-3.6737037,"name":"Calle Cascajera near Calle Virgilio Mazuela","properties":{"access":"unknown","bicycle_pa":"wall_loops","capacity":12,"covered":"no","fee":"","operator":"","nameSource":"junction"},"sourceId":"osm"},{"id":"osm:node:1655239711","latitude":42.3453612,"longitude":-3.6732566,"name":"Calle Cascajera cycle parking","properties":{"access":"unknown","bicycle_pa":"stands","capacity":10,"covered":"no","fee":"","operator":"","nameSource":"street"},"sourceId":"osm"},{"id":"osm:node:1663278236","latitude":42.3413885,"longitude":-3.6853124,"name":"Calle Timoteo Arnáiz near Calle Cartuja de Miraflores","properties":{"access":"yes","bicycle_pa":"stands","capacity":8,"covered":"yes","fee":"no","operator":"","nameSource":"junction"},"sourceId":"osm"},{"id":"osm:node:1747182881","latitude":42.3504631,"longitude":-3.6873597,"name":"Paseo del Pintor Javier Cortés cycle parking","properties":{"access":"unknown","bicycle_pa":"wall_loops","capacity":8,"covered":"no","fee":"","operator":"","nameSource":"street"},"sourceId":"osm"},{"id":"osm:node:1747182907","latitude":42.3507692,"longitude":-3.6874778,"name":"Paseo del Pintor Javier Cortés cycle parking","properties":{"access":"unknown","bicycle_pa":"stands","capacity":6,"covered":"no","fee":"","operator":"","nameSource":"street"},"sourceId":"osm"},{"id":"osm:node:1756123604","latitude":42.3515815,"longitude":-3.6876199,"name":"Calle Eloy García de Quevedo by UNED Centro Asociado de Burgos","properties":{"access":"unknown","bicycle_pa":"wall_loops","capacity":12,"covered":"no","fee":"","operator":"","nameSource":"landmark"},"sourceId":"osm"},{"id":"osm:node:1769278650","latitude":42.3517818,"longitude":-3.6856183,"name":"Paseo del Pintor Javier Cortés cycle parking","properties":{"access":"unknown","bicycle_pa":"stands","capacity":6,"covered":"no","fee":"","operator":"","nameSource":"street"},"sourceId":"osm"},{"id":"osm:node:1820821046","latitude":42.2978627,"longitude":-3.6673321,"name":"Ruta de la Morcilla near Calle Vigasierra","properties":{"access":"unknown","bicycle_pa":"","capacity":12,"covered":"","fee":"","operator":"","nameSource":"junction"},"sourceId":"osm"},{"id":"osm:node:1829586145","latitude":42.3529423,"longitude":-3.6672706,"name":"Calle Pablo Casals near Avenida de los Derechos Humanos","properties":{"access":"unknown","bicycle_pa":"wall_loops","capacity":10,"covered":"no","fee":"","operator":"","nameSource":"junction"},"sourceId":"osm"},{"id":"osm:node:1829586379","latitude":42.3530215,"longitude":-3.6671974,"name":"Calle Pablo Casals near Avenida de los Derechos Humanos","properties":{"access":"unknown","bicycle_pa":"","capacity":0,"covered":"no","fee":"","operator":"","nameSource":"junction"},"sourceId":"osm"},{"id":"osm:node:1846768260","latitude":42.3122009,"longitude":-3.6811248,"name":"Casas de Escobilla cycle parking","properties":{"access":"yes","bicycle_pa":"","capacity":6,"covered":"no","fee":"no","operator":"","nameSource":"place"},"sourceId":"osm"},{"id":"osm:node:1941939861","latitude":42.3558849,"longitude":-3.6591292,"name":"Calle Vitoria cycle parking","properties":{"access":"unknown","bicycle_pa":"wall_loops","capacity":20,"covered":"yes","fee":"","operator":"","nameSource":"street"},"sourceId":"osm"},{"id":"osm:node:1990113554","latitude":42.3504606,"longitude":-3.6857677,"name":"Calle Batalla de Villalar by Octavos","properties":{"access":"unknown","bicycle_pa":"stands","capacity":8,"covered":"no","fee":"","operator":"","nameSource":"landmark"},"sourceId":"osm"},{"id":"osm:node:1990113610","latitude":42.3529051,"longitude":-3.6836326,"name":"Calle Juan de Padilla cycle parking","properties":{"access":"unknown","bicycle_pa":"stands","capacity":20,"covered":"no","fee":"","operator":"","nameSource":"street"},"sourceId":"osm"},{"id":"osm:node:2036197926","latitude":42.3534471,"longitude":-3.689061,"name":"Calle Francisco de Vitoria near Calle Rodrigo de Sebastián","properties":{"access":"unknown","bicycle_pa":"wall_loops","capacity":10,"covered":"no","fee":"","operator":"","nameSource":"junction"},"sourceId":"osm"},{"id":"osm:node:2198693021","latitude":42.3471394,"longitude":-3.6907215,"name":"Calle Soria near Parque Virgen del Manzano","properties":{"access":"yes","bicycle_pa":"anchors","capacity":8,"covered":"no","fee":"no","operator":"","nameSource":"junction"},"sourceId":"osm"},{"id":"osm:node:2246548722","latitude":42.3529575,"longitude":-3.6869039,"name":"Calle Francisco de Vitoria by Centro Integrado de Formación Profesional Simón de Colonia","properties":{"access":"unknown","bicycle_pa":"stands","capacity":10,"covered":"no","fee":"","operator":"","nameSource":"landmark"},"sourceId":"osm"},{"id":"osm:node:2246548755","latitude":42.3530085,"longitude":-3.6870756,"name":"Calle Francisco de Vitoria by Centro Integrado de Formación Profesional Simón de Colonia","properties":{"access":"unknown","bicycle_pa":"stands","capacity":5,"covered":"no","fee":"","operator":"","nameSource":"landmark"},"sourceId":"osm"},{"id":"osm:node:2246548762","latitude":42.353026,"longitude":-3.6871319,"name":"Calle Francisco de Vitoria by Centro Integrado de Formación Profesional Simón de Colonia","properties":{"access":"unknown","bicycle_pa":"anchors","capacity":5,"covered":"no","fee":"","operator":"","nameSource":"landmark"},"sourceId":"osm"},{"id":"osm:node:2246548775","latitude":42.3569725,"longitude":-3.67647,"name":"Avenida Castilla y León near Calle Alfonso XI","properties":{"access":"unknown","bicycle_pa":"stands","capacity":8,"covered":"no","fee":"","operator":"","nameSource":"junction"},"sourceId":"osm"},{"id":"osm:node:2246548778","latitude":42.3576556,"longitude":-3.6687527,"name":"Calle Juan de Ayolas cycle parking","properties":{"access":"unknown","bicycle_pa":"stands","capacity":8,"covered":"no","fee":"","operator":"","nameSource":"street"},"sourceId":"osm"},{"id":"osm:node:2246548783","latitude":42.3576896,"longitude":-3.6686098,"name":"Calle Juan de Ayolas cycle parking","properties":{"access":"unknown","bicycle_pa":"wall_loops","capacity":8,"covered":"no","fee":"","operator":"","nameSource":"street"},"sourceId":"osm"},{"id":"osm:node:2302898979","latitude":42.3549419,"longitude":-3.6228861,"name":"Aeropuerto de Burgos cycle parking","properties":{"access":"yes","bicycle_pa":"wall_loops","capacity":8,"covered":"","fee":"no","operator":"","nameSource":"landmark"},"sourceId":"osm"},{"id":"osm:node:2330617822","latitude":42.3470004,"longitude":-3.6905767,"name":"Calle Soria near Parque Virgen del Manzano","properties":{"access":"private","bicycle_pa":"stands","capacity":8,"covered":"no","fee":"","operator":"","nameSource":"junction"},"sourceId":"osm"},{"id":"osm:node:2342594652","latitude":42.3466634,"longitude":-3.6899779,"name":"Calle Anna Huntington near Calle Soria","properties":{"access":"unknown","bicycle_pa":"stands","capacity":8,"covered":"no","fee":"","operator":"","nameSource":"junction"},"sourceId":"osm"},{"id":"osm:node:2343688573","latitude":42.3532531,"longitude":-3.6693834,"name":"Calle Vitoria near Calle Pablo Ruiz Picasso","properties":{"access":"unknown","bicycle_pa":"stands","capacity":4,"covered":"no","fee":"","operator":"","nameSource":"junction"},"sourceId":"osm"},{"id":"osm:node:2521509653","latitude":42.3511135,"longitude":-3.6894078,"name":"Avenida Cantabria near Calle Federico Olmeda","properties":{"access":"unknown","bicycle_pa":"stands","capacity":20,"covered":"no","fee":"","operator":"","nameSource":"junction"},"sourceId":"osm"},{"id":"osm:node:2521509654","latitude":42.3511187,"longitude":-3.6892093,"name":"Avenida Cantabria near Calle Federico Olmeda","properties":{"access":"unknown","bicycle_pa":"stands","capacity":22,"covered":"no","fee":"","operator":"","nameSource":"junction"},"sourceId":"osm"},{"id":"osm:node:2585613049","latitude":42.3578983,"longitude":-3.6678047,"name":"Calle Juan de Ayolas near Calle Clara Campoamor","properties":{"access":"unknown","bicycle_pa":"wall_loops","capacity":8,"covered":"no","fee":"","operator":"","nameSource":"junction"},"sourceId":"osm"},{"id":"osm:node:2840623529","latitude":42.3468275,"longitude":-3.6894431,"name":"Calle Anna Huntington near Calle Soria","properties":{"access":"unknown","bicycle_pa":"stands","capacity":8,"covered":"no","fee":"","operator":"","nameSource":"junction"},"sourceId":"osm"},{"id":"osm:node:2930689969","latitude":42.3435466,"longitude":-3.689573,"name":"Paseo Regino Sáinz de la Maza by Cafetería Jara","properties":{"access":"yes","bicycle_pa":"stands","capacity":6,"covered":"no","fee":"no","operator":"","nameSource":"landmark"},"sourceId":"osm"},{"id":"osm:node:3000026193","latitude":42.3496075,"longitude":-3.6892864,"name":"Avenida Cantabria near Avenida Reyes Católicos","properties":{"access":"unknown","bicycle_pa":"anchors","capacity":12,"covered":"no","fee":"","operator":"","nameSource":"junction"},"sourceId":"osm"},{"id":"osm:node:3059316226","latitude":42.3441929,"longitude":-3.6866219,"name":"Avenida Cantabria near Calle Vitoria","properties":{"access":"unknown","bicycle_pa":"stands","capacity":6,"covered":"no","fee":"","operator":"","nameSource":"junction"},"sourceId":"osm"},{"id":"osm:node:3095933218","latitude":42.350917,"longitude":-3.6898681,"name":"Avenida Cantabria near Calle Federico Olmeda","properties":{"access":"unknown","bicycle_pa":"stands","capacity":10,"covered":"no","fee":"","operator":"","nameSource":"junction"},"sourceId":"osm"},{"id":"osm:node:3188378120","latitude":42.3445916,"longitude":-3.6877577,"name":"Calle Salamanca near Calle Jesús María Ordoño","properties":{"access":"unknown","bicycle_pa":"stands","capacity":6,"covered":"no","fee":"","operator":"","nameSource":"junction"},"sourceId":"osm"},{"id":"osm:node:3193762723","latitude":42.3282506,"longitude":-3.6644178,"name":"Calle de la Plazuela near Calle la Mies","properties":{"access":"unknown","bicycle_pa":"stands","capacity":10,"covered":"no","fee":"","operator":"","nameSource":"junction"},"sourceId":"osm"},{"id":"osm:node:3193762745","latitude":42.3385901,"longitude":-3.6873438,"name":"Calle Maestro de Burgos near Calle Rivalamora","properties":{"access":"unknown","bicycle_pa":"wall_loops","capacity":0,"covered":"no","fee":"","operator":"","nameSource":"junction"},"sourceId":"osm"},{"id":"osm:node:3193762746","latitude":42.3387138,"longitude":-3.644503,"name":"BU-800 cycle parking","properties":{"access":"unknown","bicycle_pa":"wall_loops","capacity":0,"covered":"no","fee":"","operator":"","nameSource":"street"},"sourceId":"osm"},{"id":"osm:node:3193762748","latitude":42.3393532,"longitude":-3.6459794,"name":"BU-800 cycle parking","properties":{"access":"unknown","bicycle_pa":"wall_loops","capacity":10,"covered":"no","fee":"","operator":"","nameSource":"street"},"sourceId":"osm"},{"id":"osm:node:3193762751","latitude":42.3399266,"longitude":-3.689803,"name":"Calle Mateo Cerezo near Calle Padre Diego Luis San Vitores","properties":{"access":"unknown","bicycle_pa":"stands","capacity":10,"covered":"no","fee":"","operator":"","nameSource":"junction"},"sourceId":"osm"},{"id":"osm:node:3193762753","latitude":42.3402281,"longitude":-3.6850097,"name":"Acceso Sur a Burgos cycle parking","properties":{"access":"unknown","bicycle_pa":"stands","capacity":8,"covered":"yes","fee":"","operator":"","nameSource":"street"},"sourceId":"osm"},{"id":"osm:node:3193762754","latitude":42.3410942,"longitude":-3.6862288,"name":"Calle Cartuja de Miraflores near Calle Timoteo Arnáiz","properties":{"access":"unknown","bicycle_pa":"stands","capacity":6,"covered":"no","fee":"","operator":"","nameSource":"junction"},"sourceId":"osm"},{"id":"osm:node:3193762755","latitude":42.3412856,"longitude":-3.6576817,"name":"Restaurante Camping Fuentes Blancas cycle parking","properties":{"access":"customers","bicycle_pa":"wall_loops","capacity":10,"covered":"no","fee":"","operator":"","nameSource":"landmark"},"sourceId":"osm"},{"id":"osm:node:3193764267","latitude":42.3425108,"longitude":-3.6624849,"name":"La Ventilla Oeste - S9 cycle parking","properties":{"access":"yes","bicycle_pa":"stands","capacity":20,"covered":"no","fee":"no","operator":"","nameSource":"place"},"sourceId":"osm"},{"id":"osm:node:3193764268","latitude":42.3425606,"longitude":-3.6899074,"name":"Calle Vitoria by Badia","properties":{"access":"unknown","bicycle_pa":"stands","capacity":8,"covered":"no","fee":"","operator":"","nameSource":"landmark"},"sourceId":"osm"},{"id":"osm:node:3193764270","latitude":42.3428665,"longitude":-3.6889565,"name":"Calle Ruiz Dorronsoro near Avenida del Arlanzón","properties":{"access":"unknown","bicycle_pa":"stands","capacity":6,"covered":"no","fee":"","operator":"","nameSource":"junction"},"sourceId":"osm"},{"id":"osm:node:3193764274","latitude":42.3432068,"longitude":-3.6699071,"name":"Paseo de la Quinta cycle parking","properties":{"access":"unknown","bicycle_pa":"stands","capacity":10,"covered":"yes","fee":"","operator":"","nameSource":"street"},"sourceId":"osm"},{"id":"osm:node:3193764280","latitude":42.3445355,"longitude":-3.6757856,"name":"Plaza de los Deportes by Pistas de Hockey, Patinaje y Tenis El Plantío","properties":{"access":"unknown","bicycle_pa":"stands","capacity":18,"covered":"no","fee":"","operator":"","nameSource":"landmark"},"sourceId":"osm"},{"id":"osm:node:3193764282","latitude":42.3447909,"longitude":-3.66806,"name":"Camino El Plantío a Polideportivo Carlos Serna cycle parking","properties":{"access":"unknown","bicycle_pa":"stands","capacity":2,"covered":"no","fee":"","operator":"","nameSource":"street"},"sourceId":"osm"},{"id":"osm:node:3193764283","latitude":42.3452428,"longitude":-3.6718774,"name":"Calle Cascajera by Polideportivo El Plantío","properties":{"access":"unknown","bicycle_pa":"wall_loops","capacity":0,"covered":"no","fee":"","operator":"","nameSource":"landmark"},"sourceId":"osm"},{"id":"osm:node:3193764284","latitude":42.3452589,"longitude":-3.6717863,"name":"Calle Cascajera by Polideportivo El Plantío","properties":{"access":"unknown","bicycle_pa":"stands","capacity":8,"covered":"yes","fee":"","operator":"","nameSource":"landmark"},"sourceId":"osm"},{"id":"osm:node:3193764285","latitude":42.3453509,"longitude":-3.6904447,"name":"Avenida la Paz by Claudia Espiga","properties":{"access":"yes","bicycle_pa":"stands","capacity":4,"covered":"no","fee":"no","operator":"","nameSource":"landmark"},"sourceId":"osm"},{"id":"osm:node:3193764286","latitude":42.3453884,"longitude":-3.668196,"name":"Avenida del Arlanzón by Colegio de Educación Infantil y Primaria Claudio Sánchez Albornoz","properties":{"access":"unknown","bicycle_pa":"stands","capacity":6,"covered":"yes","fee":"","operator":"","nameSource":"landmark"},"sourceId":"osm"},{"id":"osm:node:3193764289","latitude":42.3460202,"longitude":-3.6627193,"name":"Calle Camilo José Cela by Polideportivo Carlos Serna","properties":{"access":"unknown","bicycle_pa":"stands","capacity":6,"covered":"no","fee":"","operator":"","nameSource":"landmark"},"sourceId":"osm"},{"id":"osm:node:3193764290","latitude":42.3463743,"longitude":-3.686744,"name":"Avenida Castilla y León near Plaza Bilbao","properties":{"access":"unknown","bicycle_pa":"stands","capacity":5,"covered":"no","fee":"","operator":"","nameSource":"junction"},"sourceId":"osm"},{"id":"osm:node:3193764292","latitude":42.3468178,"longitude":-3.6871915,"name":"Avenida Cantabria near Plaza Bilbao","properties":{"access":"unknown","bicycle_pa":"stands","capacity":24,"covered":"no","fee":"","operator":"","nameSource":"junction"},"sourceId":"osm"},{"id":"osm:node:3193764293","latitude":42.3478588,"longitude":-3.6895282,"name":"Calle Soria by Colegio Virgen de la Rosa","properties":{"access":"unknown","bicycle_pa":"stands","capacity":16,"covered":"no","fee":"no","operator":"","nameSource":"landmark"},"sourceId":"osm"},{"id":"osm:node:3194939799","latitude":42.3461343,"longitude":-3.6840409,"name":"Calle Farmacéutico Obdulio Fernández near Calle de la Tesorera","properties":{"access":"unknown","bicycle_pa":"stands","capacity":8,"covered":"no","fee":"","operator":"","nameSource":"junction"},"sourceId":"osm"},{"id":"osm:node:3194939800","latitude":42.3461399,"longitude":-3.6799133,"name":"Plaza Dos de Mayo near Calle la Chopera","properties":{"access":"unknown","bicycle_pa":"stands","capacity":8,"covered":"no","fee":"","operator":"","nameSource":"junction"},"sourceId":"osm"},{"id":"osm:node:3194939802","latitude":42.3466308,"longitude":-3.6833193,"name":"Calle Carmen Sallés near Calle Farmacéutico Obdulio Fernández","properties":{"access":"unknown","bicycle_pa":"stands","capacity":6,"covered":"no","fee":"","operator":"","nameSource":"junction"},"sourceId":"osm"},{"id":"osm:node:3194939803","latitude":42.3474364,"longitude":-3.6849765,"name":"Avenida Castilla y León near Calle Raúl Santamaría Alonso","properties":{"access":"unknown","bicycle_pa":"stands","capacity":20,"covered":"no","fee":"","operator":"","nameSource":"junction"},"sourceId":"osm"},{"id":"osm:node:3194939805","latitude":42.3483872,"longitude":-3.6875027,"name":"Paseo Comuneros de Castilla by M.D.S. Peluqueros","properties":{"access":"unknown","bicycle_pa":"stands","capacity":10,"covered":"no","fee":"","operator":"","nameSource":"landmark"},"sourceId":"osm"},{"id":"osm:node:3194939806","latitude":42.3484588,"longitude":-3.6670032,"name":"Avenida de los Derechos Humanos by Draco","properties":{"access":"unknown","bicycle_pa":"stands","capacity":10,"covered":"yes","fee":"","operator":"","nameSource":"landmark"},"sourceId":"osm"},{"id":"osm:node:3194939808","latitude":42.3485877,"longitude":-3.6780825,"name":"Calle Vitoria near Avenida de la Constitución Española","properties":{"access":"unknown","bicycle_pa":"wall_loops","capacity":6,"covered":"no","fee":"","operator":"","nameSource":"junction"},"sourceId":"osm"},{"id":"osm:node:3194939810","latitude":42.3490446,"longitude":-3.6824445,"name":"Avenida Castilla y León by Decimas","properties":{"access":"unknown","bicycle_pa":"stands","capacity":6,"covered":"no","fee":"no","operator":"","nameSource":"landmark"},"sourceId":"osm"},{"id":"osm:node:3194939812","latitude":42.3491123,"longitude":-3.6629203,"name":"Plaza Avelino Antolín Toledano by Bicibur - Piscinas de Capiscol","properties":{"access":"unknown","bicycle_pa":"stands","capacity":12,"covered":"no","fee":"","operator":"","nameSource":"landmark"},"sourceId":"osm"},{"id":"osm:node:3194939813","latitude":42.3491488,"longitude":-3.6628428,"name":"Plaza Avelino Antolín Toledano by Bicibur - Piscinas de Capiscol","properties":{"access":"unknown","bicycle_pa":"stands","capacity":8,"covered":"no","fee":"","operator":"","nameSource":"landmark"},"sourceId":"osm"},{"id":"osm:node:3194939814","latitude":42.3495908,"longitude":-3.6655006,"name":"Pasaje Fernando de Rojas by La Llave","properties":{"access":"unknown","bicycle_pa":"stands","capacity":8,"covered":"no","fee":"","operator":"","nameSource":"landmark"},"sourceId":"osm"},{"id":"osm:node:3194939815","latitude":42.3495057,"longitude":-3.6808807,"name":"Calle María Teresa León cycle parking","properties":{"access":"unknown","bicycle_pa":"stands","capacity":6,"covered":"no","fee":"","operator":"","nameSource":"street"},"sourceId":"osm"},{"id":"osm:node:3194939816","latitude":42.3496883,"longitude":-3.6859479,"name":"Calle Batalla de Villalar by Victoria","properties":{"access":"unknown","bicycle_pa":"stands","capacity":10,"covered":"no","fee":"","operator":"","nameSource":"landmark"},"sourceId":"osm"},{"id":"osm:node:3194939820","latitude":42.350746,"longitude":-3.6892795,"name":"Avenida Cantabria near Calle Eloy García de Quevedo","properties":{"access":"unknown","bicycle_pa":"wall_loops","capacity":0,"covered":"no","fee":"","operator":"","nameSource":"junction"},"sourceId":"osm"},{"id":"osm:node:3194939821","latitude":42.3509425,"longitude":-3.6856076,"name":"Calle Batalla de Villalar cycle parking","properties":{"access":"unknown","bicycle_pa":"stands","capacity":6,"covered":"no","fee":"","operator":"","nameSource":"street"},"sourceId":"osm"},{"id":"osm:node:3194939822","latitude":42.3509905,"longitude":-3.6889336,"name":"Calle Eloy García de Quevedo near Avenida Cantabria","properties":{"access":"unknown","bicycle_pa":"wall_loops","capacity":0,"covered":"no","fee":"","operator":"","nameSource":"junction"},"sourceId":"osm"},{"id":"osm:node:3194939823","latitude":42.3512901,"longitude":-3.6882732,"name":"Calle Eloy García de Quevedo by UNED Centro Asociado de Burgos","properties":{"access":"unknown","bicycle_pa":"stands","capacity":56,"covered":"no","fee":"","operator":"","nameSource":"landmark"},"sourceId":"osm"},{"id":"osm:node:3194939833","latitude":42.3528611,"longitude":-3.6734777,"name":"Calle Alfonso XI near Glorieta Teodoro Tejedor Arranz","properties":{"access":"unknown","bicycle_pa":"wall_loops","capacity":10,"covered":"no","fee":"","operator":"","nameSource":"junction"},"sourceId":"osm"},{"id":"osm:node:3194939835","latitude":42.3529497,"longitude":-3.6684724,"name":"Calle Pablo Ruiz Picasso near Calle Alejandro Yagüe","properties":{"access":"unknown","bicycle_pa":"stands","capacity":8,"covered":"no","fee":"","operator":"","nameSource":"junction"},"sourceId":"osm"},{"id":"osm:node:3194939836","latitude":42.3529879,"longitude":-3.6684896,"name":"Calle Pablo Ruiz Picasso near Calle Vitoria","properties":{"access":"unknown","bicycle_pa":"wall_loops","capacity":10,"covered":"no","fee":"","operator":"","nameSource":"junction"},"sourceId":"osm"},{"id":"osm:node:3194939837","latitude":42.3533962,"longitude":-3.6697938,"name":"Calle Nuestra Señora de la Antigua by Auman","properties":{"access":"unknown","bicycle_pa":"stands","capacity":8,"covered":"no","fee":"","operator":"","nameSource":"landmark"},"sourceId":"osm"},{"id":"osm:node:3194939838","latitude":42.3534304,"longitude":-3.6889736,"name":"Calle Francisco de Vitoria near Calle Rodrigo de Sebastián","properties":{"access":"unknown","bicycle_pa":"stands","capacity":10,"covered":"no","fee":"","operator":"","nameSource":"junction"},"sourceId":"osm"},{"id":"osm:node:3194939839","latitude":42.3536289,"longitude":-3.6864369,"name":"Calle los Canales near Plaza San Juan de los Lagos","properties":{"access":"unknown","bicycle_pa":"wall_loops","capacity":0,"covered":"no","fee":"","operator":"","nameSource":"junction"},"sourceId":"osm"},{"id":"osm:node:3194939840","latitude":42.353671,"longitude":-3.6840104,"name":"Calle Eloy García de Quevedo near Calle los Canales","properties":{"access":"unknown","bicycle_pa":"wall_loops","capacity":6,"covered":"no","fee":"","operator":"","nameSource":"junction"},"sourceId":"osm"},{"id":"osm:node:3194939841","latitude":42.3537202,"longitude":-3.6844466,"name":"Calle los Canales near Calle Eloy García de Quevedo","properties":{"access":"unknown","bicycle_pa":"stands","capacity":8,"covered":"no","fee":"","operator":"","nameSource":"junction"},"sourceId":"osm"},{"id":"osm:node:3194939843","latitude":42.353924,"longitude":-3.6862976,"name":"Calle los Canales near Plaza San Juan de los Lagos","properties":{"access":"unknown","bicycle_pa":"stands","capacity":8,"covered":"no","fee":"","operator":"","nameSource":"junction"},"sourceId":"osm"},{"id":"osm:node:3194939844","latitude":42.3541143,"longitude":-3.6672358,"name":"Calle Nuestra Señora de la Antigua near Calle Eras","properties":{"access":"yes","bicycle_pa":"stands","capacity":8,"covered":"no","fee":"no","operator":"","nameSource":"junction"},"sourceId":"osm"},{"id":"osm:node:3194939845","latitude":42.3541779,"longitude":-3.6764322,"name":"Calle Vicente Aleixandre near Calle Gonzalo de Berceo","properties":{"access":"unknown","bicycle_pa":"wall_loops","capacity":8,"covered":"no","fee":"","operator":"","nameSource":"junction"},"sourceId":"osm"},{"id":"osm:node:3194939846","latitude":42.3542256,"longitude":-3.6760716,"name":"Calle Gonzalo de Berceo by Centro de Salud Las Torres","properties":{"access":"unknown","bicycle_pa":"wall_loops","capacity":8,"covered":"no","fee":"","operator":"","nameSource":"landmark"},"sourceId":"osm"},{"id":"osm:node:3194939847","latitude":42.3548867,"longitude":-3.6739243,"name":"Calle Gonzalo de Berceo cycle parking","properties":{"access":"unknown","bicycle_pa":"stands","capacity":10,"covered":"no","fee":"","operator":"","nameSource":"street"},"sourceId":"osm"},{"id":"osm:node:3194939848","latitude":42.3549265,"longitude":-3.674135,"name":"Calle Gonzalo de Berceo by Instituto de Educación Secundaria Pintor Luis Sáez","properties":{"access":"unknown","bicycle_pa":"stands","capacity":50,"covered":"no","fee":"","operator":"","nameSource":"landmark"},"sourceId":"osm"},{"id":"osm:node:3194939849","latitude":42.3551297,"longitude":-3.6774764,"name":"Calle Vicente Aleixandre near Calle Averroes","properties":{"access":"unknown","bicycle_pa":"stands","capacity":8,"covered":"no","fee":"","operator":"","nameSource":"junction"},"sourceId":"osm"},{"id":"osm:node:3194939850","latitude":42.3553327,"longitude":-3.6748035,"name":"Calle Gonzalo de Berceo near Calle Alfonso XI","properties":{"access":"unknown","bicycle_pa":"stands","capacity":26,"covered":"no","fee":"","operator":"","nameSource":"junction"},"sourceId":"osm"},{"id":"osm:node:3194939851","latitude":42.3553957,"longitude":-3.679174,"name":"Avenida Castilla y León by Oficina de Correos","properties":{"access":"unknown","bicycle_pa":"stands","capacity":2,"covered":"no","fee":"","operator":"","nameSource":"landmark"},"sourceId":"osm"},{"id":"osm:node:3194939852","latitude":42.3568571,"longitude":-3.6559374,"name":"Calle Vitoria near Calle López Rodó","properties":{"access":"unknown","bicycle_pa":"wall_loops","capacity":8,"covered":"no","fee":"","operator":"","nameSource":"junction"},"sourceId":"osm"},{"id":"osm:node:3194939853","latitude":42.357185,"longitude":-3.6801408,"name":"Calle Pintor Manero near Calle Pintor Fortunato Julián","properties":{"access":"unknown","bicycle_pa":"stands","capacity":8,"covered":"no","fee":"","operator":"","nameSource":"junction"},"sourceId":"osm"},{"id":"osm:node:3194939855","latitude":42.3580465,"longitude":-3.6850183,"name":"Parque Entrerríos cycle parking","properties":{"access":"unknown","bicycle_pa":"wall_loops","capacity":0,"covered":"no","fee":"","operator":"","nameSource":"street"},"sourceId":"osm"},{"id":"osm:node:3194939856","latitude":42.3583358,"longitude":-3.670519,"name":"Avenida Castilla y León by Polideportivo Esther San Miguel","properties":{"access":"unknown","bicycle_pa":"wall_loops","capacity":8,"covered":"no","fee":"","operator":"","nameSource":"landmark"},"sourceId":"osm"},{"id":"osm:node:3300272530","latitude":42.3513636,"longitude":-3.6700885,"name":"Calle Alejandro Yagüe near Calle Francisco Grandmontagne","properties":{"access":"yes","bicycle_pa":"stands","capacity":6,"covered":"no","fee":"no","operator":"","nameSource":"junction"},"sourceId":"osm"},{"id":"osm:node:3300272531","latitude":42.3530967,"longitude":-3.6880985,"name":"Calle Francisco de Vitoria cycle parking","properties":{"access":"unknown","bicycle_pa":"stands","capacity":10,"covered":"no","fee":"","operator":"","nameSource":"street"},"sourceId":"osm"},{"id":"osm:node:3319971595","latitude":42.3452185,"longitude":-3.6909061,"name":"Avenida la Paz by Vorwerk","properties":{"access":"unknown","bicycle_pa":"stands","capacity":4,"covered":"no","fee":"","operator":"","nameSource":"landmark"},"sourceId":"osm"},{"id":"osm:node:3344024030","latitude":42.3551738,"longitude":-3.6610014,"name":"Naves Plastimetal by Cynops","properties":{"access":"unknown","bicycle_pa":"wall_loops","capacity":5,"covered":"no","fee":"","operator":"","nameSource":"landmark"},"sourceId":"osm"},{"id":"osm:node:3347594701","latitude":42.3455766,"longitude":-3.6897131,"name":"Calle Segovia near Avenida la Paz","properties":{"access":"yes","bicycle_pa":"stands","capacity":4,"covered":"no","fee":"no","operator":"","nameSource":"junction"},"sourceId":"osm"},{"id":"osm:node:3347930439","latitude":42.3439939,"longitude":-3.6912496,"name":"Calle las Calzadas near Calle Belorado","properties":{"access":"unknown","bicycle_pa":"stands","capacity":10,"covered":"no","fee":"","operator":"","nameSource":"junction"},"sourceId":"osm"},{"id":"osm:node:3347930440","latitude":42.3443967,"longitude":-3.6823753,"name":"Calle Cruz Roja near Calle Dos de Mayo","properties":{"access":"yes","bicycle_pa":"stands","capacity":10,"covered":"no","fee":"no","operator":"","nameSource":"junction"},"sourceId":"osm"},{"id":"osm:node:3347930441","latitude":42.3452879,"longitude":-3.6739113,"name":"Calle Cascajera near Calle Virgilio Mazuela","properties":{"access":"unknown","bicycle_pa":"stands","capacity":12,"covered":"no","fee":"","operator":"","nameSource":"junction"},"sourceId":"osm"},{"id":"osm:node:3347930442","latitude":42.3453702,"longitude":-3.6866936,"name":"Avenida Cantabria near Calle las Calzadas","properties":{"access":"unknown","bicycle_pa":"stands","capacity":12,"covered":"no","fee":"","operator":"","nameSource":"junction"},"sourceId":"osm"},{"id":"osm:node:3347930447","latitude":42.3466794,"longitude":-3.6860756,"name":"Avenida Castilla y León by Plaza Bilbao-Avda Castilla y León","properties":{"access":"unknown","bicycle_pa":"stands","capacity":6,"covered":"no","fee":"","operator":"","nameSource":"landmark"},"sourceId":"osm"},{"id":"osm:node:3347930450","latitude":42.3482987,"longitude":-3.6737837,"name":"Avenida de la Constitución Española near Calle San Bruno","properties":{"access":"unknown","bicycle_pa":"stands","capacity":8,"covered":"no","fee":"","operator":"","nameSource":"junction"},"sourceId":"osm"},{"id":"osm:node:3347930452","latitude":42.3485106,"longitude":-3.6682667,"name":"Calle San Juan de Ortega near Calle Peregrino","properties":{"access":"unknown","bicycle_pa":"stands","capacity":8,"covered":"no","fee":"","operator":"","nameSource":"junction"},"sourceId":"osm"},{"id":"osm:node:3347930453","latitude":42.3486595,"longitude":-3.6683895,"name":"Calle San Juan de Ortega near Calle Peregrino","properties":{"access":"unknown","bicycle_pa":"stands","capacity":8,"covered":"no","fee":"","operator":"","nameSource":"junction"},"sourceId":"osm"},{"id":"osm:node:3347930455","latitude":42.3492778,"longitude":-3.6666692,"name":"Avenida de los Derechos Humanos near Calle Federico García Lorca","properties":{"access":"unknown","bicycle_pa":"stands","capacity":6,"covered":"no","fee":"","operator":"","nameSource":"junction"},"sourceId":"osm"},{"id":"osm:node:3347930456","latitude":42.3494742,"longitude":-3.666026,"name":"Pasaje Fernando de Rojas by Peña de blusas El Capiscol","properties":{"access":"unknown","bicycle_pa":"stands","capacity":8,"covered":"no","fee":"","operator":"","nameSource":"landmark"},"sourceId":"osm"},{"id":"osm:node:3347930459","latitude":42.3503368,"longitude":-3.6863301,"name":"Calle Batalla de Villalar by Escuela Oficial de Idiomas de Burgos","properties":{"access":"unknown","bicycle_pa":"stands","capacity":12,"covered":"no","fee":"","operator":"","nameSource":"landmark"},"sourceId":"osm"},{"id":"osm:node:3347930464","latitude":42.3507165,"longitude":-3.6874165,"name":"Paseo del Pintor Javier Cortés cycle parking","properties":{"access":"unknown","bicycle_pa":"stands","capacity":8,"covered":"no","fee":"","operator":"","nameSource":"street"},"sourceId":"osm"},{"id":"osm:node:3347930466","latitude":42.3508011,"longitude":-3.6870965,"name":"Paseo del Pintor Javier Cortés cycle parking","properties":{"access":"unknown","bicycle_pa":"stands","capacity":8,"covered":"no","fee":"","operator":"","nameSource":"street"},"sourceId":"osm"},{"id":"osm:node:3347930467","latitude":42.351981,"longitude":-3.6913553,"name":"Calle José María de la Puente by Grupodos","properties":{"access":"unknown","bicycle_pa":"stands","capacity":8,"covered":"no","fee":"","operator":"","nameSource":"landmark"},"sourceId":"osm"},{"id":"osm:node:3347930469","latitude":42.352819,"longitude":-3.673462,"name":"Calle Alfonso XI near Calle Lavaderos","properties":{"access":"unknown","bicycle_pa":"stands","capacity":10,"covered":"no","fee":"","operator":"","nameSource":"junction"},"sourceId":"osm"},{"id":"osm:node:3347930470","latitude":42.3528899,"longitude":-3.6748883,"name":"Calle Nuestra Señora de Fátima near Calle Severo Ochoa","properties":{"access":"unknown","bicycle_pa":"stands","capacity":6,"covered":"no","fee":"","operator":"","nameSource":"junction"},"sourceId":"osm"},{"id":"osm:node:3347930471","latitude":42.3537501,"longitude":-3.6908053,"name":"Calle Francisco de Vitoria near Calle Río Nela","properties":{"access":"unknown","bicycle_pa":"stands","capacity":10,"covered":"no","fee":"","operator":"","nameSource":"junction"},"sourceId":"osm"},{"id":"osm:node:3347930472","latitude":42.3556438,"longitude":-3.6652219,"name":"Calle Carmen Conde near Carretera Poza","properties":{"access":"unknown","bicycle_pa":"stands","capacity":4,"covered":"no","fee":"","operator":"","nameSource":"junction"},"sourceId":"osm"},{"id":"osm:node:3347930473","latitude":42.3579004,"longitude":-3.68801,"name":"Calle Pintor Sorolla near Calle Pozanos","properties":{"access":"unknown","bicycle_pa":"stands","capacity":8,"covered":"no","fee":"no","operator":"","nameSource":"junction"},"sourceId":"osm"},{"id":"osm:node:3347930474","latitude":42.3583081,"longitude":-3.6705053,"name":"Avenida Castilla y León by Polideportivo Esther San Miguel","properties":{"access":"unknown","bicycle_pa":"stands","capacity":10,"covered":"no","fee":"","operator":"","nameSource":"landmark"},"sourceId":"osm"},{"id":"osm:node:3348272194","latitude":42.3528538,"longitude":-3.665826,"name":"Calle Pablo Casals cycle parking","properties":{"access":"permissive","bicycle_pa":"stands","capacity":22,"covered":"","fee":"","operator":"","nameSource":"street"},"sourceId":"osm"},{"id":"osm:node:3348272195","latitude":42.3518796,"longitude":-3.6658259,"name":"Pasaje del Mercado by Instituto de Educación Secundaria Félix Rodríguez de la Fuente","properties":{"access":"permissive","bicycle_pa":"stands","capacity":14,"covered":"yes","fee":"","operator":"","nameSource":"landmark"},"sourceId":"osm"},{"id":"osm:node:3353241068","latitude":42.3436751,"longitude":-3.6889101,"name":"Calle Ruiz Dorronsoro near Calle Vitoria","properties":{"access":"unknown","bicycle_pa":"stands","capacity":10,"covered":"no","fee":"no","operator":"","nameSource":"junction"},"sourceId":"osm"},{"id":"osm:node:3353241069","latitude":42.3437124,"longitude":-3.6909525,"name":"Paseo Regino Sáinz de la Maza by Centro de Educación Especial Fray Pedro Ponce de León","properties":{"access":"yes","bicycle_pa":"stands","capacity":6,"covered":"no","fee":"no","operator":"","nameSource":"landmark"},"sourceId":"osm"},{"id":"osm:node:3353241073","latitude":42.3443748,"longitude":-3.6887578,"name":"Calle Segovia near Calle Jesús María Ordoño","properties":{"access":"unknown","bicycle_pa":"stands","capacity":4,"covered":"no","fee":"","operator":"","nameSource":"junction"},"sourceId":"osm"},{"id":"osm:node:3353241074","latitude":42.3446664,"longitude":-3.6890895,"name":"Calle las Calzadas near Calle Segovia","properties":{"access":"unknown","bicycle_pa":"stands","capacity":10,"covered":"no","fee":"","operator":"","nameSource":"junction"},"sourceId":"osm"},{"id":"osm:node:3353241077","latitude":42.3482932,"longitude":-3.6876125,"name":"Calle Juan de Padilla by M.D.S. Peluqueros","properties":{"access":"unknown","bicycle_pa":"stands","capacity":8,"covered":"no","fee":"","operator":"","nameSource":"landmark"},"sourceId":"osm"},{"id":"osm:node:3353241078","latitude":42.3484762,"longitude":-3.6648351,"name":"Pasaje Fernando de Rojas by Polideportivo Mariano Gaspar","properties":{"access":"unknown","bicycle_pa":"stands","capacity":10,"covered":"no","fee":"","operator":"","nameSource":"landmark"},"sourceId":"osm"},{"id":"osm:node:3353241079","latitude":42.3486319,"longitude":-3.6814952,"name":"Calle Farmacéutico Obdulio Fernández near Militares fallecidos accidente YAK 42","properties":{"access":"unknown","bicycle_pa":"stands","capacity":16,"covered":"no","fee":"","operator":"","nameSource":"junction"},"sourceId":"osm"},{"id":"osm:node:3353241081","latitude":42.3487553,"longitude":-3.6797989,"name":"Calle San Roque by Plan B","properties":{"access":"unknown","bicycle_pa":"stands","capacity":6,"covered":"no","fee":"","operator":"","nameSource":"landmark"},"sourceId":"osm"},{"id":"osm:node:3353241082","latitude":42.3491473,"longitude":-3.6626535,"name":"Plaza Avelino Antolín Toledano by Bicibur - Piscinas de Capiscol","properties":{"access":"unknown","bicycle_pa":"stands","capacity":10,"covered":"no","fee":"","operator":"","nameSource":"landmark"},"sourceId":"osm"},{"id":"osm:node:3353241083","latitude":42.3485274,"longitude":-3.6656238,"name":"Pasaje Fernando de Rojas cycle parking","properties":{"access":"unknown","bicycle_pa":"stands","capacity":10,"covered":"yes","fee":"","operator":"","nameSource":"street"},"sourceId":"osm"},{"id":"osm:node:3353241084","latitude":42.3495481,"longitude":-3.6745783,"name":"Plaza Jurista Cirilo Álvarez Martínez by Mío Cid","properties":{"access":"unknown","bicycle_pa":"stands","capacity":6,"covered":"no","fee":"","operator":"","nameSource":"landmark"},"sourceId":"osm"},{"id":"osm:node:3353241085","latitude":42.3498535,"longitude":-3.6866883,"name":"Calle Batalla de Villalar by Instituto de Educación Secundaria Comuneros de Castilla","properties":{"access":"unknown","bicycle_pa":"stands","capacity":20,"covered":"yes","fee":"","operator":"","nameSource":"landmark"},"sourceId":"osm"},{"id":"osm:node:3353241087","latitude":42.3505178,"longitude":-3.663201,"name":"Calle Federico García Lorca near Glorieta Ismael García Rámila","properties":{"access":"unknown","bicycle_pa":"stands","capacity":8,"covered":"no","fee":"","operator":"","nameSource":"junction"},"sourceId":"osm"},{"id":"osm:node:3353241088","latitude":42.3505242,"longitude":-3.6689271,"name":"Calle de la Igualdad near Plaza Roma","properties":{"access":"yes","bicycle_pa":"stands","capacity":10,"covered":"no","fee":"","operator":"","nameSource":"junction"},"sourceId":"osm"},{"id":"osm:node:3353241089","latitude":42.3505336,"longitude":-3.6843588,"name":"Calle Juan de Padilla by Centro de Salud Comuneros","properties":{"access":"unknown","bicycle_pa":"stands","capacity":10,"covered":"no","fee":"","operator":"","nameSource":"landmark"},"sourceId":"osm"},{"id":"osm:node:3353241197","latitude":42.3518252,"longitude":-3.6753256,"name":"Calle Nuestra Señora de Fátima near Calle Lavaderos","properties":{"access":"unknown","bicycle_pa":"stands","capacity":8,"covered":"no","fee":"","operator":"","nameSource":"junction"},"sourceId":"osm"},{"id":"osm:node:3353241199","latitude":42.3518853,"longitude":-3.6740251,"name":"Barriada Juan XXIII cycle parking","properties":{"access":"unknown","bicycle_pa":"stands","capacity":6,"covered":"no","fee":"","operator":"","nameSource":"street"},"sourceId":"osm"},{"id":"osm:node:3353241200","latitude":42.3519018,"longitude":-3.6874937,"name":"Calle Eloy García de Quevedo by Instituto de Educación Secundaria Conde Diego Porcelos","properties":{"access":"unknown","bicycle_pa":"stands","capacity":42,"covered":"no","fee":"","operator":"","nameSource":"landmark"},"sourceId":"osm"},{"id":"osm:node:3353241201","latitude":42.353079,"longitude":-3.664784,"name":"Paraje Buenavista near Calle María Amigo","properties":{"access":"unknown","bicycle_pa":"stands","capacity":10,"covered":"no","fee":"","operator":"","nameSource":"junction"},"sourceId":"osm"},{"id":"osm:node:3353241202","latitude":42.3532154,"longitude":-3.6848388,"name":"Calle Eloy García de Quevedo near Calle los Canales","properties":{"access":"unknown","bicycle_pa":"stands","capacity":10,"covered":"no","fee":"","operator":"","nameSource":"junction"},"sourceId":"osm"},{"id":"osm:node:3353241204","latitude":42.3545488,"longitude":-3.6685488,"name":"Calle Camino Casa la Vega near Calle las Escuelas","properties":{"access":"unknown","bicycle_pa":"stands","capacity":10,"covered":"no","fee":"","operator":"","nameSource":"junction"},"sourceId":"osm"},{"id":"osm:node:3353241205","latitude":42.3547127,"longitude":-3.6711931,"name":"Calle Manuel Altolaguirre near Travesía Casa la Vega","properties":{"access":"unknown","bicycle_pa":"stands","capacity":10,"covered":"no","fee":"","operator":"","nameSource":"junction"},"sourceId":"osm"},{"id":"osm:node:3353241213","latitude":42.3555096,"longitude":-3.6829513,"name":"Calle Pessac near Plaza San Juan de los Lagos","properties":{"access":"unknown","bicycle_pa":"stands","capacity":6,"covered":"no","fee":"","operator":"","nameSource":"junction"},"sourceId":"osm"},{"id":"osm:node:3353241218","latitude":42.3564111,"longitude":-3.6721081,"name":"Calle Gonzalo de Berceo near Calle Manuel Altolaguirre","properties":{"access":"unknown","bicycle_pa":"stands","capacity":5,"covered":"no","fee":"","operator":"","nameSource":"junction"},"sourceId":"osm"},{"id":"osm:node:3369881535","latitude":42.3567315,"longitude":-3.6739834,"name":"Calle Averroes near Calle Bellayna","properties":{"access":"unknown","bicycle_pa":"stands","capacity":8,"covered":"no","fee":"","operator":"","nameSource":"junction"},"sourceId":"osm"},{"id":"osm:node:4051957928","latitude":42.3456122,"longitude":-3.6737902,"name":"Calle Cascajera near Calle Virgilio Mazuela","properties":{"access":"unknown","bicycle_pa":"stands","capacity":10,"covered":"no","fee":"","operator":"","nameSource":"junction"},"sourceId":"osm"},{"id":"osm:node:4220349124","latitude":42.3473104,"longitude":-3.6732505,"name":"Avenida de la Constitución Española by El Molino","properties":{"access":"customers","bicycle_pa":"stands","capacity":24,"covered":"no","fee":"no","operator":"","nameSource":"landmark"},"sourceId":"osm"},{"id":"osm:node:4222733069","latitude":42.3469429,"longitude":-3.6768658,"name":"Calle Cristóbal Acuña by Piscina infantil","properties":{"access":"customers","bicycle_pa":"wall_loops","capacity":10,"covered":"no","fee":"no","operator":"","nameSource":"landmark"},"sourceId":"osm"},{"id":"osm:node:4222733513","latitude":42.3482999,"longitude":-3.6761026,"name":"Avenida de la Constitución Española near Calle Infantería","properties":{"access":"unknown","bicycle_pa":"wall_loops","capacity":12,"covered":"no","fee":"","operator":"","nameSource":"junction"},"sourceId":"osm"},{"id":"osm:node:4519586944","latitude":42.3435867,"longitude":-3.6893073,"name":"Paseo Regino Sáinz de la Maza cycle parking","properties":{"access":"unknown","bicycle_pa":"stands","capacity":22,"covered":"no","fee":"no","operator":"","nameSource":"street"},"sourceId":"osm"},{"id":"osm:node:4758721932","latitude":42.3169047,"longitude":-3.6911019,"name":"Fuente del Pinto cycle parking","properties":{"access":"yes","bicycle_pa":"stands","capacity":6,"covered":"no","fee":"no","operator":"","nameSource":"place"},"sourceId":"osm"},{"id":"osm:node:4974236083","latitude":42.3580451,"longitude":-3.6509074,"name":"Calle Alcalde Martín Cobos near Glorieta Baldomero Nicolás-Correa Barajas","properties":{"access":"unknown","bicycle_pa":"stands","capacity":4,"covered":"no","fee":"","operator":"","nameSource":"junction"},"sourceId":"osm"},{"id":"osm:node:5286707303","latitude":42.3566122,"longitude":-3.6501556,"name":"Naves Taglosa cycle parking","properties":{"access":"unknown","bicycle_pa":"stands","capacity":12,"covered":"no","fee":"","operator":"","nameSource":"street"},"sourceId":"osm"},{"id":"osm:node:5650463639","latitude":42.3554034,"longitude":-3.6905822,"name":"Calle Pozanos near Glorieta Guardia Municipal Faustino Mijangos Martínez","properties":{"access":"yes","bicycle_pa":"stands","capacity":6,"covered":"no","fee":"no","operator":"","nameSource":"junction"},"sourceId":"osm"},{"id":"osm:node:5657395723","latitude":42.3511681,"longitude":-3.6727476,"name":"Calle Vitoria near Calle San Bruno","properties":{"access":"unknown","bicycle_pa":"stands","capacity":6,"covered":"no","fee":"","operator":"","nameSource":"junction"},"sourceId":"osm"},{"id":"osm:node:5657395724","latitude":42.3489743,"longitude":-3.6777105,"name":"Calle San Roque near Glorieta Logroño","properties":{"access":"yes","bicycle_pa":"stands","capacity":6,"covered":"no","fee":"no","operator":"","nameSource":"junction"},"sourceId":"osm"},{"id":"osm:node:5700661337","latitude":42.3519246,"longitude":-3.6713236,"name":"Calle Vitoria near Calle Doña Constanza","properties":{"access":"unknown","bicycle_pa":"stands","capacity":2,"covered":"no","fee":"","operator":"","nameSource":"junction"},"sourceId":"osm"},{"id":"osm:node:5700661338","latitude":42.3530969,"longitude":-3.6692242,"name":"Calle Vitoria near Calle Pablo Ruiz Picasso","properties":{"access":"unknown","bicycle_pa":"stands","capacity":6,"covered":"no","fee":"","operator":"","nameSource":"junction"},"sourceId":"osm"},{"id":"osm:node:5700661339","latitude":42.3460364,"longitude":-3.6874659,"name":"Avenida Cantabria near Plaza Bilbao","properties":{"access":"unknown","bicycle_pa":"stands","capacity":6,"covered":"no","fee":"","operator":"","nameSource":"junction"},"sourceId":"osm"},{"id":"osm:node:5700661340","latitude":42.3464835,"longitude":-3.6878567,"name":"Avenida la Paz near Plaza Bilbao","properties":{"access":"unknown","bicycle_pa":"stands","capacity":4,"covered":"no","fee":"","operator":"","nameSource":"junction"},"sourceId":"osm"},{"id":"osm:node:5700661341","latitude":42.3426372,"longitude":-3.6887448,"name":"Avenida del Arlanzón near Calle Ruiz Dorronsoro","properties":{"access":"unknown","bicycle_pa":"stands","capacity":10,"covered":"no","fee":"","operator":"","nameSource":"junction"},"sourceId":"osm"},{"id":"osm:node:5712451958","latitude":42.3486286,"longitude":-3.6911959,"name":"Avenida Reyes Católicos near Calle Soria","properties":{"access":"unknown","bicycle_pa":"stands","capacity":6,"covered":"no","fee":"","operator":"","nameSource":"junction"},"sourceId":"osm"},{"id":"osm:node:5712451959","latitude":42.3455581,"longitude":-3.6713533,"name":"Calle Cascajera cycle parking","properties":{"access":"unknown","bicycle_pa":"stands","capacity":10,"covered":"no","fee":"","operator":"","nameSource":"street"},"sourceId":"osm"},{"id":"osm:node:5712451960","latitude":42.3447683,"longitude":-3.6791371,"name":"Calle Cascajera near Calle la Chopera","properties":{"access":"unknown","bicycle_pa":"stands","capacity":10,"covered":"no","fee":"","operator":"","nameSource":"junction"},"sourceId":"osm"},{"id":"osm:node:5744549430","latitude":42.3530486,"longitude":-3.67675,"name":"Calle Severo Ochoa by Telepizza","properties":{"access":"unknown","bicycle_pa":"stands","capacity":6,"covered":"no","fee":"","operator":"","nameSource":"landmark"},"sourceId":"osm"},{"id":"osm:node:5744549434","latitude":42.3520426,"longitude":-3.6904769,"name":"Avenida Cantabria near Calle Sagrada Familia","properties":{"access":"unknown","bicycle_pa":"stands","capacity":6,"covered":"no","fee":"","operator":"","nameSource":"junction"},"sourceId":"osm"},{"id":"osm:node:5744549435","latitude":42.350727,"longitude":-3.6875594,"name":"Paseo del Pintor Javier Cortés cycle parking","properties":{"access":"unknown","bicycle_pa":"stands","capacity":10,"covered":"no","fee":"","operator":"","nameSource":"street"},"sourceId":"osm"},{"id":"osm:node:5744549436","latitude":42.3506664,"longitude":-3.6875012,"name":"Paseo del Pintor Javier Cortés cycle parking","properties":{"access":"unknown","bicycle_pa":"stands","capacity":8,"covered":"no","fee":"","operator":"","nameSource":"street"},"sourceId":"osm"},{"id":"osm:node:5744549441","latitude":42.3463301,"longitude":-3.6881427,"name":"Avenida la Paz near Plaza Bilbao","properties":{"access":"unknown","bicycle_pa":"stands","capacity":4,"covered":"no","fee":"","operator":"","nameSource":"junction"},"sourceId":"osm"},{"id":"osm:node:5761631825","latitude":42.352327,"longitude":-3.6859779,"name":"Calle Eloy García de Quevedo near Calle Francisco de Vitoria","properties":{"access":"unknown","bicycle_pa":"stands","capacity":6,"covered":"no","fee":"","operator":"","nameSource":"junction"},"sourceId":"osm"},{"id":"osm:node:5813428393","latitude":42.3500236,"longitude":-3.6718952,"name":"Plaza San Bruno near Calle Santiago Apóstol","properties":{"access":"unknown","bicycle_pa":"stands","capacity":8,"covered":"no","fee":"","operator":"","nameSource":"junction"},"sourceId":"osm"},{"id":"osm:node:5813428394","latitude":42.3497627,"longitude":-3.6701469,"name":"Calle Francisco Grandmontagne near Calle Santiago Apóstol","properties":{"access":"yes","bicycle_pa":"stands","capacity":6,"covered":"no","fee":"no","operator":"","nameSource":"junction"},"sourceId":"osm"},{"id":"osm:node:5813428395","latitude":42.3507075,"longitude":-3.6741179,"name":"Barriada Juan XXIII by Antoñanzas","properties":{"access":"unknown","bicycle_pa":"stands","capacity":8,"covered":"no","fee":"","operator":"","nameSource":"landmark"},"sourceId":"osm"},{"id":"osm:node:5813460704","latitude":42.3470001,"longitude":-3.6688935,"name":"Calle San Juan de Ortega near Calle Real","properties":{"access":"yes","bicycle_pa":"stands","capacity":6,"covered":"no","fee":"","operator":"","nameSource":"junction"},"sourceId":"osm"},{"id":"osm:node:5836845666","latitude":42.3544169,"longitude":-3.6648789,"name":"Calle Vitoria near Calle María Amigo","properties":{"access":"unknown","bicycle_pa":"stands","capacity":8,"covered":"no","fee":"","operator":"","nameSource":"junction"},"sourceId":"osm"},{"id":"osm:node:5836845674","latitude":42.3514098,"longitude":-3.667933,"name":"Plaza Roma by Don Golosito","properties":{"access":"unknown","bicycle_pa":"stands","capacity":6,"covered":"no","fee":"","operator":"","nameSource":"landmark"},"sourceId":"osm"},{"id":"osm:node:5847493336","latitude":42.3441326,"longitude":-3.686578,"name":"Avenida Cantabria near Calle Vitoria","properties":{"access":"unknown","bicycle_pa":"stands","capacity":10,"covered":"no","fee":"","operator":"","nameSource":"junction"},"sourceId":"osm"},{"id":"osm:node:5910439763","latitude":42.3448726,"longitude":-3.6791563,"name":"Calle Cascajera near Calle la Chopera","properties":{"access":"unknown","bicycle_pa":"stands","capacity":10,"covered":"no","fee":"","operator":"","nameSource":"junction"},"sourceId":"osm"},{"id":"osm:node:5910439764","latitude":42.3500343,"longitude":-3.6865304,"name":"Calle Batalla de Villalar by Instituto de Educación Secundaria Comuneros de Castilla","properties":{"access":"unknown","bicycle_pa":"stands","capacity":52,"covered":"yes","fee":"","operator":"","nameSource":"landmark"},"sourceId":"osm"},{"id":"osm:node:5910439765","latitude":42.3519958,"longitude":-3.6875284,"name":"Calle Eloy García de Quevedo by Instituto de Educación Secundaria Conde Diego Porcelos","properties":{"access":"unknown","bicycle_pa":"stands","capacity":8,"covered":"","fee":"","operator":"","nameSource":"landmark"},"sourceId":"osm"},{"id":"osm:node:5910439769","latitude":42.3485359,"longitude":-3.6779696,"name":"Calle Vitoria near Avenida de la Constitución Española","properties":{"access":"unknown","bicycle_pa":"stands","capacity":6,"covered":"no","fee":"","operator":"","nameSource":"junction"},"sourceId":"osm"},{"id":"osm:node:6005440559","latitude":42.3463237,"longitude":-3.6819206,"name":"Calle Vitoria near Calle San Nicolás","properties":{"access":"unknown","bicycle_pa":"stands","capacity":6,"covered":"no","fee":"","operator":"","nameSource":"junction"},"sourceId":"osm"},{"id":"osm:node:6067261764","latitude":42.3357108,"longitude":-3.6188331,"name":"Autovía del Norte cycle parking","properties":{"access":"unknown","bicycle_pa":"","capacity":6,"covered":"","fee":"","operator":"","nameSource":"street"},"sourceId":"osm"},{"id":"osm:node:6069211662","latitude":42.3373894,"longitude":-3.6289427,"name":"Centro de Formación del Profesorado e Innovación Educativa de Burgos cycle parking","properties":{"access":"unknown","bicycle_pa":"","capacity":8,"covered":"","fee":"","operator":"","nameSource":"landmark"},"sourceId":"osm"},{"id":"osm:node:6081938407","latitude":42.3391127,"longitude":-3.6892931,"name":"Calle San Pedro Cardeña by Julton","properties":{"access":"unknown","bicycle_pa":"stands","capacity":10,"covered":"no","fee":"","operator":"","nameSource":"landmark"},"sourceId":"osm"},{"id":"osm:node:6090601907","latitude":42.3504635,"longitude":-3.6729837,"name":"Calle San Bruno near Plaza San Bruno","properties":{"access":"unknown","bicycle_pa":"stands","capacity":8,"covered":"no","fee":"","operator":"","nameSource":"junction"},"sourceId":"osm"},{"id":"osm:node:6107008674","latitude":42.3393543,"longitude":-3.6372184,"name":"C:A:M:P. Fuentes Blancas cycle parking","properties":{"access":"unknown","bicycle_pa":"","capacity":8,"covered":"no","fee":"","operator":"","nameSource":"landmark"},"sourceId":"osm"},{"id":"osm:node:6113351068","latitude":42.3471429,"longitude":-3.6791781,"name":"Plaza Dos de Mayo near Calle Teniente Figueroa","properties":{"access":"yes","bicycle_pa":"stands","capacity":6,"covered":"no","fee":"no","operator":"","nameSource":"junction"},"sourceId":"osm"},{"id":"osm:node:6147202492","latitude":42.3434843,"longitude":-3.6265031,"name":"Calle la Iglesia near Calle Camino del Molino","properties":{"access":"yes","bicycle_pa":"","capacity":3,"covered":"no","fee":"","operator":"","nameSource":"junction"},"sourceId":"osm"},{"id":"osm:node:6164538101","latitude":42.3445822,"longitude":-3.6506914,"name":"Plaza Vista Alegre near Calle San Vicente Mártir","properties":{"access":"unknown","bicycle_pa":"","capacity":10,"covered":"","fee":"","operator":"","nameSource":"junction"},"sourceId":"osm"},{"id":"osm:node:6211133175","latitude":42.3560616,"longitude":-3.6583218,"name":"Calle Vitoria cycle parking","properties":{"access":"unknown","bicycle_pa":"","capacity":0,"covered":"","fee":"","operator":"","nameSource":"street"},"sourceId":"osm"},{"id":"osm:node:6352902364","latitude":42.3508911,"longitude":-3.6815166,"name":"Calle Carderas by Coffee Time","properties":{"access":"unknown","bicycle_pa":"stands","capacity":6,"covered":"no","fee":"","operator":"","nameSource":"landmark"},"sourceId":"osm"},{"id":"osm:node:6441037504","latitude":42.3283715,"longitude":-3.6642884,"name":"Calle de la Plazuela near Calle la Mies","properties":{"access":"unknown","bicycle_pa":"","capacity":4,"covered":"","fee":"","operator":"","nameSource":"junction"},"sourceId":"osm"},{"id":"osm:node:6580176753","latitude":42.3451043,"longitude":-3.6683062,"name":"Avenida del Arlanzón near Calle José Luis Talamillo","properties":{"access":"yes","bicycle_pa":"stands","capacity":4,"covered":"no","fee":"no","operator":"","nameSource":"junction"},"sourceId":"osm"},{"id":"osm:node:6861153959","latitude":42.3379678,"longitude":-3.6578706,"name":"Camino de la Paz near Acceso a la Cartuja de Miraflores","properties":{"access":"unknown","bicycle_pa":"stands","capacity":8,"covered":"no","fee":"","operator":"","nameSource":"junction"},"sourceId":"osm"},{"id":"osm:node:7175928056","latitude":42.3528348,"longitude":-3.690374,"name":"Avenida de Cantabria by Colegio de Educación Infantil y Primaria Francisco de Vitoria","properties":{"access":"unknown","bicycle_pa":"","capacity":10,"covered":"","fee":"","operator":"","nameSource":"landmark"},"sourceId":"osm"},{"id":"osm:node:7191634220","latitude":42.3572139,"longitude":-3.6863227,"name":"Calle Río Trueba near Calle la Iglesia","properties":{"access":"yes","bicycle_pa":"stands","capacity":6,"covered":"no","fee":"no","operator":"","nameSource":"junction"},"sourceId":"osm"},{"id":"osm:node:7231349676","latitude":42.3463213,"longitude":-3.6887786,"name":"Avenida la Paz by En otra Época","properties":{"access":"unknown","bicycle_pa":"","capacity":6,"covered":"","fee":"","operator":"","nameSource":"landmark"},"sourceId":"osm"},{"id":"osm:node:7488503980","latitude":42.342604,"longitude":-3.675275,"name":"Paseo de la Quinta cycle parking","properties":{"access":"unknown","bicycle_pa":"stands","capacity":16,"covered":"no","fee":"","operator":"","nameSource":"street"},"sourceId":"osm"},{"id":"osm:node:7840989418","latitude":42.3462206,"longitude":-3.6698872,"name":"Calle Camino Negro near Calle Molino Salinas","properties":{"access":"yes","bicycle_pa":"wall_loops","capacity":6,"covered":"no","fee":"no","operator":"","nameSource":"junction"},"sourceId":"osm"},{"id":"osm:node:8038014357","latitude":42.3448745,"longitude":-3.6794119,"name":"Calle la Chopera near Calle Cascajera","properties":{"access":"unknown","bicycle_pa":"stands","capacity":10,"covered":"no","fee":"","operator":"","nameSource":"junction"},"sourceId":"osm"},{"id":"osm:node:8038014360","latitude":42.344819,"longitude":-3.6794089,"name":"Calle Cascajera near Calle la Chopera","properties":{"access":"unknown","bicycle_pa":"stands","capacity":10,"covered":"no","fee":"","operator":"","nameSource":"junction"},"sourceId":"osm"},{"id":"osm:node:8536313983","latitude":42.354833,"longitude":-3.6618192,"name":"Naves Plastimetal by GYM Burgos","properties":{"access":"unknown","bicycle_pa":"bollard","capacity":8,"covered":"no","fee":"","operator":"","nameSource":"landmark"},"sourceId":"osm"},{"id":"osm:node:8607414284","latitude":42.3564028,"longitude":-3.6625565,"name":"Calle Enebro near Calle Sauce","properties":{"access":"unknown","bicycle_pa":"","capacity":5,"covered":"","fee":"","operator":"","nameSource":"junction"},"sourceId":"osm"},{"id":"osm:node:8607414285","latitude":42.3550578,"longitude":-3.6626749,"name":"Calle Vitoria by Bicibur - Esteban Sáez Alvarado-Vitoria","properties":{"access":"unknown","bicycle_pa":"","capacity":4,"covered":"no","fee":"","operator":"","nameSource":"landmark"},"sourceId":"osm"},{"id":"osm:node:8607414286","latitude":42.354308,"longitude":-3.6623627,"name":"Calle Juan Ramón Jiménez near Calle Pablo Casals","properties":{"access":"unknown","bicycle_pa":"wall_loops","capacity":24,"covered":"no","fee":"","operator":"","nameSource":"junction"},"sourceId":"osm"},{"id":"osm:node:8637541120","latitude":42.3459526,"longitude":-3.6868729,"name":"Avenida Cantabria near Plaza Bilbao","properties":{"access":"unknown","bicycle_pa":"stands","capacity":2,"covered":"no","fee":"","operator":"","nameSource":"junction"},"sourceId":"osm"},{"id":"osm:node:8637541121","latitude":42.3465193,"longitude":-3.6864886,"name":"Avenida Castilla y León near Plaza Bilbao","properties":{"access":"unknown","bicycle_pa":"stands","capacity":2,"covered":"no","fee":"","operator":"","nameSource":"junction"},"sourceId":"osm"},{"id":"osm:node:8638265098","latitude":42.3494203,"longitude":-3.6863497,"name":"Calle Batalla de Villalar cycle parking","properties":{"access":"unknown","bicycle_pa":"","capacity":0,"covered":"","fee":"","operator":"","nameSource":"street"},"sourceId":"osm"},{"id":"osm:node:9042315128","latitude":42.3476462,"longitude":-3.6748383,"name":"Avenida de la Constitución Española by Frontón cubierto","properties":{"access":"unknown","bicycle_pa":"stands","capacity":12,"covered":"no","fee":"no","operator":"","nameSource":"landmark"},"sourceId":"osm"},{"id":"osm:node:9186707231","latitude":42.3551848,"longitude":-3.6611926,"name":"Naves Plastimetal by Cynops","properties":{"access":"unknown","bicycle_pa":"wall_loops","capacity":2,"covered":"no","fee":"no","operator":"","nameSource":"landmark"},"sourceId":"osm"},{"id":"osm:node:9238796057","latitude":42.3495287,"longitude":-3.6727187,"name":"Calle San Bruno near Calle Santiago Apóstol","properties":{"access":"yes","bicycle_pa":"stands","capacity":10,"covered":"no","fee":"no","operator":"","nameSource":"junction"},"sourceId":"osm"},{"id":"osm:node:9239882116","latitude":42.3410637,"longitude":-3.681284,"name":"Calle San Pedro Cardeña by AIR ROCK","properties":{"access":"yes","bicycle_pa":"stands","capacity":12,"covered":"no","fee":"","operator":"","nameSource":"landmark"},"sourceId":"osm"},{"id":"osm:node:9244314156","latitude":42.3515277,"longitude":-3.6907887,"name":"Calle Sagrada Familia near Avenida Cantabria","properties":{"access":"yes","bicycle_pa":"stands","capacity":12,"covered":"","fee":"no","operator":"","nameSource":"junction"},"sourceId":"osm"},{"id":"osm:node:9244321338","latitude":42.3452488,"longitude":-3.6855274,"name":"Calle Farmacéutico Obdulio Fernández near Calle Maestro Justo del Río","properties":{"access":"unknown","bicycle_pa":"stands","capacity":12,"covered":"no","fee":"no","operator":"","nameSource":"junction"},"sourceId":"osm"},{"id":"osm:node:9245502903","latitude":42.3562317,"longitude":-3.6636689,"name":"Calle Esteban Sáez Alvarado near Carretera Poza","properties":{"access":"unknown","bicycle_pa":"stands","capacity":12,"covered":"no","fee":"","operator":"","nameSource":"junction"},"sourceId":"osm"},{"id":"osm:node:9258290477","latitude":42.3486341,"longitude":-3.6886198,"name":"Avenida Cantabria near Calle Batalla de Villalar","properties":{"access":"unknown","bicycle_pa":"stands","capacity":12,"covered":"no","fee":"no","operator":"","nameSource":"junction"},"sourceId":"osm"},{"id":"osm:node:9265116702","latitude":42.3430351,"longitude":-3.6790292,"name":"Paseo de los Atletas cycle parking","properties":{"access":"yes","bicycle_pa":"stands","capacity":14,"covered":"no","fee":"no","operator":"","nameSource":"street"},"sourceId":"osm"},{"id":"osm:node:9265127425","latitude":42.3563014,"longitude":-3.6896199,"name":"Calle Pozanos cycle parking","properties":{"access":"yes","bicycle_pa":"stands","capacity":10,"covered":"no","fee":"no","operator":"","nameSource":"street"},"sourceId":"osm"},{"id":"osm:node:9265139575","latitude":42.3502316,"longitude":-3.6602843,"name":"Calle Juan Ramón Jiménez near Paseo de Juan Ramón Jiménez","properties":{"access":"customers","bicycle_pa":"stands","capacity":6,"covered":"no","fee":"no","operator":"","nameSource":"junction"},"sourceId":"osm"},{"id":"osm:node:9265139576","latitude":42.3505265,"longitude":-3.6600719,"name":"Calle la Demanda cycle parking","properties":{"access":"customers","bicycle_pa":"stands","capacity":6,"covered":"no","fee":"no","operator":"","nameSource":"street"},"sourceId":"osm"},{"id":"osm:node:9270242879","latitude":42.3497385,"longitude":-3.6680022,"name":"Calle Santiago Apóstol near Calle San Juan de Ortega","properties":{"access":"yes","bicycle_pa":"stands","capacity":12,"covered":"no","fee":"no","operator":"","nameSource":"junction"},"sourceId":"osm"},{"id":"osm:node:9270242881","latitude":42.3538685,"longitude":-3.668129,"name":"Calle Nuestra Señora de la Antigua by Vitoria 203","properties":{"access":"yes","bicycle_pa":"stands","capacity":12,"covered":"no","fee":"no","operator":"","nameSource":"landmark"},"sourceId":"osm"},{"id":"osm:node:9289002674","latitude":42.3539829,"longitude":-3.672439,"name":"Calle Severo Ochoa near Calle los Titos","properties":{"access":"unknown","bicycle_pa":"stands","capacity":12,"covered":"no","fee":"no","operator":"","nameSource":"junction"},"sourceId":"osm"},{"id":"osm:node:9291149738","latitude":42.3523659,"longitude":-3.6812222,"name":"Calle Carderas by Azorín","properties":{"access":"yes","bicycle_pa":"stands","capacity":12,"covered":"no","fee":"no","operator":"","nameSource":"landmark"},"sourceId":"osm"},{"id":"osm:node:9291149739","latitude":42.3522013,"longitude":-3.6912509,"name":"Calle Federico Martínez Varea near Avenida Cantabria","properties":{"access":"unknown","bicycle_pa":"stands","capacity":12,"covered":"no","fee":"no","operator":"","nameSource":"junction"},"sourceId":"osm"},{"id":"osm:node:9299789913","latitude":42.3503338,"longitude":-3.666918,"name":"Calle de la Igualdad near Avenida de los Derechos Humanos","properties":{"access":"yes","bicycle_pa":"stands","capacity":12,"covered":"no","fee":"no","operator":"","nameSource":"junction"},"sourceId":"osm"},{"id":"osm:node:9351103000","latitude":42.3490507,"longitude":-3.6824992,"name":"Avenida Castilla y León by Decimas","properties":{"access":"unknown","bicycle_pa":"stands","capacity":12,"covered":"no","fee":"no","operator":"","nameSource":"landmark"},"sourceId":"osm"},{"id":"osm:node:9434639040","latitude":42.3466785,"longitude":-3.6835417,"name":"Calle Carmen Sallés near Calle Farmacéutico Obdulio Fernández","properties":{"access":"unknown","bicycle_pa":"stands","capacity":12,"covered":"no","fee":"no","operator":"","nameSource":"junction"},"sourceId":"osm"},{"id":"osm:node:9434639041","latitude":42.3433534,"longitude":-3.6870174,"name":"Plaza Santa Casilda near Avenida del Arlanzón","properties":{"access":"unknown","bicycle_pa":"stands","capacity":12,"covered":"no","fee":"no","operator":"","nameSource":"junction"},"sourceId":"osm"},{"id":"osm:node:9442784945","latitude":42.3433678,"longitude":-3.6897725,"name":"Paseo Regino Sáinz de la Maza by Luján","properties":{"access":"unknown","bicycle_pa":"stands","capacity":12,"covered":"no","fee":"no","operator":"","nameSource":"landmark"},"sourceId":"osm"},{"id":"osm:node:9484000231","latitude":42.339668,"longitude":-3.6883274,"name":"Calle Maestro Ricardo near Calle San Pedro Cardeña","properties":{"access":"yes","bicycle_pa":"stands","capacity":12,"covered":"no","fee":"no","operator":"","nameSource":"junction"},"sourceId":"osm"},{"id":"osm:node:9495151508","latitude":42.3452294,"longitude":-3.6790257,"name":"Calle la Chopera near Calle Dos de Mayo","properties":{"access":"customers","bicycle_pa":"wall_loops","capacity":12,"covered":"yes","fee":"no","operator":"","nameSource":"junction"},"sourceId":"osm"},{"id":"osm:node:9495151509","latitude":42.3458641,"longitude":-3.6781702,"name":"Calle Cristóbal Acuña near Calle Arzobispo Pérez Cecilia","properties":{"access":"yes","bicycle_pa":"stands","capacity":6,"covered":"no","fee":"no","operator":"","nameSource":"junction"},"sourceId":"osm"},{"id":"osm:node:9561129009","latitude":42.3571505,"longitude":-3.6863532,"name":"Calle Río Trueba near Calle la Iglesia","properties":{"access":"yes","bicycle_pa":"stands","capacity":12,"covered":"no","fee":"no","operator":"","nameSource":"junction"},"sourceId":"osm"},{"id":"osm:node:9561129013","latitude":42.3516519,"longitude":-3.6839,"name":"Calle Juan de Padilla by Gil","properties":{"access":"yes","bicycle_pa":"stands","capacity":12,"covered":"no","fee":"no","operator":"","nameSource":"landmark"},"sourceId":"osm"},{"id":"osm:node:9603553577","latitude":42.3532543,"longitude":-3.6637204,"name":"Paraje Buenavista by Toñi","properties":{"access":"yes","bicycle_pa":"stands","capacity":12,"covered":"no","fee":"no","operator":"","nameSource":"landmark"},"sourceId":"osm"},{"id":"osm:node:9726262350","latitude":42.3152788,"longitude":-3.687183,"name":"BU-800 cycle parking","properties":{"access":"yes","bicycle_pa":"","capacity":6,"covered":"no","fee":"no","operator":"","nameSource":"street"},"sourceId":"osm"},{"id":"osm:node:9747027450","latitude":42.3469382,"longitude":-3.6693499,"name":"Calle Molino Salinas near Calle Real","properties":{"access":"unknown","bicycle_pa":"","capacity":10,"covered":"","fee":"","operator":"","nameSource":"junction"},"sourceId":"osm"},{"id":"osm:way:1245100429","latitude":42.356529179999995,"longitude":-3.69103156,"name":"Calle Hermano Fortunato García by Colegio Liceo Castilla - Maristas","properties":{"access":"yes","bicycle_pa":"wave","capacity":7,"covered":"yes","fee":"no","operator":"","nameSource":"landmark"},"sourceId":"osm"},{"id":"osm:way:1268817094","latitude":42.356896799999994,"longitude":-3.6912838800000003,"name":"Calle Hermano Fortunato García by Colegio Liceo Castilla - Maristas","properties":{"access":"yes","bicycle_pa":"stands","capacity":12,"covered":"yes","fee":"no","operator":"","nameSource":"landmark"},"sourceId":"osm"},{"id":"osm:way:859400021","latitude":42.34304105,"longitude":-3.6790016000000003,"name":"Paseo de los Atletas cycle parking","properties":{"access":"unknown","bicycle_pa":"wall_loops","capacity":14,"covered":"no","fee":"","operator":"","nameSource":"street"},"sourceId":"osm"}],"schemaVersion":2}
