{"key":"12/2051/1362","points":[{"id":"osm:node:10585448350","latitude":51.4978067,"longitude":0.3290064,"name":"Crammavill Street near Harty Close","properties":{"access":"yes","bicycle_pa":"stands","capacity":2,"covered":"no","fee":"no","operator":"","nameSource":"junction"},"sourceId":"osm"},{"id":"osm:node:10585448351","latitude":51.497808,"longitude":0.3290252,"name":"Crammavill Street near Harty Close","properties":{"access":"yes","bicycle_pa":"stands","capacity":2,"covered":"no","fee":"no","operator":"","nameSource":"junction"},"sourceId":"osm"},{"id":"osm:node:10585448352","latitude":51.4979036,"longitude":0.3290238,"name":"Crammavill Street near Harty Close","properties":{"access":"yes","bicycle_pa":"stands","capacity":2,"covered":"no","fee":"no","operator":"","nameSource":"junction"},"sourceId":"osm"},{"id":"osm:node:10585448353","latitude":51.4979078,"longitude":0.3290681,"name":"Crammavill Street near Harty Close","properties":{"access":"yes","bicycle_pa":"stands","capacity":2,"covered":"no","fee":"no","operator":"","nameSource":"junction"},"sourceId":"osm"},{"id":"osm:node:10585448357","latitude":51.4979883,"longitude":0.3299767,"name":"Crammavill Street near Fairway","properties":{"access":"yes","bicycle_pa":"stands","capacity":2,"covered":"no","fee":"no","operator":"","nameSource":"junction"},"sourceId":"osm"},{"id":"osm:node:10585448358","latitude":51.4979896,"longitude":0.3299995,"name":"Crammavill Street near Fairway","properties":{"access":"yes","bicycle_pa":"stands","capacity":2,"covered":"no","fee":"no","operator":"","nameSource":"junction"},"sourceId":"osm"},{"id":"osm:node:10585448359","latitude":51.497879,"longitude":0.329862,"name":"Crammavill Street near Fairway","properties":{"access":"yes","bicycle_pa":"stands","capacity":2,"covered":"no","fee":"no","operator":"","nameSource":"junction"},"sourceId":"osm"},{"id":"osm:node:10585448360","latitude":51.4978815,"longitude":0.3298882,"name":"Crammavill Street near Fairway","properties":{"access":"yes","bicycle_pa":"stands","capacity":2,"covered":"no","fee":"no","operator":"","nameSource":"junction"},"sourceId":"osm"},{"id":"osm:node:10940498938","latitude":51.4848075,"longitude":0.2786326,"name":"West Thurrock Way by Lidl","properties":{"access":"yes","bicycle_pa":"stands","capacity":12,"covered":"no","fee":"no","operator":"","nameSource":"landmark"},"sourceId":"osm"},{"id":"osm:node:12400212733","latitude":51.4876202,"longitude":0.2709704,"name":"Weston Avenue by Pausa","properties":{"access":"unknown","bicycle_pa":"stands","capacity":12,"covered":"yes","fee":"","operator":"","nameSource":"landmark"},"sourceId":"osm"},{"id":"osm:node:12400215057","latitude":51.4871866,"longitude":0.2701163,"name":"Weston Avenue by RH Outlet","properties":{"access":"unknown","bicycle_pa":"stands","capacity":10,"covered":"no","fee":"","operator":"","nameSource":"landmark"},"sourceId":"osm"},{"id":"osm:node:12400231812","latitude":51.4868242,"longitude":0.2700341,"name":"Weston Avenue by Poundland","properties":{"access":"unknown","bicycle_pa":"stands","capacity":8,"covered":"no","fee":"","operator":"","nameSource":"landmark"},"sourceId":"osm"},{"id":"osm:node:12514235841","latitude":51.4921587,"longitude":0.2946152,"name":"Arterial Road West Thurrock by Argos","properties":{"access":"unknown","bicycle_pa":"stands","capacity":4,"covered":"no","fee":"","operator":"","nameSource":"landmark"},"sourceId":"osm"},{"id":"osm:node:12563266521","latitude":51.4887222,"longitude":0.2759689,"name":"Tesco Café cycle parking","properties":{"access":"unknown","bicycle_pa":"stands","capacity":12,"covered":"yes","fee":"","operator":"","nameSource":"landmark"},"sourceId":"osm"},{"id":"osm:node:12563266522","latitude":51.4888953,"longitude":0.2766707,"name":"Pod Point cycle parking","properties":{"access":"unknown","bicycle_pa":"stands","capacity":12,"covered":"yes","fee":"","operator":"","nameSource":"landmark"},"sourceId":"osm"},{"id":"osm:node:12563266523","latitude":51.4886651,"longitude":0.2757466,"name":"Tesco Café cycle parking","properties":{"access":"unknown","bicycle_pa":"stands","capacity":30,"covered":"yes","fee":"","operator":"","nameSource":"landmark"},"sourceId":"osm"},{"id":"osm:node:12667115404","latitude":51.4764287,"longitude":0.2670421,"name":"London Road near St Clement's Way","properties":{"access":"unknown","bicycle_pa":"stands","capacity":4,"covered":"no","fee":"","operator":"","nameSource":"junction"},"sourceId":"osm"},{"id":"osm:node:12708071986","latitude":51.4892165,"longitude":0.2813864,"name":"The Quay by TGI Fridays","properties":{"access":"unknown","bicycle_pa":"stands","capacity":34,"covered":"yes","fee":"","operator":"","nameSource":"landmark"},"sourceId":"osm"},{"id":"osm:node:12723125273","latitude":51.485905,"longitude":0.2853153,"name":"A126 by Upside Down House","properties":{"access":"unknown","bicycle_pa":"stands","capacity":8,"covered":"no","fee":"","operator":"","nameSource":"landmark"},"sourceId":"osm"},{"id":"osm:node:12723140936","latitude":51.487645,"longitude":0.2851945,"name":"A126 by Primark","properties":{"access":"unknown","bicycle_pa":"stands","capacity":12,"covered":"no","fee":"","operator":"","nameSource":"landmark"},"sourceId":"osm"},{"id":"osm:node:12723144423","latitude":51.4892365,"longitude":0.2846418,"name":"Robert Dyas cycle parking","properties":{"access":"unknown","bicycle_pa":"wall_loops","capacity":4,"covered":"no","fee":"","operator":"","nameSource":"landmark"},"sourceId":"osm"},{"id":"osm:node:1831397356","latitude":51.4764641,"longitude":0.3217658,"name":"Crown Road near High Street","properties":{"access":"unknown","bicycle_pa":"","capacity":8,"covered":"no","fee":"","operator":"","nameSource":"junction"},"sourceId":"osm"},{"id":"osm:node:1831397380","latitude":51.4781807,"longitude":0.3230542,"name":"High Street near Clarence Road","properties":{"access":"unknown","bicycle_pa":"","capacity":4,"covered":"no","fee":"","operator":"","nameSource":"junction"},"sourceId":"osm"},{"id":"osm:node:4909111077","latitude":51.4800123,"longitude":0.2838032,"name":"Heron Way near Motherwell Way","properties":{"access":"unknown","bicycle_pa":"stands","capacity":6,"covered":"no","fee":"","operator":"","nameSource":"junction"},"sourceId":"osm"},{"id":"osm:way:1190056259","latitude":51.489861659999995,"longitude":0.30422242,"name":"Drake Road by Armada Pharmacy","properties":{"access":"unknown","bicycle_pa":"stands","capacity":6,"covered":"no","fee":"","operator":"","nameSource":"landmark"},"sourceId":"osm"},{"id":"osm:way:1193755596","latitude":51.48809024,"longitude":0.28449452,"name":"Zara cycle parking","properties":{"access":"unknown","bicycle_pa":"stands","capacity":8,"covered":"yes","fee":"","operator":"","nameSource":"landmark"},"sourceId":"osm"},{"id":"osm:way:1193755598","latitude":51.48706032,"longitude":0.28473032,"name":"Brompton Walk cycle parking","properties":{"access":"unknown","bicycle_pa":"stands","capacity":12,"covered":"yes","fee":"","operator":"","nameSource":"street"},"sourceId":"osm"},{"id":"osm:way:1292746614","latitude":51.48627954,"longitude":0.27268086,"name":"West Thurrock Way by Game","properties":{"access":"unknown","bicycle_pa":"","capacity":0,"covered":"","fee":"","operator":"","nameSource":"landmark"},"sourceId":"osm"},{"id":"osm:way:246708916","latitude":51.48572696,"longitude":0.28783548,"name":"Fleming Road Roundabout near Fleming Road","properties":{"access":"unknown","bicycle_pa":"","capacity":0,"covered":"","fee":"","operator":"C2C","nameSource":"junction"},"sourceId":"osm"}],"schemaVersion":2}
