{"key":"12/2037/1338","points":[{"id":"osm:node:12419174501","latitude":52.765198,"longitude":-0.885136,"name":"Windsor Street near King Street","properties":{"access":"unknown","bicycle_pa":"","capacity":0,"covered":"no","fee":"","operator":"","nameSource":"junction"},"sourceId":"osm"},{"id":"osm:node:12419174601","latitude":52.7611252,"longitude":-0.8851639,"name":"Burton Road by Melton Mowbray","properties":{"access":"unknown","bicycle_pa":"","capacity":0,"covered":"","fee":"","operator":"","nameSource":"landmark"},"sourceId":"osm"},{"id":"osm:node:12419174701","latitude":52.7611501,"longitude":-0.8856081,"name":"Melton Mowbray cycle parking","properties":{"access":"unknown","bicycle_pa":"","capacity":0,"covered":"","fee":"","operator":"","nameSource":"landmark"},"sourceId":"osm"},{"id":"osm:node:13726366463","latitude":52.7659202,"longitude":-0.8902349,"name":"Wilton Road by Melton Mowbray Library and Adult Learning Centre","properties":{"access":"unknown","bicycle_pa":"stands","capacity":6,"covered":"yes","fee":"","operator":"","nameSource":"landmark"},"sourceId":"osm"},{"id":"osm:node:4258518275","latitude":52.7689059,"longitude":-0.8931069,"name":"Nottingham Road by Sainsbury's","properties":{"access":"unknown","bicycle_pa":"stands","capacity":22,"covered":"yes","fee":"","operator":"","nameSource":"landmark"},"sourceId":"osm"},{"id":"osm:way:1060298525","latitude":52.773205899999994,"longitude":-0.9237344999999999,"name":"Asfordby Hill cycle parking","properties":{"access":"unknown","bicycle_pa":"","capacity":0,"covered":"yes","fee":"","operator":"","nameSource":"place"},"sourceId":"osm"},{"id":"osm:way:1060298526","latitude":52.7732334,"longitude":-0.92381282,"name":"Asfordby Hill cycle parking","properties":{"access":"unknown","bicycle_pa":"","capacity":0,"covered":"yes","fee":"","operator":"","nameSource":"place"},"sourceId":"osm"},{"id":"osm:way:938057874","latitude":52.782212300000005,"longitude":-0.8872551,"name":"Scalford Road cycle parking","properties":{"access":"unknown","bicycle_pa":"","capacity":0,"covered":"","fee":"","operator":"","nameSource":"street"},"sourceId":"osm"}],"schemaVersion":2}
