{"key":"12/2037/1357","points":[{"id":"osm:node:5721248365","latitude":51.7733495,"longitude":-0.9191233,"name":"Stanbridge Road near Wood Ways","properties":{"access":"unknown","bicycle_pa":"wall_loops","capacity":6,"covered":"","fee":"","operator":"","nameSource":"junction"},"sourceId":"osm"},{"id":"osm:node:5721248367","latitude":51.7725633,"longitude":-0.9222974,"name":"Harts Road near Roberts Road","properties":{"access":"unknown","bicycle_pa":"stands","capacity":6,"covered":"","fee":"","operator":"","nameSource":"junction"},"sourceId":"osm"},{"id":"osm:node:5721248576","latitude":51.7731738,"longitude":-0.9225377,"name":"Wood Ways cycle parking","properties":{"access":"unknown","bicycle_pa":"stands","capacity":0,"covered":"","fee":"","operator":"","nameSource":"street"},"sourceId":"osm"},{"id":"osm:node:5721248578","latitude":51.7732935,"longitude":-0.9225337,"name":"Wood Ways cycle parking","properties":{"access":"unknown","bicycle_pa":"stands","capacity":0,"covered":"","fee":"","operator":"","nameSource":"street"},"sourceId":"osm"},{"id":"osm:node:5721248615","latitude":51.7726288,"longitude":-0.9255633,"name":"Churchway near Printers Piece","properties":{"access":"unknown","bicycle_pa":"stands","capacity":6,"covered":"","fee":"","operator":"","nameSource":"junction"},"sourceId":"osm"},{"id":"osm:node:5721248724","latitude":51.7732201,"longitude":-0.9257906,"name":"Banks Road near Churchway","properties":{"access":"unknown","bicycle_pa":"stands","capacity":6,"covered":"","fee":"","operator":"","nameSource":"junction"},"sourceId":"osm"},{"id":"osm:node:5721249018","latitude":51.7730807,"longitude":-0.9284386,"name":"Fort End near Stockwell","properties":{"access":"unknown","bicycle_pa":"stands","capacity":4,"covered":"","fee":"","operator":"","nameSource":"junction"},"sourceId":"osm"},{"id":"osm:node:9308411035","latitude":51.7406958,"longitude":-0.9369103,"name":"Chinnor Road near Church Lane","properties":{"access":"unknown","bicycle_pa":"stands","capacity":10,"covered":"no","fee":"","operator":"","nameSource":"junction"},"sourceId":"osm"},{"id":"osm:way:586590884","latitude":51.77076832,"longitude":-0.9427581,"name":"Thame Road by Little Italy","properties":{"access":"unknown","bicycle_pa":"","capacity":0,"covered":"yes","fee":"","operator":"","nameSource":"landmark"},"sourceId":"osm"}],"schemaVersion":2}
