{"key":"12/2037/1373","points":[{"id":"osm:node:2276239814","latitude":50.8850225,"longitude":-0.9222253,"name":"Stansted Farm Shop cycle parking","properties":{"access":"unknown","bicycle_pa":"wall_loops","capacity":16,"covered":"no","fee":"","operator":"","nameSource":"landmark"},"sourceId":"osm"},{"id":"osm:node:2706771947","latitude":50.862082,"longitude":-0.8995295,"name":"Woodmancote Lane by The Woodmancote","properties":{"access":"unknown","bicycle_pa":"stands","capacity":4,"covered":"no","fee":"","operator":"","nameSource":"landmark"},"sourceId":"osm"},{"id":"osm:node:3231078615","latitude":50.8512828,"longitude":-0.9382596,"name":"North Street near Sultan Road","properties":{"access":"unknown","bicycle_pa":"shed","capacity":16,"covered":"yes","fee":"","operator":"","nameSource":"junction"},"sourceId":"osm"},{"id":"osm:node:3231078625","latitude":50.8514098,"longitude":-0.9382838,"name":"North Street near New Brighton Road","properties":{"access":"unknown","bicycle_pa":"stands","capacity":8,"covered":"no","fee":"","operator":"","nameSource":"junction"},"sourceId":"osm"},{"id":"osm:node:3884601740","latitude":50.8516982,"longitude":-0.9381063,"name":"New Brighton Road near North Street","properties":{"access":"unknown","bicycle_pa":"shed","capacity":24,"covered":"yes","fee":"","operator":"","nameSource":"junction"},"sourceId":"osm"}],"schemaVersion":2}
