{"key":"12/2037/1525","points":[{"id":"osm:node:10184250817","latitude":41.6496934,"longitude":-0.8811731,"name":"Calle de Isaac Peral near Calle de Felipe Sanclemente","properties":{"access":"unknown","bicycle_pa":"stands","capacity":10,"covered":"no","fee":"","operator":"","nameSource":"junction"},"sourceId":"osm"},{"id":"osm:node:10195505550","latitude":41.6418732,"longitude":-0.8975897,"name":"Romareda cycle parking","properties":{"access":"unknown","bicycle_pa":"two-tier","capacity":28,"covered":"yes","fee":"","operator":"","nameSource":"place"},"sourceId":"osm"},{"id":"osm:node:10282734120","latitude":41.6441092,"longitude":-0.8822215,"name":"Calle de San Vicente Mártir near Calle de Pedro María Ric","properties":{"access":"unknown","bicycle_pa":"stands","capacity":10,"covered":"no","fee":"","operator":"","nameSource":"junction"},"sourceId":"osm"},{"id":"osm:node:10747266196","latitude":41.6690581,"longitude":-0.8848252,"name":"Calle de Rafael Alberti near Calle Flora Tristán","properties":{"access":"unknown","bicycle_pa":"stands","capacity":0,"covered":"","fee":"no","operator":"","nameSource":"junction"},"sourceId":"osm"},{"id":"osm:node:10757247733","latitude":41.6674698,"longitude":-0.8862346,"name":"Calle de León Felipe near Calle de María Zambrano","properties":{"access":"yes","bicycle_pa":"stands","capacity":12,"covered":"no","fee":"no","operator":"","nameSource":"junction"},"sourceId":"osm"},{"id":"osm:node:10804528199","latitude":41.6406784,"longitude":-0.918289,"name":"Calle del Ailanto cycle parking","properties":{"access":"yes","bicycle_pa":"stands","capacity":10,"covered":"no","fee":"","operator":"","nameSource":"street"},"sourceId":"osm"},{"id":"osm:node:10804851493","latitude":41.6491062,"longitude":-0.8845022,"name":"Calle José Luis Albareda near Paseo de la Independencia","properties":{"access":"yes","bicycle_pa":"stands","capacity":10,"covered":"no","fee":"","operator":"Ayuntamiento de Zaragoza","nameSource":"junction"},"sourceId":"osm"},{"id":"osm:node:10804851494","latitude":41.6491289,"longitude":-0.8859268,"name":"Calle Canfranc near Calle Bilbao","properties":{"access":"yes","bicycle_pa":"stands","capacity":10,"covered":"no","fee":"","operator":"Ayuntamiento de Zaragoza","nameSource":"junction"},"sourceId":"osm"},{"id":"osm:node:10804851495","latitude":41.6491004,"longitude":-0.8860534,"name":"Calle Canfranc near Calle Bilbao","properties":{"access":"private","bicycle_pa":"stands","capacity":10,"covered":"no","fee":"","operator":"Compañía de María","nameSource":"junction"},"sourceId":"osm"},{"id":"osm:node:10804851496","latitude":41.6512961,"longitude":-0.8861246,"name":"Avenida de César Augusto near Calle Santiago Ramón y Cajal","properties":{"access":"yes","bicycle_pa":"stands","capacity":10,"covered":"no","fee":"","operator":"Ayuntamiento de Zaragoza","nameSource":"junction"},"sourceId":"osm"},{"id":"osm:node:10804851497","latitude":41.6546329,"longitude":-0.883124,"name":"Plaza del Ecce Homo near Calle Paraíso","properties":{"access":"yes","bicycle_pa":"stands","capacity":4,"covered":"no","fee":"no","operator":"Ayuntamiento de Zaragoza","nameSource":"junction"},"sourceId":"osm"},{"id":"osm:node:10804851498","latitude":41.6561088,"longitude":-0.8817373,"name":"Plaza del Justicia near Calle Santa Isabel","properties":{"access":"yes","bicycle_pa":"stands","capacity":10,"covered":"no","fee":"","operator":"Ayuntamiento de Zaragoza","nameSource":"junction"},"sourceId":"osm"},{"id":"osm:node:10804851499","latitude":41.656207,"longitude":-0.8808749,"name":"Calle de Prudencio near Calle de la Virgen","properties":{"access":"yes","bicycle_pa":"stands","capacity":10,"covered":"no","fee":"","operator":"Ayuntamiento de Zaragoza","nameSource":"junction"},"sourceId":"osm"},{"id":"osm:node:10804851500","latitude":41.6557591,"longitude":-0.8804585,"name":"Calle Francisco Loscos near Calle Manifestación","properties":{"access":"yes","bicycle_pa":"stands","capacity":10,"covered":"no","fee":"","operator":"Ayuntamiento de Zaragoza","nameSource":"junction"},"sourceId":"osm"},{"id":"osm:node:10804947904","latitude":41.6563877,"longitude":-0.8861205,"name":"Calle San Blas near Plaza de San Pablo","properties":{"access":"yes","bicycle_pa":"stands","capacity":6,"covered":"no","fee":"","operator":"Ayuntamiento de Zaragoza","nameSource":"junction"},"sourceId":"osm"},{"id":"osm:node:10804983405","latitude":41.6566075,"longitude":-0.8874748,"name":"Calle San Blas near Calle Mariano Cerezo","properties":{"access":"yes","bicycle_pa":"stands","capacity":10,"covered":"no","fee":"","operator":"Ayuntamiento de Zaragoza","nameSource":"junction"},"sourceId":"osm"},{"id":"osm:node:10804983406","latitude":41.6569424,"longitude":-0.8888636,"name":"Plaza de Santo Domingo near Calle San Blas","properties":{"access":"yes","bicycle_pa":"stands","capacity":6,"covered":"no","fee":"","operator":"Ayuntamiento de Zaragoza","nameSource":"junction"},"sourceId":"osm"},{"id":"osm:node:10804983407","latitude":41.6576197,"longitude":-0.8892126,"name":"Plaza de Santo Domingo near Calle del Doctor Ramón Celma Bernal","properties":{"access":"yes","bicycle_pa":"stands","capacity":10,"covered":"no","fee":"","operator":"Ayuntamiento de Zaragoza","nameSource":"junction"},"sourceId":"osm"},{"id":"osm:node:10804983408","latitude":41.6568923,"longitude":-0.8895214,"name":"Calle de Cereros near Plaza de Santo Domingo","properties":{"access":"yes","bicycle_pa":"stands","capacity":10,"covered":"no","fee":"","operator":"Ayuntamiento de Zaragoza","nameSource":"junction"},"sourceId":"osm"},{"id":"osm:node:10804983409","latitude":41.6570684,"longitude":-0.8906299,"name":"Calle de Cereros near Calle de Santa Inés","properties":{"access":"yes","bicycle_pa":"stands","capacity":6,"covered":"no","fee":"","operator":"Ayuntamiento de Zaragoza","nameSource":"junction"},"sourceId":"osm"},{"id":"osm:node:10804983410","latitude":41.657385,"longitude":-0.8907227,"name":"Calle de Santa Inés near Calle de Cereros","properties":{"access":"yes","bicycle_pa":"stands","capacity":10,"covered":"no","fee":"","operator":"Ayuntamiento de Zaragoza","nameSource":"junction"},"sourceId":"osm"},{"id":"osm:node:10804983411","latitude":41.6569073,"longitude":-0.8908435,"name":"Calle de Santa Inés near Calle San Pablo","properties":{"access":"yes","bicycle_pa":"stands","capacity":10,"covered":"no","fee":"","operator":"Ayuntamiento de Zaragoza","nameSource":"junction"},"sourceId":"osm"},{"id":"osm:node:10804983412","latitude":41.6572508,"longitude":-0.8917791,"name":"Calle de Calatorao near Calle de Cereros","properties":{"access":"yes","bicycle_pa":"stands","capacity":10,"covered":"no","fee":"","operator":"Ayuntamiento de Zaragoza","nameSource":"junction"},"sourceId":"osm"},{"id":"osm:node:10804983413","latitude":41.6570486,"longitude":-0.8953103,"name":"Calle de la Aljafería near Calle de los Diputados","properties":{"access":"yes","bicycle_pa":"stands","capacity":6,"covered":"no","fee":"","operator":"Ayuntamiento de Zaragoza","nameSource":"junction"},"sourceId":"osm"},{"id":"osm:node:10804983414","latitude":41.6569383,"longitude":-0.8952992,"name":"Calle de la Aljafería near Calle de los Diputados","properties":{"access":"yes","bicycle_pa":"stands","capacity":6,"covered":"no","fee":"","operator":"Ayuntamiento de Zaragoza","nameSource":"junction"},"sourceId":"osm"},{"id":"osm:node:10804983415","latitude":41.6584571,"longitude":-0.8939281,"name":"Calle de los Diputados near Plaza de Emilio Alfaro Gracia","properties":{"access":"yes","bicycle_pa":"stands","capacity":10,"covered":"no","fee":"","operator":"Ayuntamiento de Zaragoza","nameSource":"junction"},"sourceId":"osm"},{"id":"osm:node:10804983416","latitude":41.6597458,"longitude":-0.8955489,"name":"Avenida de Pablo Gargallo near Andador Ignacio Menaya Reinoso","properties":{"access":"yes","bicycle_pa":"stands","capacity":10,"covered":"no","fee":"","operator":"Ayuntamiento de Zaragoza","nameSource":"junction"},"sourceId":"osm"},{"id":"osm:node:10804983417","latitude":41.6596534,"longitude":-0.8963113,"name":"Avenida de Pablo Gargallo near Andador Ignacio Menaya Reinoso","properties":{"access":"yes","bicycle_pa":"stands","capacity":12,"covered":"no","fee":"","operator":"Ayuntamiento de Zaragoza","nameSource":"junction"},"sourceId":"osm"},{"id":"osm:node:10804983418","latitude":41.6601384,"longitude":-0.8960312,"name":"Avenida de Pablo Gargallo near Andador Ignacio Menaya Reinoso","properties":{"access":"yes","bicycle_pa":"stands","capacity":10,"covered":"no","fee":"","operator":"Ayuntamiento de Zaragoza","nameSource":"junction"},"sourceId":"osm"},{"id":"osm:node:10804983419","latitude":41.660351,"longitude":-0.8955454,"name":"Avenida de la Almozara near Calle de Monegros","properties":{"access":"yes","bicycle_pa":"stands","capacity":10,"covered":"no","fee":"","operator":"Ayuntamiento de Zaragoza","nameSource":"junction"},"sourceId":"osm"},{"id":"osm:node:10804983420","latitude":41.6602585,"longitude":-0.8970183,"name":"Avenida de Pablo Gargallo near Calle de las Cortes","properties":{"access":"yes","bicycle_pa":"stands","capacity":10,"covered":"no","fee":"","operator":"Ayuntamiento de Zaragoza","nameSource":"junction"},"sourceId":"osm"},{"id":"osm:node:10804983421","latitude":41.6603775,"longitude":-0.8971174,"name":"Avenida de Pablo Gargallo near Calle de las Cortes","properties":{"access":"yes","bicycle_pa":"stands","capacity":10,"covered":"no","fee":"","operator":"Ayuntamiento de Zaragoza","nameSource":"junction"},"sourceId":"osm"},{"id":"osm:node:10804983422","latitude":41.661391,"longitude":-0.8960879,"name":"Avenida de la Almozara near Calle Río Ésera","properties":{"access":"yes","bicycle_pa":"stands","capacity":10,"covered":"no","fee":"","operator":"Ayuntamiento de Zaragoza","nameSource":"junction"},"sourceId":"osm"},{"id":"osm:node:10804983423","latitude":41.6627183,"longitude":-0.8978098,"name":"Calle de la Almunia de Doña Godina near Avenida de la Almozara","properties":{"access":"yes","bicycle_pa":"stands","capacity":10,"covered":"no","fee":"","operator":"Ayuntamiento de Zaragoza","nameSource":"junction"},"sourceId":"osm"},{"id":"osm:node:10804983424","latitude":41.6634626,"longitude":-0.8994838,"name":"Avenida de la Almozara near Calle Batalla de Arapiles","properties":{"access":"yes","bicycle_pa":"stands","capacity":20,"covered":"no","fee":"","operator":"Ayuntamiento de Zaragoza","nameSource":"junction"},"sourceId":"osm"},{"id":"osm:node:10804983425","latitude":41.6638738,"longitude":-0.9011401,"name":"Avenida de la Almozara near Avenida de Puerta Sancho","properties":{"access":"yes","bicycle_pa":"stands","capacity":10,"covered":"no","fee":"","operator":"Ayuntamiento de Zaragoza","nameSource":"junction"},"sourceId":"osm"},{"id":"osm:node:10804983426","latitude":41.6626694,"longitude":-0.9012746,"name":"Avenida de Puerta Sancho near Calle de Bonn","properties":{"access":"yes","bicycle_pa":"stands","capacity":10,"covered":"no","fee":"","operator":"Ayuntamiento de Zaragoza","nameSource":"junction"},"sourceId":"osm"},{"id":"osm:node:10804983427","latitude":41.6626205,"longitude":-0.901011,"name":"Avenida de Puerta Sancho near Calle de Bonn","properties":{"access":"yes","bicycle_pa":"stands","capacity":10,"covered":"no","fee":"","operator":"Ayuntamiento de Zaragoza","nameSource":"junction"},"sourceId":"osm"},{"id":"osm:node:10804983428","latitude":41.6627474,"longitude":-0.9019789,"name":"Calle de Bonn near Avenida de Puerta Sancho","properties":{"access":"yes","bicycle_pa":"stands","capacity":10,"covered":"no","fee":"","operator":"Ayuntamiento de Zaragoza","nameSource":"junction"},"sourceId":"osm"},{"id":"osm:node:10804983429","latitude":41.662097,"longitude":-0.9023523,"name":"Calle de Berlín near Calle de Bonn","properties":{"access":"yes","bicycle_pa":"stands","capacity":10,"covered":"no","fee":"","operator":"Ayuntamiento de Zaragoza","nameSource":"junction"},"sourceId":"osm"},{"id":"osm:node:10804983430","latitude":41.6602858,"longitude":-0.9003487,"name":"Calle de Juan Bautista del Mazo near Calle de Villa de Híjar","properties":{"access":"yes","bicycle_pa":"stands","capacity":10,"covered":"no","fee":"","operator":"Ayuntamiento de Zaragoza","nameSource":"junction"},"sourceId":"osm"},{"id":"osm:node:10804983431","latitude":41.6600148,"longitude":-0.9026916,"name":"Avenida de Puerta Sancho near Calle de Ribagorza","properties":{"access":"yes","bicycle_pa":"stands","capacity":10,"covered":"no","fee":"","operator":"Ayuntamiento de Zaragoza","nameSource":"junction"},"sourceId":"osm"},{"id":"osm:node:10804983432","latitude":41.6592123,"longitude":-0.9009946,"name":"Calle de Juan Bautista del Mazo near Calle de Ribagorza","properties":{"access":"yes","bicycle_pa":"stands","capacity":10,"covered":"no","fee":"","operator":"Ayuntamiento de Zaragoza","nameSource":"junction"},"sourceId":"osm"},{"id":"osm:node:10804983433","latitude":41.6589452,"longitude":-0.9003752,"name":"Calle Ciudad de Fraga near Calle de Pedro I de Aragón","properties":{"access":"yes","bicycle_pa":"stands","capacity":10,"covered":"no","fee":"","operator":"Ayuntamiento de Zaragoza","nameSource":"junction"},"sourceId":"osm"},{"id":"osm:node:10804983434","latitude":41.6604735,"longitude":-0.9032844,"name":"Calle de Bruselas near Calle de París","properties":{"access":"yes","bicycle_pa":"stands","capacity":10,"covered":"no","fee":"","operator":"Ayuntamiento de Zaragoza","nameSource":"junction"},"sourceId":"osm"},{"id":"osm:node:10804983435","latitude":41.6610024,"longitude":-0.9034295,"name":"Calle de París near Calle de Bruselas","properties":{"access":"yes","bicycle_pa":"stands","capacity":10,"covered":"no","fee":"","operator":"Ayuntamiento de Zaragoza","nameSource":"junction"},"sourceId":"osm"},{"id":"osm:node:10804983436","latitude":41.6592929,"longitude":-0.9040223,"name":"Avenida de la Autonomía near Calle de Viena","properties":{"access":"yes","bicycle_pa":"stands","capacity":10,"covered":"no","fee":"","operator":"Ayuntamiento de Zaragoza","nameSource":"junction"},"sourceId":"osm"},{"id":"osm:node:10804983437","latitude":41.657799,"longitude":-0.898979,"name":"Calle del Reino near Calle de Pedro I de Aragón","properties":{"access":"yes","bicycle_pa":"stands","capacity":10,"covered":"no","fee":"","operator":"Ayuntamiento de Zaragoza","nameSource":"junction"},"sourceId":"osm"},{"id":"osm:node:10804983438","latitude":41.6563586,"longitude":-0.8954378,"name":"Calle de los Diputados near Calle Castillo","properties":{"access":"yes","bicycle_pa":"stands","capacity":6,"covered":"no","fee":"","operator":"Ayuntamiento de Zaragoza","nameSource":"junction"},"sourceId":"osm"},{"id":"osm:node:10804983439","latitude":41.656455,"longitude":-0.8954656,"name":"Calle de los Diputados near Calle Castillo","properties":{"access":"yes","bicycle_pa":"stands","capacity":6,"covered":"no","fee":"","operator":"Ayuntamiento de Zaragoza","nameSource":"junction"},"sourceId":"osm"},{"id":"osm:node:10804983440","latitude":41.6566905,"longitude":-0.8945256,"name":"Calle Domingo Figueras Jariod near Calle Sebastián Banzo Urrea","properties":{"access":"yes","bicycle_pa":"stands","capacity":10,"covered":"no","fee":"","operator":"Ayuntamiento de Zaragoza","nameSource":"junction"},"sourceId":"osm"},{"id":"osm:node:10805086783","latitude":41.645758,"longitude":-0.8796666,"name":"Calle Francisco de Vitoria by Carrefour Viajes","properties":{"access":"yes","bicycle_pa":"stands","capacity":10,"covered":"no","fee":"","operator":"Ayuntamiento de Zaragoza","nameSource":"landmark"},"sourceId":"osm"},{"id":"osm:node:10805086784","latitude":41.6446897,"longitude":-0.8817617,"name":"Calle José María Lacarra de Miguel near Calle de San Vicente Mártir","properties":{"access":"yes","bicycle_pa":"stands","capacity":10,"covered":"no","fee":"","operator":"Ayuntamiento de Zaragoza","nameSource":"junction"},"sourceId":"osm"},{"id":"osm:node:10805086785","latitude":41.6455922,"longitude":-0.8827815,"name":"Calle de León XIII near Calle de José María Lacarra de Miguel","properties":{"access":"yes","bicycle_pa":"stands","capacity":10,"covered":"no","fee":"","operator":"Ayuntamiento de Zaragoza","nameSource":"junction"},"sourceId":"osm"},{"id":"osm:node:10805086786","latitude":41.6464602,"longitude":-0.8810253,"name":"Calle de León XIII near Calle Francisco de Vitoria","properties":{"access":"yes","bicycle_pa":"stands","capacity":10,"covered":"no","fee":"","operator":"Ayuntamiento de Zaragoza","nameSource":"junction"},"sourceId":"osm"},{"id":"osm:node:10805086787","latitude":41.6473696,"longitude":-0.882686,"name":"Calle de San Ignacio de Loyola near Calle de Francisco de Vitoria","properties":{"access":"yes","bicycle_pa":"stands","capacity":10,"covered":"no","fee":"","operator":"Ayuntamiento de Zaragoza","nameSource":"junction"},"sourceId":"osm"},{"id":"osm:node:10805086788","latitude":41.6468171,"longitude":-0.8835518,"name":"Calle de San Ignacio de Loyola near Calle de José María Lacarra de Miguel","properties":{"access":"yes","bicycle_pa":"stands","capacity":10,"covered":"no","fee":"","operator":"Ayuntamiento de Zaragoza","nameSource":"junction"},"sourceId":"osm"},{"id":"osm:node:10805086789","latitude":41.6475661,"longitude":-0.8835615,"name":"Calle del Arquitecto Yarza near Paseo de la Constitución","properties":{"access":"yes","bicycle_pa":"stands","capacity":10,"covered":"no","fee":"","operator":"Ayuntamiento de Zaragoza","nameSource":"junction"},"sourceId":"osm"},{"id":"osm:node:10805086790","latitude":41.6474132,"longitude":-0.8885998,"name":"Calle de Doctor Cerrada by ColorTech","properties":{"access":"yes","bicycle_pa":"stands","capacity":10,"covered":"no","fee":"","operator":"Ayuntamiento de Zaragoza","nameSource":"landmark"},"sourceId":"osm"},{"id":"osm:node:10805086791","latitude":41.6463315,"longitude":-0.8900092,"name":"Calle Bernardo Fita near Calle de Doctor Cerrada","properties":{"access":"yes","bicycle_pa":"stands","capacity":10,"covered":"no","fee":"","operator":"Ayuntamiento de Zaragoza","nameSource":"junction"},"sourceId":"osm"},{"id":"osm:node:10805086792","latitude":41.645876,"longitude":-0.8903826,"name":"Calle Eduardo Dato near Calle de Doctor Cerrada","properties":{"access":"yes","bicycle_pa":"stands","capacity":10,"covered":"no","fee":"","operator":"Ayuntamiento de Zaragoza","nameSource":"junction"},"sourceId":"osm"},{"id":"osm:node:10805086793","latitude":41.6455004,"longitude":-0.8907732,"name":"Calle de Doctor Cerrada near Calle Ricla","properties":{"access":"yes","bicycle_pa":"stands","capacity":10,"covered":"no","fee":"","operator":"Ayuntamiento de Zaragoza","nameSource":"junction"},"sourceId":"osm"},{"id":"osm:node:10805086794","latitude":41.6459251,"longitude":-0.8919009,"name":"Calle Cortes de Aragón near Calle Ricla","properties":{"access":"yes","bicycle_pa":"stands","capacity":10,"covered":"no","fee":"","operator":"Ayuntamiento de Zaragoza","nameSource":"junction"},"sourceId":"osm"},{"id":"osm:node:10805086795","latitude":41.6448453,"longitude":-0.8925218,"name":"Avenida Francisco de Goya near Calle de Calatayud","properties":{"access":"yes","bicycle_pa":"stands","capacity":10,"covered":"no","fee":"","operator":"Ayuntamiento de Zaragoza","nameSource":"junction"},"sourceId":"osm"},{"id":"osm:node:10805086796","latitude":41.6470546,"longitude":-0.8920586,"name":"Calle del Carmen near Calle de la Princesa","properties":{"access":"yes","bicycle_pa":"stands","capacity":10,"covered":"no","fee":"","operator":"Ayuntamiento de Zaragoza","nameSource":"junction"},"sourceId":"osm"},{"id":"osm:node:10805086797","latitude":41.6473652,"longitude":-0.8941834,"name":"Avenida de Valencia near Avenida Francisco de Goya","properties":{"access":"yes","bicycle_pa":"stands","capacity":10,"covered":"no","fee":"","operator":"Ayuntamiento de Zaragoza","nameSource":"junction"},"sourceId":"osm"},{"id":"osm:node:10805086798","latitude":41.6467423,"longitude":-0.8950544,"name":"Calle Juan José Lorente near Calle Fueros de Aragón","properties":{"access":"yes","bicycle_pa":"stands","capacity":10,"covered":"no","fee":"","operator":"Ayuntamiento de Zaragoza","nameSource":"junction"},"sourceId":"osm"},{"id":"osm:node:10805086799","latitude":41.645554,"longitude":-0.8962662,"name":"Calle Juan José Lorente near Calle Pamplona Escudero","properties":{"access":"yes","bicycle_pa":"stands","capacity":10,"covered":"no","fee":"","operator":"Ayuntamiento de Zaragoza","nameSource":"junction"},"sourceId":"osm"},{"id":"osm:node:10805086800","latitude":41.6442837,"longitude":-0.8982743,"name":"Calle de Luis Antonio Oro Giral near Calle Corona de Aragón","properties":{"access":"yes","bicycle_pa":"stands","capacity":10,"covered":"no","fee":"","operator":"Ayuntamiento de Zaragoza","nameSource":"junction"},"sourceId":"osm"},{"id":"osm:node:10805086801","latitude":41.6522877,"longitude":-0.9012202,"name":"Calle de Pablo Sarasate near Calle de Inglaterra","properties":{"access":"yes","bicycle_pa":"stands","capacity":10,"covered":"no","fee":"","operator":"Ayuntamiento de Zaragoza","nameSource":"junction"},"sourceId":"osm"},{"id":"osm:node:10805086802","latitude":41.6528669,"longitude":-0.9010565,"name":"Calle de la Hermandad de Donantes de Sangre near Calle Doctor Pérez Serrano","properties":{"access":"yes","bicycle_pa":"stands","capacity":10,"covered":"no","fee":"","operator":"Ayuntamiento de Zaragoza","nameSource":"junction"},"sourceId":"osm"},{"id":"osm:node:10805086803","latitude":41.653441,"longitude":-0.901369,"name":"Calle del Padre Manjón near Calle Doctor Pérez Serrano","properties":{"access":"yes","bicycle_pa":"stands","capacity":10,"covered":"no","fee":"","operator":"Ayuntamiento de Zaragoza","nameSource":"junction"},"sourceId":"osm"},{"id":"osm:node:10805093105","latitude":41.6522616,"longitude":-0.8995853,"name":"Calle del Tenor Gayarre near Calle de Hilarión Eslava","properties":{"access":"yes","bicycle_pa":"stands","capacity":10,"covered":"no","fee":"","operator":"Ayuntamiento de Zaragoza","nameSource":"junction"},"sourceId":"osm"},{"id":"osm:node:10805093106","latitude":41.6536485,"longitude":-0.8996564,"name":"Calle de Pablo Sarasate near Calle de Doña Blanca de Navarra","properties":{"access":"yes","bicycle_pa":"stands","capacity":10,"covered":"no","fee":"","operator":"Ayuntamiento de Zaragoza","nameSource":"junction"},"sourceId":"osm"},{"id":"osm:node:10805093107","latitude":41.6539451,"longitude":-0.8981437,"name":"Calle del Tenor Gayarre near Calle de Manuel Escoriaza y Fabro","properties":{"access":"yes","bicycle_pa":"stands","capacity":10,"covered":"no","fee":"","operator":"Ayuntamiento de Zaragoza","nameSource":"junction"},"sourceId":"osm"},{"id":"osm:node:10805093108","latitude":41.6547526,"longitude":-0.9006556,"name":"Avenida de Madrid near Avenida de Navarra","properties":{"access":"yes","bicycle_pa":"stands","capacity":10,"covered":"no","fee":"","operator":"Ayuntamiento de Zaragoza","nameSource":"junction"},"sourceId":"osm"},{"id":"osm:node:10814362314","latitude":41.6462472,"longitude":-0.8975836,"name":"Calle de Desiderio Escosura near Avenida de Valencia","properties":{"access":"yes","bicycle_pa":"stands","capacity":10,"covered":"no","fee":"","operator":"Ayuntamiento de Zaragoza","nameSource":"junction"},"sourceId":"osm"},{"id":"osm:node:10814362315","latitude":41.6467722,"longitude":-0.8977808,"name":"Calle de Desiderio Escosura near Calle del Obispo Covarrubias","properties":{"access":"yes","bicycle_pa":"stands","capacity":10,"covered":"no","fee":"","operator":"Ayuntamiento de Zaragoza","nameSource":"junction"},"sourceId":"osm"},{"id":"osm:node:10814362316","latitude":41.6483826,"longitude":-0.8980612,"name":"Calle de Ávila near Calle de Tarragona","properties":{"access":"customers","bicycle_pa":"shed","capacity":60,"covered":"yes","fee":"yes","operator":"Biciparking","nameSource":"junction"},"sourceId":"osm"},{"id":"osm:node:10814362317","latitude":41.6484413,"longitude":-0.8959722,"name":"Calle de Salamanca near Calle de Tarragona","properties":{"access":"yes","bicycle_pa":"stands","capacity":10,"covered":"no","fee":"","operator":"Ayuntamiento de Zaragoza","nameSource":"junction"},"sourceId":"osm"},{"id":"osm:node:10814362318","latitude":41.6490906,"longitude":-0.8957658,"name":"Calle de Asturias near Calle de Salamanca","properties":{"access":"yes","bicycle_pa":"stands","capacity":10,"covered":"no","fee":"","operator":"Ayuntamiento de Zaragoza","nameSource":"junction"},"sourceId":"osm"},{"id":"osm:node:10814362319","latitude":41.6499861,"longitude":-0.8958166,"name":"Calle de Asturias near Calle Moncayo","properties":{"access":"yes","bicycle_pa":"stands","capacity":10,"covered":"no","fee":"","operator":"Ayuntamiento de Zaragoza","nameSource":"junction"},"sourceId":"osm"},{"id":"osm:node:10814362320","latitude":41.65029,"longitude":-0.8949293,"name":"Calle de Manuel Escoriaza y Fabro near Calle de Joaquín Orús","properties":{"access":"yes","bicycle_pa":"stands","capacity":10,"covered":"no","fee":"","operator":"Ayuntamiento de Zaragoza","nameSource":"junction"},"sourceId":"osm"},{"id":"osm:node:10814362321","latitude":41.6480281,"longitude":-0.8945103,"name":"Calle de Burgos near Calle de Tarragona","properties":{"access":"yes","bicycle_pa":"stands","capacity":10,"covered":"no","fee":"","operator":"Ayuntamiento de Zaragoza","nameSource":"junction"},"sourceId":"osm"},{"id":"osm:node:10814362322","latitude":41.6476114,"longitude":-0.8956795,"name":"Calle de Toledo near Calle de Burgos","properties":{"access":"yes","bicycle_pa":"stands","capacity":10,"covered":"no","fee":"","operator":"Ayuntamiento de Zaragoza","nameSource":"junction"},"sourceId":"osm"},{"id":"osm:node:10814362323","latitude":41.6476896,"longitude":-0.8974326,"name":"Calle de Ávila near Calle de Toledo","properties":{"access":"yes","bicycle_pa":"stands","capacity":10,"covered":"no","fee":"","operator":"Ayuntamiento de Zaragoza","nameSource":"junction"},"sourceId":"osm"},{"id":"osm:node:10814362324","latitude":41.6472971,"longitude":-0.8991411,"name":"Calle del Obispo Tajón near Calle de José García Sánchez","properties":{"access":"yes","bicycle_pa":"stands","capacity":10,"covered":"no","fee":"","operator":"Ayuntamiento de Zaragoza","nameSource":"junction"},"sourceId":"osm"},{"id":"osm:node:10814362325","latitude":41.6461321,"longitude":-0.8994215,"name":"Calle de Pedro Muñoz Seca near Calle del Obispo Covarrubias","properties":{"access":"yes","bicycle_pa":"stands","capacity":10,"covered":"no","fee":"","operator":"Ayuntamiento de Zaragoza","nameSource":"junction"},"sourceId":"osm"},{"id":"osm:node:10814362326","latitude":41.645705,"longitude":-0.9002857,"name":"Calle de Franco y López near Calle del Obispo Covarrubias","properties":{"access":"yes","bicycle_pa":"stands","capacity":12,"covered":"no","fee":"","operator":"Ayuntamiento de Zaragoza","nameSource":"junction"},"sourceId":"osm"},{"id":"osm:node:10814362327","latitude":41.6462749,"longitude":-0.9006677,"name":"Calle de Franco y López near Calle María Auxiliadora","properties":{"access":"yes","bicycle_pa":"stands","capacity":12,"covered":"no","fee":"","operator":"Ayuntamiento de Zaragoza","nameSource":"junction"},"sourceId":"osm"},{"id":"osm:node:10814362328","latitude":41.6472062,"longitude":-0.9013194,"name":"Calle de Franco y López near Calle de Vidal de Canellas","properties":{"access":"yes","bicycle_pa":"stands","capacity":10,"covered":"no","fee":"","operator":"Ayuntamiento de Zaragoza","nameSource":"junction"},"sourceId":"osm"},{"id":"osm:node:10814362329","latitude":41.6476966,"longitude":-0.9016537,"name":"Calle de Franco y López near Calle Martín Cortés","properties":{"access":"yes","bicycle_pa":"stands","capacity":10,"covered":"no","fee":"","operator":"Ayuntamiento de Zaragoza","nameSource":"junction"},"sourceId":"osm"},{"id":"osm:node:10814362330","latitude":41.6485357,"longitude":-0.9020635,"name":"Paseo de Calanda near Calle de la Duquesa de Villahermosa","properties":{"access":"yes","bicycle_pa":"stands","capacity":10,"covered":"no","fee":"","operator":"Ayuntamiento de Zaragoza","nameSource":"junction"},"sourceId":"osm"},{"id":"osm:node:10814362331","latitude":41.6490595,"longitude":-0.9021775,"name":"Calle de la Batalla de Clavijo near Paseo de Calanda","properties":{"access":"yes","bicycle_pa":"stands","capacity":10,"covered":"no","fee":"","operator":"Ayuntamiento de Zaragoza","nameSource":"junction"},"sourceId":"osm"},{"id":"osm:node:10814362332","latitude":41.6492126,"longitude":-0.9023685,"name":"Paseo de Calanda near Calle de la Batalla de Clavijo","properties":{"access":"yes","bicycle_pa":"stands","capacity":10,"covered":"no","fee":"","operator":"Ayuntamiento de Zaragoza","nameSource":"junction"},"sourceId":"osm"},{"id":"osm:node:10814362333","latitude":41.6498952,"longitude":-0.9026458,"name":"Paseo de Calanda near Calle de Montevideo","properties":{"access":"yes","bicycle_pa":"stands","capacity":10,"covered":"no","fee":"","operator":"Ayuntamiento de Zaragoza","nameSource":"junction"},"sourceId":"osm"},{"id":"osm:node:10814362334","latitude":41.6516397,"longitude":-0.9034445,"name":"Paseo de Calanda near Calle de Graus","properties":{"access":"yes","bicycle_pa":"stands","capacity":14,"covered":"no","fee":"","operator":"Ayuntamiento de Zaragoza","nameSource":"junction"},"sourceId":"osm"},{"id":"osm:node:10814362335","latitude":41.6543274,"longitude":-0.9046996,"name":"Calle San Antonio Abad near Paseo de Calanda","properties":{"access":"yes","bicycle_pa":"stands","capacity":10,"covered":"no","fee":"","operator":"Ayuntamiento de Zaragoza","nameSource":"junction"},"sourceId":"osm"},{"id":"osm:node:10814362336","latitude":41.6552528,"longitude":-0.9046888,"name":"Avenida de Navarra near Calle de Fray José Casanova","properties":{"access":"yes","bicycle_pa":"stands","capacity":10,"covered":"no","fee":"","operator":"Ayuntamiento de Zaragoza","nameSource":"junction"},"sourceId":"osm"},{"id":"osm:node:10814393237","latitude":41.6431962,"longitude":-0.9090284,"name":"Avenida Juan Carlos I near Calle de María Guerrero","properties":{"access":"yes","bicycle_pa":"stands","capacity":10,"covered":"no","fee":"","operator":"Ayuntamiento de Zaragoza","nameSource":"junction"},"sourceId":"osm"},{"id":"osm:node:10814393238","latitude":41.6422661,"longitude":-0.909648,"name":"Avenida Juan Carlos I near Calle de Sabiñánigo","properties":{"access":"yes","bicycle_pa":"stands","capacity":10,"covered":"no","fee":"","operator":"Ayuntamiento de Zaragoza","nameSource":"junction"},"sourceId":"osm"},{"id":"osm:node:10814393239","latitude":41.6441454,"longitude":-0.9096363,"name":"Avenida Juan Carlos I by Activa","properties":{"access":"yes","bicycle_pa":"stands","capacity":10,"covered":"no","fee":"","operator":"Ayuntamiento de Zaragoza","nameSource":"landmark"},"sourceId":"osm"},{"id":"osm:node:10814393240","latitude":41.6442543,"longitude":-0.9099253,"name":"Avenida Juan Carlos I by Clínica Podológica","properties":{"access":"yes","bicycle_pa":"stands","capacity":10,"covered":"no","fee":"","operator":"Ayuntamiento de Zaragoza","nameSource":"landmark"},"sourceId":"osm"},{"id":"osm:node:10814393241","latitude":41.6433724,"longitude":-0.9106894,"name":"Calle de Álava near Calle de Fernando Díaz de Mendoza","properties":{"access":"yes","bicycle_pa":"stands","capacity":10,"covered":"no","fee":"","operator":"Ayuntamiento de Zaragoza","nameSource":"junction"},"sourceId":"osm"},{"id":"osm:node:10814393242","latitude":41.6442439,"longitude":-0.9121991,"name":"Avenida Juan Pablo II near Calle de la Madre Teresa de Calcuta","properties":{"access":"yes","bicycle_pa":"stands","capacity":10,"covered":"no","fee":"","operator":"Ayuntamiento de Zaragoza","nameSource":"junction"},"sourceId":"osm"},{"id":"osm:node:10814393243","latitude":41.6440839,"longitude":-0.9156175,"name":"Calle de la Duquesa de Villahermosa near Vía Hispanidad","properties":{"access":"yes","bicycle_pa":"stands","capacity":10,"covered":"no","fee":"","operator":"Ayuntamiento de Zaragoza","nameSource":"junction"},"sourceId":"osm"},{"id":"osm:node:10814393244","latitude":41.6425723,"longitude":-0.9157146,"name":"Vía Hispanidad near Calle del Doctor José Ramón Muñoz Fernández","properties":{"access":"yes","bicycle_pa":"stands","capacity":10,"covered":"no","fee":"","operator":"Ayuntamiento de Zaragoza","nameSource":"junction"},"sourceId":"osm"},{"id":"osm:node:10814393245","latitude":41.6416709,"longitude":-0.9152493,"name":"Vía Hispanidad near Andador de Francisco Peirona","properties":{"access":"yes","bicycle_pa":"stands","capacity":10,"covered":"no","fee":"","operator":"Ayuntamiento de Zaragoza","nameSource":"junction"},"sourceId":"osm"},{"id":"osm:node:10814393246","latitude":41.641862,"longitude":-0.9149428,"name":"Andador de Francisco Peirona near Vía Hispanidad","properties":{"access":"yes","bicycle_pa":"stands","capacity":10,"covered":"no","fee":"","operator":"Ayuntamiento de Zaragoza","nameSource":"junction"},"sourceId":"osm"},{"id":"osm:node:10814393247","latitude":41.6423755,"longitude":-0.9134253,"name":"Andador de Francisco Peirona by Patinódromo La Bozada","properties":{"access":"yes","bicycle_pa":"stands","capacity":10,"covered":"no","fee":"","operator":"Ayuntamiento de Zaragoza","nameSource":"landmark"},"sourceId":"osm"},{"id":"osm:node:10814393248","latitude":41.6425378,"longitude":-0.912216,"name":"Avenida Juan Pablo II near Calle de Andrés Gay Sangrós","properties":{"access":"yes","bicycle_pa":"stands","capacity":10,"covered":"no","fee":"","operator":"Ayuntamiento de Zaragoza","nameSource":"junction"},"sourceId":"osm"},{"id":"osm:node:10814393249","latitude":41.6419276,"longitude":-0.9115043,"name":"Avenida Juan Pablo II near Calle de Sabiñánigo","properties":{"access":"yes","bicycle_pa":"stands","capacity":10,"covered":"no","fee":"","operator":"Ayuntamiento de Zaragoza","nameSource":"junction"},"sourceId":"osm"},{"id":"osm:node:10814393251","latitude":41.6405714,"longitude":-0.9089239,"name":"Avenida Juan Carlos I near Andador del Teniente General Quintana Lacacci","properties":{"access":"yes","bicycle_pa":"stands","capacity":10,"covered":"no","fee":"","operator":"Ayuntamiento de Zaragoza","nameSource":"junction"},"sourceId":"osm"},{"id":"osm:node:11476771465","latitude":41.6562269,"longitude":-0.9065086,"name":"Calle de Santa Orosia near Calle Alfamén","properties":{"access":"unknown","bicycle_pa":"stands","capacity":10,"covered":"","fee":"","operator":"Ayuntamiento de Zaragoza","nameSource":"junction"},"sourceId":"osm"},{"id":"osm:node:11479297199","latitude":41.6574703,"longitude":-0.8993711,"name":"Calle de Braulio Foz cycle parking","properties":{"access":"unknown","bicycle_pa":"","capacity":0,"covered":"","fee":"","operator":"","nameSource":"street"},"sourceId":"osm"},{"id":"osm:node:11952351154","latitude":41.6510296,"longitude":-0.8849338,"name":"Calle del Doctor Antonio Val-Carreres Ortiz near Calle Azoque","properties":{"access":"unknown","bicycle_pa":"stands","capacity":10,"covered":"no","fee":"","operator":"Ayuntamiento de Zaragoza","nameSource":"junction"},"sourceId":"osm"},{"id":"osm:node:11980983989","latitude":41.6833222,"longitude":-0.8847606,"name":"Calle María de Luna by Biblioteca Hypatia de Alejandría","properties":{"access":"unknown","bicycle_pa":"","capacity":0,"covered":"yes","fee":"","operator":"","nameSource":"landmark"},"sourceId":"osm"},{"id":"osm:node:11985969327","latitude":41.6417129,"longitude":-0.8912029,"name":"Calle Juan José Rivas near Calle de Mariano Barbasán","properties":{"access":"unknown","bicycle_pa":"stands","capacity":0,"covered":"","fee":"","operator":"Ayuntamiento de Zaragoza","nameSource":"junction"},"sourceId":"osm"},{"id":"osm:node:12078769200","latitude":41.6585567,"longitude":-0.9388005,"name":"Camino de Épila near Camino del Pilón","properties":{"access":"unknown","bicycle_pa":"stands","capacity":8,"covered":"","fee":"","operator":"Ayuntamiento de Zaragoza","nameSource":"junction"},"sourceId":"osm"},{"id":"osm:node:12078775082","latitude":41.6570373,"longitude":-0.9392778,"name":"Calle del Pico de Cotiella near Camino de Épila","properties":{"access":"unknown","bicycle_pa":"stands","capacity":8,"covered":"","fee":"","operator":"Ayuntamiento de Zaragoza","nameSource":"junction"},"sourceId":"osm"},{"id":"osm:node:12078968910","latitude":41.6578157,"longitude":-0.9162664,"name":"Avenida de Navarra near Calle Miguel Herrero y Rodríguez de Miñón","properties":{"access":"unknown","bicycle_pa":"stands","capacity":0,"covered":"","fee":"","operator":"Ayuntamiento de Zaragoza","nameSource":"junction"},"sourceId":"osm"},{"id":"osm:node:12179643704","latitude":41.6405857,"longitude":-0.9103214,"name":"Avenida Juan Pablo II near Andador del Teniente General Quintana Lacacci","properties":{"access":"unknown","bicycle_pa":"","capacity":0,"covered":"","fee":"","operator":"","nameSource":"junction"},"sourceId":"osm"},{"id":"osm:node:12197103604","latitude":41.6425086,"longitude":-0.8822604,"name":"Plaza Albert Schweitzer near Calle de la Paz","properties":{"access":"yes","bicycle_pa":"stands","capacity":10,"covered":"no","fee":"no","operator":"Ayuntamiento de Zaragoza","nameSource":"junction"},"sourceId":"osm"},{"id":"osm:node:12197103605","latitude":41.6449851,"longitude":-0.8837469,"name":"Calle de León XIII near Paseo de las Damas","properties":{"access":"yes","bicycle_pa":"stands","capacity":10,"covered":"yes","fee":"no","operator":"Ayuntamiento de Zaragoza","nameSource":"junction"},"sourceId":"osm"},{"id":"osm:node:12386869168","latitude":41.642695,"longitude":-0.909121,"name":"Avenida Juan Carlos I near Calle de Sabiñánigo","properties":{"access":"unknown","bicycle_pa":"stands","capacity":8,"covered":"","fee":"","operator":"","nameSource":"junction"},"sourceId":"osm"},{"id":"osm:node:12471349205","latitude":41.6501749,"longitude":-0.8811558,"name":"Calle de Jerónimo Zurita near Calle de Isaac Peral","properties":{"access":"unknown","bicycle_pa":"stands","capacity":10,"covered":"no","fee":"","operator":"Ayuntamiento de Zaragoza","nameSource":"junction"},"sourceId":"osm"},{"id":"osm:node:12471349207","latitude":41.6501969,"longitude":-0.8808434,"name":"Calle de Jerónimo Zurita near Calle de Isaac Peral","properties":{"access":"unknown","bicycle_pa":"stands","capacity":10,"covered":"no","fee":"","operator":"Ayuntamiento de Zaragoza","nameSource":"junction"},"sourceId":"osm"},{"id":"osm:node:12484254470","latitude":41.6408208,"longitude":-0.888929,"name":"Calle Doctor Lozano Monzón near Calle de Juan Pablo Bonet","properties":{"access":"yes","bicycle_pa":"stands","capacity":0,"covered":"no","fee":"","operator":"Ayuntamiento de Zaragoza","nameSource":"junction"},"sourceId":"osm"},{"id":"osm:node:12484329836","latitude":41.6411184,"longitude":-0.891799,"name":"Calle San Juan de la Cruz near Calle Juan José Rivas","properties":{"access":"yes","bicycle_pa":"stands","capacity":10,"covered":"no","fee":"","operator":"Ayuntamiento de Zaragoza","nameSource":"junction"},"sourceId":"osm"},{"id":"osm:node:12496618614","latitude":41.6441674,"longitude":-0.9277023,"name":"Calle Dalia near Calle Orquídea","properties":{"access":"unknown","bicycle_pa":"rack","capacity":0,"covered":"","fee":"","operator":"","nameSource":"junction"},"sourceId":"osm"},{"id":"osm:node:12496618628","latitude":41.643757,"longitude":-0.9273302,"name":"Calle Dalia near Avenida de Valdefierro","properties":{"access":"unknown","bicycle_pa":"rack","capacity":0,"covered":"","fee":"","operator":"","nameSource":"junction"},"sourceId":"osm"},{"id":"osm:node:12506764847","latitude":41.6432572,"longitude":-0.8905981,"name":"Calle de Martín Ruizanglada near Avenida Francisco de Goya","properties":{"access":"yes","bicycle_pa":"stands","capacity":10,"covered":"no","fee":"","operator":"Ayuntamiento de Zaragoza","nameSource":"junction"},"sourceId":"osm"},{"id":"osm:node:12529447805","latitude":41.6545886,"longitude":-0.9115499,"name":"Calle de Celso Emilio Ferreiro near Calle de Alfonso Carlos Comín Ros","properties":{"access":"unknown","bicycle_pa":"stands","capacity":10,"covered":"","fee":"","operator":"Ayuntamiento de Zaragoza","nameSource":"junction"},"sourceId":"osm"},{"id":"osm:node:12529447806","latitude":41.6545528,"longitude":-0.9115161,"name":"Calle de Celso Emilio Ferreiro near Calle de Alfonso Carlos Comín Ros","properties":{"access":"unknown","bicycle_pa":"","capacity":7,"covered":"","fee":"","operator":"Ayuntamiento de Zaragoza","nameSource":"junction"},"sourceId":"osm"},{"id":"osm:node:1256882332","latitude":41.6664446,"longitude":-0.8868268,"name":"Intercambiador Valle de Broto near Calle de Gertrudis Gómez de Avellaneda","properties":{"access":"unknown","bicycle_pa":"stands","capacity":8,"covered":"no","fee":"","operator":"Ayuntamiento de Zaragoza","nameSource":"junction"},"sourceId":"osm"},{"id":"osm:node:1256882335","latitude":41.6669201,"longitude":-0.8829416,"name":"Calle Nicolás Guillén near Calle del Valle de Broto","properties":{"access":"unknown","bicycle_pa":"","capacity":10,"covered":"","fee":"","operator":"","nameSource":"junction"},"sourceId":"osm"},{"id":"osm:node:1259171744","latitude":41.6686838,"longitude":-0.889383,"name":"Calle Clara Campoamor near Calle de Gertrudis Gómez de Avellaneda","properties":{"access":"yes","bicycle_pa":"stands","capacity":38,"covered":"no","fee":"","operator":"Ayuntamiento de Zaragoza","nameSource":"junction"},"sourceId":"osm"},{"id":"osm:node:1268294798","latitude":41.6407707,"longitude":-0.9101075,"name":"Andador del Teniente General Quintana Lacacci near Avenida Juan Pablo II","properties":{"access":"unknown","bicycle_pa":"","capacity":0,"covered":"","fee":"","operator":"","nameSource":"junction"},"sourceId":"osm"},{"id":"osm:node:1273377580","latitude":41.6547076,"longitude":-0.904375,"name":"Paseo de Calanda near Avenida de Navarra","properties":{"access":"unknown","bicycle_pa":"stands","capacity":0,"covered":"no","fee":"","operator":"","nameSource":"junction"},"sourceId":"osm"},{"id":"osm:node:1273378052","latitude":41.6542104,"longitude":-0.9043705,"name":"Paseo de Calanda near Calle San Antonio Abad","properties":{"access":"unknown","bicycle_pa":"stands","capacity":12,"covered":"no","fee":"","operator":"","nameSource":"junction"},"sourceId":"osm"},{"id":"osm:node:1273425503","latitude":41.6613664,"longitude":-0.8855532,"name":"Avenida José Atarés near Calle de Gertrudis Gómez de Avellaneda","properties":{"access":"unknown","bicycle_pa":"wall_loops","capacity":0,"covered":"no","fee":"","operator":"","nameSource":"junction"},"sourceId":"osm"},{"id":"osm:node:1273425529","latitude":41.6616453,"longitude":-0.8869479,"name":"Avenida José Atarés near Calle de Francisco Martínez Soria","properties":{"access":"unknown","bicycle_pa":"wall_loops","capacity":6,"covered":"no","fee":"","operator":"","nameSource":"junction"},"sourceId":"osm"},{"id":"osm:node:12944275233","latitude":41.6424041,"longitude":-0.8948742,"name":"Calle de Corona de Aragón near Calle Baltasar Gracián","properties":{"access":"unknown","bicycle_pa":"stands","capacity":0,"covered":"","fee":"","operator":"Ayuntamiento de Zaragoza","nameSource":"junction"},"sourceId":"osm"},{"id":"osm:node:13019635270","latitude":41.6483899,"longitude":-0.8881251,"name":"Calle Almagro near Calle de Francisco Pizarro","properties":{"access":"unknown","bicycle_pa":"stands","capacity":10,"covered":"no","fee":"","operator":"","nameSource":"junction"},"sourceId":"osm"},{"id":"osm:node:13065067190","latitude":41.6527524,"longitude":-0.8837937,"name":"Calle Morería near Plaza Salamero","properties":{"access":"unknown","bicycle_pa":"","capacity":0,"covered":"","fee":"","operator":"Ayuntamiento de Zaragoza","nameSource":"junction"},"sourceId":"osm"},{"id":"osm:node:13065327722","latitude":41.6476445,"longitude":-0.8865233,"name":"Paseo de Pamplona near Calle de Doctor Cerrada","properties":{"access":"unknown","bicycle_pa":"stands","capacity":10,"covered":"no","fee":"","operator":"Ayuntamiento de Zaragoza","nameSource":"junction"},"sourceId":"osm"},{"id":"osm:node:13068387611","latitude":41.6610769,"longitude":-0.8999314,"name":"Calle Batalla de Arapiles near Avenida de Pablo Gargallo","properties":{"access":"unknown","bicycle_pa":"stands","capacity":10,"covered":"","fee":"","operator":"Ayuntamiento de Zaragoza","nameSource":"junction"},"sourceId":"osm"},{"id":"osm:node:13068387615","latitude":41.6599889,"longitude":-0.8943788,"name":"Calle de Mariano Castillo near Avenida de la Almozara","properties":{"access":"unknown","bicycle_pa":"stands","capacity":6,"covered":"","fee":"","operator":"Ayuntamiento de Zaragoza","nameSource":"junction"},"sourceId":"osm"},{"id":"osm:node:13086748548","latitude":41.6523275,"longitude":-0.9130668,"name":"Calle de Julián Sanz Ibáñez near Calle Garcilaso de la Vega","properties":{"access":"yes","bicycle_pa":"stands","capacity":10,"covered":"no","fee":"no","operator":"Ayuntamiento de Zaragoza","nameSource":"junction"},"sourceId":"osm"},{"id":"osm:node:13086748593","latitude":41.6521216,"longitude":-0.9136834,"name":"Calle de Julián Sanz Ibáñez near Calle de las Madres de la Plaza de Mayo","properties":{"access":"yes","bicycle_pa":"stands","capacity":10,"covered":"no","fee":"no","operator":"Ayuntamiento de Zaragoza","nameSource":"junction"},"sourceId":"osm"},{"id":"osm:node:13089230532","latitude":41.6496362,"longitude":-0.9299406,"name":"Calle de San Alberto Magno near Calle Lagos de Millares","properties":{"access":"unknown","bicycle_pa":"stands","capacity":6,"covered":"no","fee":"","operator":"","nameSource":"junction"},"sourceId":"osm"},{"id":"osm:node:13094775786","latitude":41.6563397,"longitude":-0.8911428,"name":"Calle de Basilio Boggiero near Calle de Santa Inés","properties":{"access":"unknown","bicycle_pa":"stands","capacity":10,"covered":"no","fee":"","operator":"Ayuntamiento de Zaragoza","nameSource":"junction"},"sourceId":"osm"},{"id":"osm:node:13094775788","latitude":41.6559155,"longitude":-0.8910981,"name":"Calle Conde de Aranda near Calle de Santa Inés","properties":{"access":"unknown","bicycle_pa":"stands","capacity":10,"covered":"no","fee":"","operator":"Ayuntamiento de Zaragoza","nameSource":"junction"},"sourceId":"osm"},{"id":"osm:node:13094775790","latitude":41.6560546,"longitude":-0.8924604,"name":"Calle Conde de Aranda near Plaza del Portillo","properties":{"access":"unknown","bicycle_pa":"stands","capacity":10,"covered":"no","fee":"","operator":"Ayuntamiento de Zaragoza","nameSource":"junction"},"sourceId":"osm"},{"id":"osm:node:13094809557","latitude":41.6581415,"longitude":-0.8894513,"name":"Calle del Doctor Ramón Celma Bernal near Calle de Santa Lucía","properties":{"access":"unknown","bicycle_pa":"stands","capacity":8,"covered":"no","fee":"","operator":"Ayuntamiento de Zaragoza","nameSource":"junction"},"sourceId":"osm"},{"id":"osm:node:1312412505","latitude":41.6830252,"longitude":-0.8876307,"name":"Calle María de Luna by Campus. Ada Byron","properties":{"access":"unknown","bicycle_pa":"stands","capacity":33,"covered":"no","fee":"","operator":"","nameSource":"landmark"},"sourceId":"osm"},{"id":"osm:node:1317171349","latitude":41.684527,"longitude":-0.8849737,"name":"Centro de Investigación de recursos y consumos energéticos cycle parking","properties":{"access":"unknown","bicycle_pa":"","capacity":0,"covered":"","fee":"","operator":"","nameSource":"landmark"},"sourceId":"osm"},{"id":"osm:node:13375692130","latitude":41.6606375,"longitude":-0.927431,"name":"Paseo Lagos de Alba near Calle Lagos de Llosas","properties":{"access":"unknown","bicycle_pa":"stands","capacity":0,"covered":"","fee":"","operator":"Ayuntamiento de Zaragoza","nameSource":"junction"},"sourceId":"osm"},{"id":"osm:node:13376151857","latitude":41.6555188,"longitude":-0.9061657,"name":"Calle de Alagón near Avenida de Navarra","properties":{"access":"unknown","bicycle_pa":"stands","capacity":10,"covered":"","fee":"","operator":"Ayuntamiento de Zaragoza","nameSource":"junction"},"sourceId":"osm"},{"id":"osm:node:13442643946","latitude":41.6450873,"longitude":-0.9163172,"name":"Vía Hispanidad near Calle de la Villa de Andorra","properties":{"access":"unknown","bicycle_pa":"stands","capacity":10,"covered":"","fee":"","operator":"Ayuntamiento de Zaragoza","nameSource":"junction"},"sourceId":"osm"},{"id":"osm:node:13447918712","latitude":41.6406474,"longitude":-0.8972921,"name":"Calle de Pedro Cerbuna near Calle Andrés Giménez Soler","properties":{"access":"yes","bicycle_pa":"stands","capacity":12,"covered":"no","fee":"no","operator":"Ayuntamiento de Zaragoza","nameSource":"junction"},"sourceId":"osm"},{"id":"osm:node:13479838502","latitude":41.6475237,"longitude":-0.8808618,"name":"Paseo de la Constitución near Calle de Mariano Escar","properties":{"access":"yes","bicycle_pa":"stands","capacity":14,"covered":"no","fee":"no","operator":"Ayuntamiento de Zaragoza","nameSource":"junction"},"sourceId":"osm"},{"id":"osm:node:13791281615","latitude":41.6541099,"longitude":-0.9102145,"name":"Calle de Celso Emilio Ferreiro near Calle de la Rioja","properties":{"access":"unknown","bicycle_pa":"stands","capacity":10,"covered":"","fee":"","operator":"","nameSource":"junction"},"sourceId":"osm"},{"id":"osm:node:13823930411","latitude":41.6830247,"longitude":-0.8874306,"name":"Calle María de Luna by Rua Restauración","properties":{"access":"unknown","bicycle_pa":"stands","capacity":0,"covered":"no","fee":"","operator":"","nameSource":"landmark"},"sourceId":"osm"},{"id":"osm:node:13830741903","latitude":41.6675348,"longitude":-0.9221573,"name":"Paseo del Soto de Almozara cycle parking","properties":{"access":"unknown","bicycle_pa":"","capacity":0,"covered":"","fee":"","operator":"","nameSource":"street"},"sourceId":"osm"},{"id":"osm:node:13830741904","latitude":41.6583634,"longitude":-0.9282672,"name":"Calle Carlos Oriz García near Camino del Pilón","properties":{"access":"unknown","bicycle_pa":"","capacity":0,"covered":"","fee":"","operator":"","nameSource":"junction"},"sourceId":"osm"},{"id":"osm:node:13830742004","latitude":41.6608694,"longitude":-0.9348327,"name":"Paseo Lagos de Alba cycle parking","properties":{"access":"unknown","bicycle_pa":"","capacity":0,"covered":"","fee":"","operator":"","nameSource":"street"},"sourceId":"osm"},{"id":"osm:node:13830742104","latitude":41.6639103,"longitude":-0.9158479,"name":"Paseo del Soto de Almozara cycle parking","properties":{"access":"unknown","bicycle_pa":"","capacity":0,"covered":"","fee":"","operator":"","nameSource":"street"},"sourceId":"osm"},{"id":"osm:node:13830742106","latitude":41.6610135,"longitude":-0.9316502,"name":"Paseo Lagos de Alba cycle parking","properties":{"access":"unknown","bicycle_pa":"","capacity":0,"covered":"","fee":"","operator":"","nameSource":"street"},"sourceId":"osm"},{"id":"osm:node:13830742107","latitude":41.6586307,"longitude":-0.9406407,"name":"Camino del Pilón near Calle de Antonio Layus","properties":{"access":"unknown","bicycle_pa":"","capacity":0,"covered":"","fee":"","operator":"","nameSource":"junction"},"sourceId":"osm"},{"id":"osm:node:13830742110","latitude":41.6515464,"longitude":-0.9208738,"name":"Calle de Alfredo Nobel near Calle de Madre Barat","properties":{"access":"unknown","bicycle_pa":"","capacity":0,"covered":"","fee":"","operator":"","nameSource":"junction"},"sourceId":"osm"},{"id":"osm:node:13830742111","latitude":41.6506562,"longitude":-0.9226819,"name":"Calle Teodora Lamadrid near Calle de Pilar Aranda","properties":{"access":"unknown","bicycle_pa":"","capacity":0,"covered":"","fee":"","operator":"","nameSource":"junction"},"sourceId":"osm"},{"id":"osm:node:13909466266","latitude":41.6467531,"longitude":-0.8873079,"name":"Gran Vía de Santiago Ramón y Cajal near Calle Mariano Royo Urieta","properties":{"access":"unknown","bicycle_pa":"","capacity":0,"covered":"","fee":"","operator":"","nameSource":"junction"},"sourceId":"osm"},{"id":"osm:node:13912162640","latitude":41.6441939,"longitude":-0.8881284,"name":"Calle del Arzobispo Doménech near Calle de Miguel de Cervantes","properties":{"access":"unknown","bicycle_pa":"stands","capacity":10,"covered":"","fee":"","operator":"Ayuntamiento de Zaragoza","nameSource":"junction"},"sourceId":"osm"},{"id":"osm:node:13912449177","latitude":41.6566567,"longitude":-0.9085558,"name":"Calle de la Rioja near Calle Siracusa","properties":{"access":"yes","bicycle_pa":"stands","capacity":10,"covered":"no","fee":"","operator":"Ayuntamiento de Zaragoza","nameSource":"junction"},"sourceId":"osm"},{"id":"osm:node:13925683479","latitude":41.6677807,"longitude":-0.8866447,"name":"Calle de León Felipe near Calle Jorge Guillén","properties":{"access":"unknown","bicycle_pa":"stands","capacity":10,"covered":"","fee":"","operator":"Ayuntamiento de Zaragoza","nameSource":"junction"},"sourceId":"osm"},{"id":"osm:node:1786818886","latitude":41.6402913,"longitude":-0.9011749,"name":"Calle de Domingo Miral near Calle de San Francisco de Borja","properties":{"access":"unknown","bicycle_pa":"","capacity":0,"covered":"","fee":"","operator":"","nameSource":"junction"},"sourceId":"osm"},{"id":"osm:node:1786818888","latitude":41.6405152,"longitude":-0.8990109,"name":"Calle de Domingo Miral by Biblioteca del Colectivo Pedalea. Universidad de Zaragoza","properties":{"access":"unknown","bicycle_pa":"stands","capacity":0,"covered":"","fee":"","operator":"","nameSource":"landmark"},"sourceId":"osm"},{"id":"osm:node:1786818890","latitude":41.6407223,"longitude":-0.9014989,"name":"Calle de Domingo Miral near Calle de San Francisco de Borja","properties":{"access":"unknown","bicycle_pa":"stands","capacity":12,"covered":"","fee":"no","operator":"","nameSource":"junction"},"sourceId":"osm"},{"id":"osm:node:1786818891","latitude":41.6412187,"longitude":-0.8978413,"name":"Calle Andrés Giménez Soler cycle parking","properties":{"access":"unknown","bicycle_pa":"stands","capacity":30,"covered":"no","fee":"no","operator":"","nameSource":"street"},"sourceId":"osm"},{"id":"osm:node:1786818892","latitude":41.6416629,"longitude":-0.9100762,"name":"Avenida del Alcalde Gómez Laguna near Avenida Juan Carlos I","properties":{"access":"unknown","bicycle_pa":"stands","capacity":0,"covered":"no","fee":"","operator":"","nameSource":"junction"},"sourceId":"osm"},{"id":"osm:node:1786818894","latitude":41.6418065,"longitude":-0.9027706,"name":"Calle de Domingo Miral near Calle del Jesuita Ignacio Ellacuría","properties":{"access":"unknown","bicycle_pa":"","capacity":0,"covered":"","fee":"","operator":"","nameSource":"junction"},"sourceId":"osm"},{"id":"osm:node:1786818895","latitude":41.6419274,"longitude":-0.8965299,"name":"Calle de Pedro Cerbuna near Plaza de San Francisco","properties":{"access":"unknown","bicycle_pa":"stands","capacity":56,"covered":"no","fee":"no","operator":"Ayuntamiento de Zaragoza","nameSource":"junction"},"sourceId":"osm"},{"id":"osm:node:1786818899","latitude":41.6423245,"longitude":-0.8977965,"name":"Calle de Menéndez Pelayo cycle parking","properties":{"access":"unknown","bicycle_pa":"stands","capacity":18,"covered":"no","fee":"no","operator":"","nameSource":"street"},"sourceId":"osm"},{"id":"osm:node:1786818902","latitude":41.6429379,"longitude":-0.899138,"name":"Calle de Menéndez Pelayo cycle parking","properties":{"access":"unknown","bicycle_pa":"stands","capacity":40,"covered":"no","fee":"no","operator":"","nameSource":"street"},"sourceId":"osm"},{"id":"osm:node:1786818903","latitude":41.6430925,"longitude":-0.8998866,"name":"Pabellón Polideportivo cycle parking","properties":{"access":"unknown","bicycle_pa":"stands","capacity":36,"covered":"no","fee":"","operator":"","nameSource":"landmark"},"sourceId":"osm"},{"id":"osm:node:1786818904","latitude":41.6434908,"longitude":-0.8971112,"name":"Calle Concepción Arenal near Calle de Corona de Aragón","properties":{"access":"unknown","bicycle_pa":"","capacity":0,"covered":"","fee":"","operator":"","nameSource":"junction"},"sourceId":"osm"},{"id":"osm:node:1786818906","latitude":41.6438456,"longitude":-0.9032555,"name":"Avenida de San Juan Bosco near Calle de Martina Bescós García","properties":{"access":"unknown","bicycle_pa":"stands","capacity":0,"covered":"no","fee":"","operator":"","nameSource":"junction"},"sourceId":"osm"},{"id":"osm:node:1786818907","latitude":41.6454249,"longitude":-0.9114516,"name":"Calle de Sigüés near Calle de la Duquesa de Villahermosa","properties":{"access":"unknown","bicycle_pa":"","capacity":0,"covered":"","fee":"","operator":"","nameSource":"junction"},"sourceId":"osm"},{"id":"osm:node:1786818908","latitude":41.6454987,"longitude":-0.8853104,"name":"Paseo de Sagasta near Paseo de las Damas","properties":{"access":"unknown","bicycle_pa":"","capacity":0,"covered":"","fee":"","operator":"","nameSource":"junction"},"sourceId":"osm"},{"id":"osm:node:1786818909","latitude":41.6462622,"longitude":-0.9210552,"name":"Calle Océano Atlántico cycle parking","properties":{"access":"unknown","bicycle_pa":"","capacity":0,"covered":"","fee":"","operator":"","nameSource":"street"},"sourceId":"osm"},{"id":"osm:node:1786818910","latitude":41.6463434,"longitude":-0.9085653,"name":"Calle de la Duquesa de Villahermosa near Vía Univérsitas","properties":{"access":"unknown","bicycle_pa":"","capacity":0,"covered":"","fee":"","operator":"","nameSource":"junction"},"sourceId":"osm"},{"id":"osm:node:1786818912","latitude":41.647075,"longitude":-0.8891565,"name":"Calle de Doctor Cerrada near Plaza de Mariano Arregui Canela","properties":{"access":"unknown","bicycle_pa":"stands","capacity":20,"covered":"no","fee":"","operator":"","nameSource":"junction"},"sourceId":"osm"},{"id":"osm:node:1786818913","latitude":41.6476226,"longitude":-0.9144832,"name":"Calle de Nuestra Señora de Salz near Calle de Terrer","properties":{"access":"yes","bicycle_pa":"anchors","capacity":20,"covered":"","fee":"no","operator":"","nameSource":"junction"},"sourceId":"osm"},{"id":"osm:node:1786818914","latitude":41.6478486,"longitude":-0.9056641,"name":"Calle de Santa Rita de Casia near Calle de Quinto de Ebro","properties":{"access":"unknown","bicycle_pa":"","capacity":0,"covered":"","fee":"","operator":"","nameSource":"junction"},"sourceId":"osm"},{"id":"osm:node:1786818917","latitude":41.6484354,"longitude":-0.8852265,"name":"Calle Canfranc near Calle Ponciano Ponzano","properties":{"access":"unknown","bicycle_pa":"stands","capacity":10,"covered":"no","fee":"","operator":"Ayuntamiento de Zaragoza","nameSource":"junction"},"sourceId":"osm"},{"id":"osm:node:1786818918","latitude":41.6485323,"longitude":-0.9098219,"name":"Calle Hermanos Gambra cycle parking","properties":{"access":"unknown","bicycle_pa":"","capacity":0,"covered":"","fee":"","operator":"","nameSource":"street"},"sourceId":"osm"},{"id":"osm:node:1786818919","latitude":41.6490972,"longitude":-0.8989544,"name":"Plaza de Roma near Calle de Desiderio Escosura","properties":{"access":"unknown","bicycle_pa":"stands","capacity":12,"covered":"no","fee":"","operator":"Ayuntamiento de Zaragoza","nameSource":"junction"},"sourceId":"osm"},{"id":"osm:node:1786818922","latitude":41.6495247,"longitude":-0.8850723,"name":"Calle José Luis Albareda near Calle Ponciano Ponzano","properties":{"access":"unknown","bicycle_pa":"stands","capacity":12,"covered":"no","fee":"","operator":"","nameSource":"junction"},"sourceId":"osm"},{"id":"osm:node:1786818923","latitude":41.6495938,"longitude":-0.9134637,"name":"Calle de Eloy Martínez near Calle de José María Salvador Ascaso","properties":{"access":"unknown","bicycle_pa":"","capacity":0,"covered":"","fee":"","operator":"","nameSource":"junction"},"sourceId":"osm"},{"id":"osm:node:1786818925","latitude":41.6500777,"longitude":-0.8820918,"name":"Pasaje Argensola near Calle de Juan Moneva","properties":{"access":"unknown","bicycle_pa":"","capacity":0,"covered":"","fee":"","operator":"","nameSource":"junction"},"sourceId":"osm"},{"id":"osm:node:1786818926","latitude":41.6503484,"longitude":-0.9050286,"name":"Calle de Caspe near Calle de las Delicias","properties":{"access":"unknown","bicycle_pa":"","capacity":0,"covered":"no","fee":"","operator":"","nameSource":"junction"},"sourceId":"osm"},{"id":"osm:node:1786818928","latitude":41.6508278,"longitude":-0.8846856,"name":"Plaza Nuestra Señora del Carmen near Calle Cádiz","properties":{"access":"yes","bicycle_pa":"stands","capacity":16,"covered":"no","fee":"no","operator":"Ayuntamiento de Zaragoza","nameSource":"junction"},"sourceId":"osm"},{"id":"osm:node:1786818931","latitude":41.6519864,"longitude":-0.9243096,"name":"Anillo Verde de Zaragoza near Calle de Antonio Leyva","properties":{"access":"unknown","bicycle_pa":"","capacity":0,"covered":"","fee":"","operator":"","nameSource":"junction"},"sourceId":"osm"},{"id":"osm:node:1786818932","latitude":41.6522395,"longitude":-0.8814801,"name":"Plaza de España near Salida a Plaza de España","properties":{"access":"yes","bicycle_pa":"stands","capacity":10,"covered":"no","fee":"no","operator":"Ayuntamiento de Zaragoza","nameSource":"junction"},"sourceId":"osm"},{"id":"osm:node:1786818933","latitude":41.6522633,"longitude":-0.8789481,"name":"Plaza de José Sinués Urbiola near Calle San Andrés","properties":{"access":"unknown","bicycle_pa":"stands","capacity":20,"covered":"no","fee":"","operator":"","nameSource":"junction"},"sourceId":"osm"},{"id":"osm:node:1786818936","latitude":41.65277,"longitude":-0.8913571,"name":"Paseo de María Agustín near Calle del General Mayandía","properties":{"access":"unknown","bicycle_pa":"","capacity":0,"covered":"","fee":"","operator":"","nameSource":"junction"},"sourceId":"osm"},{"id":"osm:node:1786818940","latitude":41.6538488,"longitude":-0.8807324,"name":"Calle del Blasón Aragonés near Calle de Estébanes","properties":{"access":"yes","bicycle_pa":"stands","capacity":10,"covered":"no","fee":"no","operator":"Ayuntamiento de Zaragoza","nameSource":"junction"},"sourceId":"osm"},{"id":"osm:node:1786818945","latitude":41.6545541,"longitude":-0.8889499,"name":"Calle de Mariano Cerezo near Calle Ramón Pignatelli","properties":{"access":"unknown","bicycle_pa":"","capacity":0,"covered":"","fee":"","operator":"","nameSource":"junction"},"sourceId":"osm"},{"id":"osm:node:1786818948","latitude":41.6558701,"longitude":-0.9182703,"name":"Calle de Emilio Moreno Alcañiz near Calle de Ramón José Sender","properties":{"access":"unknown","bicycle_pa":"stands","capacity":20,"covered":"","fee":"","operator":"","nameSource":"junction"},"sourceId":"osm"},{"id":"osm:node:1786818950","latitude":41.6570263,"longitude":-0.9115825,"name":"Avenida de Navarra cycle parking","properties":{"access":"unknown","bicycle_pa":"","capacity":0,"covered":"","fee":"","operator":"","nameSource":"street"},"sourceId":"osm"},{"id":"osm:node:1786818952","latitude":41.6574542,"longitude":-0.9069062,"name":"Calle Antonio Cano Mata near Calle Alfamén","properties":{"access":"unknown","bicycle_pa":"","capacity":0,"covered":"","fee":"","operator":"","nameSource":"junction"},"sourceId":"osm"},{"id":"osm:node:1786818953","latitude":41.6580112,"longitude":-0.9085964,"name":"Calle de la Rioja near Avenida de la Ciudad de Soria","properties":{"access":"unknown","bicycle_pa":"","capacity":0,"covered":"","fee":"","operator":"","nameSource":"junction"},"sourceId":"osm"},{"id":"osm:node:1786818955","latitude":41.657857,"longitude":-0.8951708,"name":"Calle de los Diputados near Plaza de Emilio Alfaro Gracia","properties":{"access":"yes","bicycle_pa":"stands","capacity":10,"covered":"no","fee":"no","operator":"Ayuntamiento de Zaragoza","nameSource":"junction"},"sourceId":"osm"},{"id":"osm:node:1786818958","latitude":41.6587899,"longitude":-0.8888251,"name":"Paseo de Echegaray y Caballero near Calle del Doctor Ramón Celma Bernal","properties":{"access":"unknown","bicycle_pa":"stands","capacity":26,"covered":"no","fee":"","operator":"","nameSource":"junction"},"sourceId":"osm"},{"id":"osm:node:1786818961","latitude":41.6599684,"longitude":-0.9384143,"name":"Ronda Ibón de Plan near Paseo Lagos de Alba","properties":{"access":"unknown","bicycle_pa":"","capacity":0,"covered":"","fee":"","operator":"","nameSource":"junction"},"sourceId":"osm"},{"id":"osm:node:1786818965","latitude":41.6628607,"longitude":-0.8959663,"name":"Calle de la Sierra de Vicor near Calle del Río Aragón","properties":{"access":"unknown","bicycle_pa":"stands","capacity":32,"covered":"no","fee":"","operator":"","nameSource":"junction"},"sourceId":"osm"},{"id":"osm:node:1786818966","latitude":41.6642949,"longitude":-0.9061829,"name":"Avenida de Francia near Avenida de la Almozara","properties":{"access":"unknown","bicycle_pa":"","capacity":0,"covered":"","fee":"","operator":"","nameSource":"junction"},"sourceId":"osm"},{"id":"osm:node:1786818967","latitude":41.6643204,"longitude":-0.8817928,"name":"Calle de María Montessori cycle parking","properties":{"access":"unknown","bicycle_pa":"","capacity":0,"covered":"","fee":"","operator":"","nameSource":"street"},"sourceId":"osm"},{"id":"osm:node:1786818969","latitude":41.6677679,"longitude":-0.8951572,"name":"Avenida José Atarés by C.M.F. Nuevo Ranillas","properties":{"access":"unknown","bicycle_pa":"","capacity":0,"covered":"","fee":"","operator":"","nameSource":"landmark"},"sourceId":"osm"},{"id":"osm:node:1786818975","latitude":41.6718357,"longitude":-0.8960301,"name":"Andador Pilar Cuartero Molinero near Calle de Pablo Ruiz Picasso","properties":{"access":"unknown","bicycle_pa":"stands","capacity":10,"covered":"no","fee":"","operator":"","nameSource":"junction"},"sourceId":"osm"},{"id":"osm:node:1786818976","latitude":41.6716922,"longitude":-0.8999344,"name":"Avenida de las Ranillas cycle parking","properties":{"access":"unknown","bicycle_pa":"","capacity":0,"covered":"","fee":"","operator":"","nameSource":"street"},"sourceId":"osm"},{"id":"osm:node:1786818979","latitude":41.6731572,"longitude":-0.883342,"name":"Calle de Pablo Ruiz Picasso near Calle de Ana María Suárez López","properties":{"access":"unknown","bicycle_pa":"","capacity":0,"covered":"","fee":"","operator":"","nameSource":"junction"},"sourceId":"osm"},{"id":"osm:node:1786818980","latitude":41.6764251,"longitude":-0.8991966,"name":"Paseo del Gran Canal José Antonio Samaranch cycle parking","properties":{"access":"unknown","bicycle_pa":"","capacity":0,"covered":"","fee":"","operator":"","nameSource":"street"},"sourceId":"osm"},{"id":"osm:node:1786818981","latitude":41.676427,"longitude":-0.8884989,"name":"Calle José María Beltrán cycle parking","properties":{"access":"unknown","bicycle_pa":"stands","capacity":12,"covered":"no","fee":"","operator":"","nameSource":"street"},"sourceId":"osm"},{"id":"osm:node:1786818982","latitude":41.6765772,"longitude":-0.896437,"name":"Calle Pedro Saputo cycle parking","properties":{"access":"unknown","bicycle_pa":"","capacity":0,"covered":"","fee":"","operator":"","nameSource":"street"},"sourceId":"osm"},{"id":"osm:node:1786818983","latitude":41.6844763,"longitude":-0.8873914,"name":"Calle Mariano Esquillor Gómez by Jardín Zen","properties":{"access":"unknown","bicycle_pa":"stands","capacity":34,"covered":"no","fee":"","operator":"","nameSource":"landmark"},"sourceId":"osm"},{"id":"osm:node:1791826879","latitude":41.6417143,"longitude":-0.8995244,"name":"Romareda cycle parking","properties":{"access":"unknown","bicycle_pa":"stands","capacity":20,"covered":"no","fee":"no","operator":"","nameSource":"place"},"sourceId":"osm"},{"id":"osm:node:1791826883","latitude":41.6421977,"longitude":-0.9006722,"name":"Romareda cycle parking","properties":{"access":"unknown","bicycle_pa":"stands","capacity":66,"covered":"no","fee":"","operator":"","nameSource":"place"},"sourceId":"osm"},{"id":"osm:node:1797747133","latitude":41.6455984,"longitude":-0.8977905,"name":"Calle de Tomás Bretón near Calle Maestro Serrano","properties":{"access":"unknown","bicycle_pa":"stands","capacity":14,"covered":"no","fee":"","operator":"","nameSource":"junction"},"sourceId":"osm"},{"id":"osm:node:1804894833","latitude":41.6423778,"longitude":-0.9047358,"name":"Calle de Domingo Miral near Calle de Martina Bescós García","properties":{"access":"customers","bicycle_pa":"","capacity":0,"covered":"no","fee":"","operator":"","nameSource":"junction"},"sourceId":"osm"},{"id":"osm:node:1808730214","latitude":41.6422084,"longitude":-0.8960383,"name":"Calle de Menéndez Pelayo near Calle de Pedro Cerbuna","properties":{"access":"unknown","bicycle_pa":"","capacity":0,"covered":"yes","fee":"","operator":"","nameSource":"junction"},"sourceId":"osm"},{"id":"osm:node:1889895923","latitude":41.6669592,"longitude":-0.8849708,"name":"Calle Flora Tristán near Calle Nicolás Guillén","properties":{"access":"unknown","bicycle_pa":"","capacity":6,"covered":"no","fee":"","operator":"","nameSource":"junction"},"sourceId":"osm"},{"id":"osm:node:2081716141","latitude":41.6601054,"longitude":-0.8810041,"name":"Andador Vicente Comet Sánchez de Rojas by Macanaz","properties":{"access":"unknown","bicycle_pa":"stands","capacity":12,"covered":"no","fee":"","operator":"","nameSource":"landmark"},"sourceId":"osm"},{"id":"osm:node:2117631219","latitude":41.6420136,"longitude":-0.8992668,"name":"Romareda cycle parking","properties":{"access":"unknown","bicycle_pa":"stands","capacity":20,"covered":"no","fee":"no","operator":"","nameSource":"place"},"sourceId":"osm"},{"id":"osm:node:2508985874","latitude":41.6525779,"longitude":-0.8834882,"name":"Calle Morería near Plaza Salamero","properties":{"access":"yes","bicycle_pa":"stands","capacity":10,"covered":"no","fee":"no","operator":"Ayuntamiento de Zaragoza","nameSource":"junction"},"sourceId":"osm"},{"id":"osm:node:3051275719","latitude":41.6828014,"longitude":-0.8887581,"name":"Calle María de Luna near Calle Poeta Luciano Gracia","properties":{"access":"unknown","bicycle_pa":"stands","capacity":0,"covered":"no","fee":"","operator":"","nameSource":"junction"},"sourceId":"osm"},{"id":"osm:node:3060088122","latitude":41.6838324,"longitude":-0.8891386,"name":"Calle Poeta Luciano Gracia near Calle Mariano Esquillor Gómez","properties":{"access":"customers","bicycle_pa":"stands","capacity":60,"covered":"no","fee":"","operator":"Unizar","nameSource":"junction"},"sourceId":"osm"},{"id":"osm:node:3748567412","latitude":41.6530794,"longitude":-0.8829747,"name":"Plaza San Roque near Calle del Teniente Coronel Valenzuela","properties":{"access":"yes","bicycle_pa":"stands","capacity":10,"covered":"no","fee":"no","operator":"Ayuntamiento de Zaragoza","nameSource":"junction"},"sourceId":"osm"},{"id":"osm:node:4080386048","latitude":41.6422683,"longitude":-0.9053049,"name":"Calle Violante de Hungría by Escuela Oficial de Idiomas nº1 de Zaragoza","properties":{"access":"unknown","bicycle_pa":"","capacity":0,"covered":"","fee":"","operator":"","nameSource":"landmark"},"sourceId":"osm"},{"id":"osm:node:4080386049","latitude":41.6422995,"longitude":-0.9046006,"name":"Calle de Domingo Miral near Calle de Martina Bescós García","properties":{"access":"unknown","bicycle_pa":"stands","capacity":0,"covered":"no","fee":"","operator":"","nameSource":"junction"},"sourceId":"osm"},{"id":"osm:node:4080393750","latitude":41.6414835,"longitude":-0.8823349,"name":"Camino de las Torres by Colegio San Agustín","properties":{"access":"customers","bicycle_pa":"","capacity":0,"covered":"no","fee":"","operator":"","nameSource":"landmark"},"sourceId":"osm"},{"id":"osm:node:4080394033","latitude":41.6408118,"longitude":-0.8836176,"name":"Avenida de Tenor Fleta near Pasaje Ciuvasa","properties":{"access":"yes","bicycle_pa":"stands","capacity":12,"covered":"no","fee":"no","operator":"Ayuntamiento de Zaragoza","nameSource":"junction"},"sourceId":"osm"},{"id":"osm:node:4172780261","latitude":41.6566899,"longitude":-0.8853224,"name":"Calle de las Armas near Callejón El Sacramento","properties":{"access":"yes","bicycle_pa":"stands","capacity":32,"covered":"no","fee":"no","operator":"Ayuntamiento de Zaragoza","nameSource":"junction"},"sourceId":"osm"},{"id":"osm:node:4189231798","latitude":41.6420913,"longitude":-0.8983017,"name":"Romareda cycle parking","properties":{"access":"unknown","bicycle_pa":"stands","capacity":28,"covered":"no","fee":"no","operator":"","nameSource":"place"},"sourceId":"osm"},{"id":"osm:node:4200591777","latitude":41.6419185,"longitude":-0.8862935,"name":"Paseo de Sagasta near Avenida Francisco de Goya","properties":{"access":"yes","bicycle_pa":"stands","capacity":10,"covered":"no","fee":"no","operator":"Ayuntamiento de Zaragoza","nameSource":"junction"},"sourceId":"osm"},{"id":"osm:node:4373807158","latitude":41.6423793,"longitude":-0.8818291,"name":"Camino de las Torres near Paseo de los Rosales","properties":{"access":"unknown","bicycle_pa":"rack","capacity":6,"covered":"no","fee":"","operator":"","nameSource":"junction"},"sourceId":"osm"},{"id":"osm:node:4398168270","latitude":41.6543374,"longitude":-0.8843558,"name":"Avenida de César Augusto near Calle Conde de Aranda","properties":{"access":"unknown","bicycle_pa":"stands","capacity":20,"covered":"no","fee":"no","operator":"Ayuntamiento de Zaragoza","nameSource":"junction"},"sourceId":"osm"},{"id":"osm:node:4408031379","latitude":41.6534847,"longitude":-0.8791267,"name":"Calle de Casto Méndez Núñez near Calle de José Pellicer Ossaú","properties":{"access":"yes","bicycle_pa":"stands","capacity":10,"covered":"no","fee":"","operator":"Ayuntamiento de Zaragoza","nameSource":"junction"},"sourceId":"osm"},{"id":"osm:node:4412508257","latitude":41.6539834,"longitude":-0.880464,"name":"Calle del Pino near Plaza de Sas","properties":{"access":"yes","bicycle_pa":"stands","capacity":10,"covered":"no","fee":"no","operator":"Ayuntamiento de Zaragoza","nameSource":"junction"},"sourceId":"osm"},{"id":"osm:node:4418171318","latitude":41.6547955,"longitude":-0.8794147,"name":"Calle San Braulio near Plazuela San Braulio","properties":{"access":"unknown","bicycle_pa":"stands","capacity":12,"covered":"no","fee":"no","operator":"","nameSource":"junction"},"sourceId":"osm"},{"id":"osm:node:4430315208","latitude":41.6549105,"longitude":-0.8933022,"name":"Calle Marie Curie near Paseo de María Agustín","properties":{"access":"yes","bicycle_pa":"stands","capacity":10,"covered":"no","fee":"","operator":"Ayuntamiento de Zaragoza","nameSource":"junction"},"sourceId":"osm"},{"id":"osm:node:4434040789","latitude":41.642884,"longitude":-0.8987959,"name":"Calle de Menéndez Pelayo cycle parking","properties":{"access":"unknown","bicycle_pa":"stands","capacity":12,"covered":"no","fee":"no","operator":"","nameSource":"street"},"sourceId":"osm"},{"id":"osm:node:4435181389","latitude":41.6522434,"longitude":-0.8813036,"name":"Plaza de España near Salida a Plaza de España","properties":{"access":"unknown","bicycle_pa":"stands","capacity":20,"covered":"no","fee":"no","operator":"Ayuntamiento de Zaragoza","nameSource":"junction"},"sourceId":"osm"},{"id":"osm:node:4442662645","latitude":41.6407543,"longitude":-0.8904638,"name":"Calle de Manuel Lasala near Calle San Juan de la Cruz","properties":{"access":"unknown","bicycle_pa":"stands","capacity":6,"covered":"no","fee":"no","operator":"","nameSource":"junction"},"sourceId":"osm"},{"id":"osm:node:4442997090","latitude":41.6418828,"longitude":-0.8941218,"name":"Paseo de Fernando el Católico near Calle de Corona de Aragón","properties":{"access":"unknown","bicycle_pa":"stands","capacity":10,"covered":"no","fee":"no","operator":"","nameSource":"junction"},"sourceId":"osm"},{"id":"osm:node:4443030090","latitude":41.6454076,"longitude":-0.8896989,"name":"Gran Vía de Santiago Ramón y Cajal near Calle Mariano de Lagasca","properties":{"access":"unknown","bicycle_pa":"stands","capacity":6,"covered":"no","fee":"no","operator":"Ayuntamiento de Zaragoza","nameSource":"junction"},"sourceId":"osm"},{"id":"osm:node:4443030489","latitude":41.6420196,"longitude":-0.8940212,"name":"Calle Corona de Aragón near Paseo de Fernando el Católico","properties":{"access":"unknown","bicycle_pa":"stands","capacity":6,"covered":"no","fee":"no","operator":"","nameSource":"junction"},"sourceId":"osm"},{"id":"osm:node:4444279590","latitude":41.6481399,"longitude":-0.8845451,"name":"Paseo de la Independencia near Plaza Aragón","properties":{"access":"unknown","bicycle_pa":"stands","capacity":10,"covered":"no","fee":"no","operator":"Ayuntamiento de Zaragoza","nameSource":"junction"},"sourceId":"osm"},{"id":"osm:node:4444337894","latitude":41.6471816,"longitude":-0.8826421,"name":"Calle de Francisco de Vitoria near Calle de San Ignacio de Loyola","properties":{"access":"unknown","bicycle_pa":"stands","capacity":10,"covered":"no","fee":"no","operator":"","nameSource":"junction"},"sourceId":"osm"},{"id":"osm:node:4444339291","latitude":41.6479301,"longitude":-0.8820636,"name":"Paseo de la Constitución near Calle de San Ignacio de Loyola","properties":{"access":"yes","bicycle_pa":"stands","capacity":20,"covered":"no","fee":"no","operator":"Ayuntamiento de Zaragoza","nameSource":"junction"},"sourceId":"osm"},{"id":"osm:node:4444385889","latitude":41.6458324,"longitude":-0.8849742,"name":"Paseo de las Damas near Calle de San Ignacio de Loyola","properties":{"access":"unknown","bicycle_pa":"stands","capacity":28,"covered":"no","fee":"no","operator":"Ayuntamiento de Zaragoza","nameSource":"junction"},"sourceId":"osm"},{"id":"osm:node:4444450391","latitude":41.6444194,"longitude":-0.8917653,"name":"Gran Vía de Santiago Ramón y Cajal near Avenida Francisco de Goya","properties":{"access":"unknown","bicycle_pa":"stands","capacity":4,"covered":"no","fee":"no","operator":"","nameSource":"junction"},"sourceId":"osm"},{"id":"osm:node:4444450392","latitude":41.6440853,"longitude":-0.8918883,"name":"Avenida Francisco de Goya near Gran Vía de Santiago Ramón y Cajal","properties":{"access":"unknown","bicycle_pa":"stands","capacity":6,"covered":"no","fee":"no","operator":"","nameSource":"junction"},"sourceId":"osm"},{"id":"osm:node:4444502989","latitude":41.6443625,"longitude":-0.8916435,"name":"Gran Vía de Santiago Ramón y Cajal near Avenida Francisco de Goya","properties":{"access":"unknown","bicycle_pa":"stands","capacity":6,"covered":"no","fee":"no","operator":"","nameSource":"junction"},"sourceId":"osm"},{"id":"osm:node:4444503089","latitude":41.6440079,"longitude":-0.8919802,"name":"Paseo de Fernando el Católico near Avenida Francisco de Goya","properties":{"access":"unknown","bicycle_pa":"stands","capacity":8,"covered":"no","fee":"no","operator":"","nameSource":"junction"},"sourceId":"osm"},{"id":"osm:node:4444503189","latitude":41.6440749,"longitude":-0.8921009,"name":"Paseo de Fernando el Católico near Avenida Francisco de Goya","properties":{"access":"unknown","bicycle_pa":"stands","capacity":6,"covered":"no","fee":"no","operator":"","nameSource":"junction"},"sourceId":"osm"},{"id":"osm:node:4445661492","latitude":41.6713797,"longitude":-0.8835668,"name":"Andador José Saramago near Calle Ildefonso Manuel Gil","properties":{"access":"unknown","bicycle_pa":"","capacity":0,"covered":"","fee":"","operator":"","nameSource":"junction"},"sourceId":"osm"},{"id":"osm:node:4453223796","latitude":41.6581836,"longitude":-0.8861241,"name":"Paseo de Echegaray y Caballero near Calle del Postigo del Ebro","properties":{"access":"unknown","bicycle_pa":"stands","capacity":10,"covered":"no","fee":"no","operator":"","nameSource":"junction"},"sourceId":"osm"},{"id":"osm:node:4454612994","latitude":41.6517494,"longitude":-0.8913328,"name":"Paseo de María Agustín near Calle de Juana Francés","properties":{"access":"unknown","bicycle_pa":"stands","capacity":16,"covered":"no","fee":"","operator":"","nameSource":"junction"},"sourceId":"osm"},{"id":"osm:node:4456511490","latitude":41.6486447,"longitude":-0.887,"name":"Paseo de Pamplona near Calle Almagro","properties":{"access":"unknown","bicycle_pa":"stands","capacity":14,"covered":"no","fee":"no","operator":"Ayuntamiento de Zaragoza","nameSource":"junction"},"sourceId":"osm"},{"id":"osm:node:4456628492","latitude":41.6491231,"longitude":-0.8841454,"name":"Calle José Luis Albareda near Paseo de la Independencia","properties":{"access":"unknown","bicycle_pa":"stands","capacity":10,"covered":"no","fee":"no","operator":"Ayuntamiento de Zaragoza","nameSource":"junction"},"sourceId":"osm"},{"id":"osm:node:4456628892","latitude":41.6503149,"longitude":-0.8826642,"name":"Paseo de la Independencia near Pasaje Argensola","properties":{"access":"unknown","bicycle_pa":"stands","capacity":10,"covered":"no","fee":"no","operator":"Ayuntamiento de Zaragoza","nameSource":"junction"},"sourceId":"osm"},{"id":"osm:node:4456628893","latitude":41.6507851,"longitude":-0.8824501,"name":"Paseo de la Independencia near Calle de San Diego","properties":{"access":"unknown","bicycle_pa":"stands","capacity":12,"covered":"no","fee":"no","operator":"Ayuntamiento de Zaragoza","nameSource":"junction"},"sourceId":"osm"},{"id":"osm:node:4456737989","latitude":41.6501444,"longitude":-0.8830911,"name":"Paseo de la Independencia near Calle de Felipe Sanclemente","properties":{"access":"unknown","bicycle_pa":"stands","capacity":8,"covered":"no","fee":"no","operator":"Ayuntamiento de Zaragoza","nameSource":"junction"},"sourceId":"osm"},{"id":"osm:node:4456909790","latitude":41.6415197,"longitude":-0.8953108,"name":"Calle Baltasar Gracián near Plaza de San Francisco","properties":{"access":"unknown","bicycle_pa":"stands","capacity":10,"covered":"no","fee":"no","operator":"Ayuntamiento de Zaragoza","nameSource":"junction"},"sourceId":"osm"},{"id":"osm:node:4456914493","latitude":41.641018,"longitude":-0.8957749,"name":"Calle Arzobispo Apaolaza near Plaza de San Francisco","properties":{"access":"yes","bicycle_pa":"stands","capacity":10,"covered":"no","fee":"no","operator":"Ayuntamiento de Zaragoza","nameSource":"junction"},"sourceId":"osm"},{"id":"osm:node:4457700889","latitude":41.6554789,"longitude":-0.8835692,"name":"Avenida de César Augusto near Calle San Pablo","properties":{"access":"yes","bicycle_pa":"stands","capacity":10,"covered":"no","fee":"no","operator":"Ayuntamiento de Zaragoza","nameSource":"junction"},"sourceId":"osm"},{"id":"osm:node:4461530889","latitude":41.6751611,"longitude":-0.8909725,"name":"Calle de Gertrudis Gómez de Avellaneda near Calle Julio Cortázar","properties":{"access":"unknown","bicycle_pa":"stands","capacity":16,"covered":"no","fee":"","operator":"Ayuntamiento de Zaragoza","nameSource":"junction"},"sourceId":"osm"},{"id":"osm:node:4461576629","latitude":41.6410533,"longitude":-0.898012,"name":"Calle de Pedro Cerbuna cycle parking","properties":{"access":"unknown","bicycle_pa":"stands","capacity":30,"covered":"no","fee":"no","operator":"","nameSource":"street"},"sourceId":"osm"},{"id":"osm:node:4461580329","latitude":41.6406015,"longitude":-0.8981375,"name":"Calle de Pedro Cerbuna by Biblioteca de Humanidades María Moliner","properties":{"access":"unknown","bicycle_pa":"stands","capacity":24,"covered":"no","fee":"no","operator":"","nameSource":"landmark"},"sourceId":"osm"},{"id":"osm:node:4468782790","latitude":41.6497761,"longitude":-0.879644,"name":"Calle de Jerónimo Zurita near Calle del Arquitecto Magdalena","properties":{"access":"unknown","bicycle_pa":"stands","capacity":10,"covered":"no","fee":"no","operator":"Ayuntamiento de Zaragoza","nameSource":"junction"},"sourceId":"osm"},{"id":"osm:node:4479788747","latitude":41.6425189,"longitude":-0.898642,"name":"Romareda cycle parking","properties":{"access":"unknown","bicycle_pa":"stands","capacity":12,"covered":"no","fee":"no","operator":"","nameSource":"place"},"sourceId":"osm"},{"id":"osm:node:4482096070","latitude":41.6412997,"longitude":-0.9004063,"name":"Romareda cycle parking","properties":{"access":"unknown","bicycle_pa":"stands","capacity":32,"covered":"yes","fee":"no","operator":"","nameSource":"place"},"sourceId":"osm"},{"id":"osm:node:4487832820","latitude":41.6407817,"longitude":-0.8988488,"name":"Calle de Domingo Miral by Centro de Documentación Europea","properties":{"access":"unknown","bicycle_pa":"stands","capacity":11,"covered":"no","fee":"no","operator":"","nameSource":"landmark"},"sourceId":"osm"},{"id":"osm:node:4487832821","latitude":41.6409566,"longitude":-0.8992163,"name":"Centro de Documentación Europea cycle parking","properties":{"access":"unknown","bicycle_pa":"stands","capacity":20,"covered":"no","fee":"no","operator":"","nameSource":"landmark"},"sourceId":"osm"},{"id":"osm:node:4487859489","latitude":41.6406539,"longitude":-0.8980901,"name":"Calle de Pedro Cerbuna by Biblioteca de Humanidades María Moliner","properties":{"access":"unknown","bicycle_pa":"stands","capacity":12,"covered":"no","fee":"no","operator":"","nameSource":"landmark"},"sourceId":"osm"},{"id":"osm:node:4492687092","latitude":41.6687529,"longitude":-0.8895609,"name":"Calle Clara Campoamor near Calle de Gertrudis Gómez de Avellaneda","properties":{"access":"yes","bicycle_pa":"stands","capacity":10,"covered":"no","fee":"","operator":"Ayuntamiento de Zaragoza","nameSource":"junction"},"sourceId":"osm"},{"id":"osm:node:4493096950","latitude":41.641788,"longitude":-0.9012024,"name":"Cafetería CMU Pedro Cerbuna cycle parking","properties":{"access":"unknown","bicycle_pa":"stands","capacity":48,"covered":"no","fee":"no","operator":"","nameSource":"landmark"},"sourceId":"osm"},{"id":"osm:node:4493096951","latitude":41.6411499,"longitude":-0.9016404,"name":"Calle de Domingo Miral near Calle de San Francisco de Borja","properties":{"access":"unknown","bicycle_pa":"stands","capacity":6,"covered":"no","fee":"no","operator":"","nameSource":"junction"},"sourceId":"osm"},{"id":"osm:node:4493096952","latitude":41.6411335,"longitude":-0.9015868,"name":"Calle de Domingo Miral near Calle de San Francisco de Borja","properties":{"access":"unknown","bicycle_pa":"stands","capacity":6,"covered":"no","fee":"no","operator":"","nameSource":"junction"},"sourceId":"osm"},{"id":"osm:node:4514670755","latitude":41.6567649,"longitude":-0.8871309,"name":"Calle de Aguadores near Calle San Blas","properties":{"access":"unknown","bicycle_pa":"wall_loops","capacity":6,"covered":"no","fee":"no","operator":"","nameSource":"junction"},"sourceId":"osm"},{"id":"osm:node:4519567738","latitude":41.6431843,"longitude":-0.8929495,"name":"Calle de Tomás Bretón near Paseo de Fernando el Católico","properties":{"access":"yes","bicycle_pa":"stands","capacity":6,"covered":"no","fee":"no","operator":"Ayuntamiento de Zaragoza","nameSource":"junction"},"sourceId":"osm"},{"id":"osm:node:4519567739","latitude":41.6431168,"longitude":-0.8930087,"name":"Calle de Tomás Bretón near Paseo de Fernando el Católico","properties":{"access":"yes","bicycle_pa":"stands","capacity":6,"covered":"no","fee":"no","operator":"Ayuntamiento de Zaragoza","nameSource":"junction"},"sourceId":"osm"},{"id":"osm:node:4519567740","latitude":41.6430382,"longitude":-0.8928681,"name":"Calle de Tomás Bretón near Paseo de Fernando el Católico","properties":{"access":"yes","bicycle_pa":"stands","capacity":6,"covered":"no","fee":"no","operator":"Ayuntamiento de Zaragoza","nameSource":"junction"},"sourceId":"osm"},{"id":"osm:node:4526955498","latitude":41.6451994,"longitude":-0.8918004,"name":"Calle de Calatayud near Calle de Marcial","properties":{"access":"yes","bicycle_pa":"stands","capacity":8,"covered":"no","fee":"no","operator":"Ayuntamiento de Zaragoza","nameSource":"junction"},"sourceId":"osm"},{"id":"osm:node:4534724409","latitude":41.6465405,"longitude":-0.886875,"name":"Calle Mariano Royo Urieta near Gran Vía de Santiago Ramón y Cajal","properties":{"access":"yes","bicycle_pa":"stands","capacity":12,"covered":"no","fee":"no","operator":"Ayuntamiento de Zaragoza","nameSource":"junction"},"sourceId":"osm"},{"id":"osm:node:4534730356","latitude":41.6455445,"longitude":-0.8894117,"name":"Gran Vía de Santiago Ramón y Cajal near Calle Mariano de Lagasca","properties":{"access":"unknown","bicycle_pa":"stands","capacity":12,"covered":"no","fee":"no","operator":"Ayuntamiento de Zaragoza","nameSource":"junction"},"sourceId":"osm"},{"id":"osm:node:4534738181","latitude":41.6448178,"longitude":-0.891145,"name":"Gran Vía de Santiago Ramón y Cajal near Calle de Marcial","properties":{"access":"unknown","bicycle_pa":"stands","capacity":6,"covered":"no","fee":"no","operator":"Ayuntamiento de Zaragoza","nameSource":"junction"},"sourceId":"osm"},{"id":"osm:node:4534747101","latitude":41.6440574,"longitude":-0.8915371,"name":"Avenida Francisco de Goya near Gran Vía de Santiago Ramón y Cajal","properties":{"access":"unknown","bicycle_pa":"stands","capacity":16,"covered":"no","fee":"no","operator":"Ayuntamiento de Zaragoza","nameSource":"junction"},"sourceId":"osm"},{"id":"osm:node:4543617935","latitude":41.6472788,"longitude":-0.8849158,"name":"Paseo de la Constitución near Plaza Basilio Paraíso","properties":{"access":"unknown","bicycle_pa":"stands","capacity":10,"covered":"no","fee":"no","operator":"Ayuntamiento de Zaragoza","nameSource":"junction"},"sourceId":"osm"},{"id":"osm:node:4547244490","latitude":41.65361,"longitude":-0.9046129,"name":"Paseo de Calanda near Avenida de Madrid","properties":{"access":"unknown","bicycle_pa":"stands","capacity":10,"covered":"no","fee":"","operator":"","nameSource":"junction"},"sourceId":"osm"},{"id":"osm:node:4558989746","latitude":41.6421209,"longitude":-0.8797147,"name":"Paseo de los Rosales near Calle de Francisco Albiñana","properties":{"access":"yes","bicycle_pa":"stands","capacity":12,"covered":"no","fee":"no","operator":"Ayuntamiento de Zaragoza","nameSource":"junction"},"sourceId":"osm"},{"id":"osm:node:4559021597","latitude":41.6521459,"longitude":-0.8803277,"name":"Entrada a parking Puerta Cinegia near Calle del Coso","properties":{"access":"yes","bicycle_pa":"stands","capacity":12,"covered":"no","fee":"no","operator":"Ayuntamiento de Zaragoza","nameSource":"junction"},"sourceId":"osm"},{"id":"osm:node:4561515907","latitude":41.6405676,"longitude":-0.8803732,"name":"Andador de Luis Puntes Gracia cycle parking","properties":{"access":"unknown","bicycle_pa":"stands","capacity":14,"covered":"no","fee":"no","operator":"Ayuntamiento de Zaragoza","nameSource":"street"},"sourceId":"osm"},{"id":"osm:node:4568627844","latitude":41.6564045,"longitude":-0.8840098,"name":"Calle Mosén Pedro Dosset near Calle de las Armas","properties":{"access":"unknown","bicycle_pa":"stands","capacity":10,"covered":"no","fee":"no","operator":"Ayuntamiento de Zaragoza","nameSource":"junction"},"sourceId":"osm"},{"id":"osm:node:4568634552","latitude":41.6512375,"longitude":-0.8817149,"name":"Calle de San Miguel near Paseo de la Independencia","properties":{"access":"unknown","bicycle_pa":"stands","capacity":32,"covered":"no","fee":"no","operator":"Ayuntamiento de Zaragoza","nameSource":"junction"},"sourceId":"osm"},{"id":"osm:node:4573972322","latitude":41.656677,"longitude":-0.8822576,"name":"Calle Manifestación near Avenida de César Augusto","properties":{"access":"yes","bicycle_pa":"stands","capacity":20,"covered":"no","fee":"no","operator":"Ayuntamiento de Zaragoza","nameSource":"junction"},"sourceId":"osm"},{"id":"osm:node:4592626442","latitude":41.6432843,"longitude":-0.8859883,"name":"Calle de Bolonia near Paseo de Sagasta","properties":{"access":"unknown","bicycle_pa":"stands","capacity":14,"covered":"no","fee":"no","operator":"Ayuntamiento de Zaragoza","nameSource":"junction"},"sourceId":"osm"},{"id":"osm:node:4600518573","latitude":41.6424148,"longitude":-0.8917015,"name":"Calle de Mariano Barbasán near Calle de Santa Teresa de Jesús","properties":{"access":"yes","bicycle_pa":"stands","capacity":12,"covered":"no","fee":"no","operator":"Ayuntamiento de Zaragoza","nameSource":"junction"},"sourceId":"osm"},{"id":"osm:node:4628927512","latitude":41.6830254,"longitude":-0.8872465,"name":"Calle María de Luna by Rua Restauración","properties":{"access":"unknown","bicycle_pa":"stands","capacity":12,"covered":"no","fee":"","operator":"","nameSource":"landmark"},"sourceId":"osm"},{"id":"osm:node:4630132609","latitude":41.6475375,"longitude":-0.8805282,"name":"Paseo de la Constitución near Calle de Mariano Escar","properties":{"access":"yes","bicycle_pa":"stands","capacity":14,"covered":"no","fee":"no","operator":"Ayuntamiento de Zaragoza","nameSource":"junction"},"sourceId":"osm"},{"id":"osm:node:4683454003","latitude":41.6834203,"longitude":-0.8853388,"name":"Calle María de Luna cycle parking","properties":{"access":"unknown","bicycle_pa":"stands","capacity":18,"covered":"yes","fee":"","operator":"","nameSource":"street"},"sourceId":"osm"},{"id":"osm:node:4683454004","latitude":41.6833595,"longitude":-0.8850312,"name":"Calle María de Luna by Biblioteca Hypatia de Alejandría","properties":{"access":"unknown","bicycle_pa":"stands","capacity":0,"covered":"yes","fee":"","operator":"","nameSource":"landmark"},"sourceId":"osm"},{"id":"osm:node:4691937170","latitude":41.6762332,"longitude":-0.8906236,"name":"Calle de Gertrudis Gómez de Avellaneda near Calle Luis Legaz Lacambra","properties":{"access":"yes","bicycle_pa":"stands","capacity":10,"covered":"no","fee":"no","operator":"Ayuntamiento de Zaragoza","nameSource":"junction"},"sourceId":"osm"},{"id":"osm:node:4708819251","latitude":41.6597119,"longitude":-0.8915723,"name":"Puente de la Almozara near Plaza de Europa","properties":{"access":"yes","bicycle_pa":"stands","capacity":20,"covered":"no","fee":"no","operator":"Ayuntamiento de Zaragoza","nameSource":"junction"},"sourceId":"osm"},{"id":"osm:node:4723021702","latitude":41.6768809,"longitude":-0.8891058,"name":"Calle de María Zambrano near Calle Poetisa María Zambrano","properties":{"access":"unknown","bicycle_pa":"stands","capacity":10,"covered":"yes","fee":"no","operator":"Ayuntamiento de Zaragoza","nameSource":"junction"},"sourceId":"osm"},{"id":"osm:node:4821161617","latitude":41.6629513,"longitude":-0.883555,"name":"Calle José Pardo Asso by Panaria Kiosko","properties":{"access":"yes","bicycle_pa":"stands","capacity":8,"covered":"no","fee":"no","operator":"Ayuntamiento de Zaragoza","nameSource":"landmark"},"sourceId":"osm"},{"id":"osm:node:4826022222","latitude":41.6409682,"longitude":-0.8915175,"name":"Calle San Juan de la Cruz near Calle de Mariano Supervía","properties":{"access":"unknown","bicycle_pa":"stands","capacity":6,"covered":"no","fee":"","operator":"","nameSource":"junction"},"sourceId":"osm"},{"id":"osm:node:4830032922","latitude":41.6511609,"longitude":-0.8900803,"name":"Paseo de María Agustín near Calle Doctor Fleming","properties":{"access":"yes","bicycle_pa":"stands","capacity":8,"covered":"no","fee":"no","operator":"Ayuntamiento de Zaragoza","nameSource":"junction"},"sourceId":"osm"},{"id":"osm:node:4831325322","latitude":41.6838518,"longitude":-0.8873564,"name":"Calle Mariano Esquillor Gómez cycle parking","properties":{"access":"unknown","bicycle_pa":"stands","capacity":12,"covered":"yes","fee":"","operator":"","nameSource":"street"},"sourceId":"osm"},{"id":"osm:node:4834535321","latitude":41.6594426,"longitude":-0.8818856,"name":"Embarcadero de Servando Monterde Máñez cycle parking","properties":{"access":"unknown","bicycle_pa":"stands","capacity":0,"covered":"no","fee":"","operator":"","nameSource":"street"},"sourceId":"osm"},{"id":"osm:node:4860700869","latitude":41.6407626,"longitude":-0.8844719,"name":"Camino de las Torres near Calle de Nuestra Señora de Sancho Abarca","properties":{"access":"unknown","bicycle_pa":"stands","capacity":12,"covered":"no","fee":"","operator":"","nameSource":"junction"},"sourceId":"osm"},{"id":"osm:node:4862103923","latitude":41.6769605,"longitude":-0.8910663,"name":"Calle de Gertrudis Gómez de Avellaneda near Calle Pedro Laín Entralgo","properties":{"access":"unknown","bicycle_pa":"stands","capacity":10,"covered":"no","fee":"","operator":"Ayuntamiento de Zaragoza","nameSource":"junction"},"sourceId":"osm"},{"id":"osm:node:4889341121","latitude":41.649986,"longitude":-0.8878359,"name":"Paseo de María Agustín near Avenida de César Augusto","properties":{"access":"yes","bicycle_pa":"stands","capacity":10,"covered":"no","fee":"","operator":"Ayuntamiento de Zaragoza","nameSource":"junction"},"sourceId":"osm"},{"id":"osm:node:4889353521","latitude":41.6557384,"longitude":-0.8934761,"name":"Calle Óscar Arnulfo Romero near Paseo de María Agustín","properties":{"access":"unknown","bicycle_pa":"stands","capacity":10,"covered":"no","fee":"","operator":"","nameSource":"junction"},"sourceId":"osm"},{"id":"osm:node:4889357021","latitude":41.6629046,"longitude":-0.8881348,"name":"Calle del Valle de Broto near Avenida José Atarés","properties":{"access":"unknown","bicycle_pa":"stands","capacity":10,"covered":"no","fee":"","operator":"","nameSource":"junction"},"sourceId":"osm"},{"id":"osm:node:4892248435","latitude":41.6834246,"longitude":-0.8886617,"name":"Calle María de Luna by Museo de Informática Histórica","properties":{"access":"yes","bicycle_pa":"stands","capacity":80,"covered":"yes","fee":"no","operator":"Unizar","nameSource":"landmark"},"sourceId":"osm"},{"id":"osm:node:4902963124","latitude":41.6585751,"longitude":-0.8928547,"name":"Paseo de María Agustín near Plaza de Europa","properties":{"access":"yes","bicycle_pa":"stands","capacity":14,"covered":"no","fee":"no","operator":"Ayuntamiento de Zaragoza","nameSource":"junction"},"sourceId":"osm"},{"id":"osm:node:4902963125","latitude":41.6561068,"longitude":-0.8940553,"name":"Avenida de Madrid near Calle Castillo","properties":{"access":"yes","bicycle_pa":"stands","capacity":10,"covered":"no","fee":"no","operator":"Ayuntamiento de Zaragoza","nameSource":"junction"},"sourceId":"osm"},{"id":"osm:node:4908001921","latitude":41.6722382,"longitude":-0.8879615,"name":"Calle de Alberto Duce near Calle de Pablo Casals","properties":{"access":"unknown","bicycle_pa":"stands","capacity":18,"covered":"","fee":"","operator":"","nameSource":"junction"},"sourceId":"osm"},{"id":"osm:node:4911591523","latitude":41.6533532,"longitude":-0.9045196,"name":"Avenida de Madrid near Paseo de Calanda","properties":{"access":"unknown","bicycle_pa":"stands","capacity":26,"covered":"no","fee":"","operator":"","nameSource":"junction"},"sourceId":"osm"},{"id":"osm:node:4940190160","latitude":41.6437282,"longitude":-0.8910581,"name":"Avenida Francisco de Goya near Calle de Félix Latassa","properties":{"access":"yes","bicycle_pa":"stands","capacity":10,"covered":"no","fee":"no","operator":"Ayuntamiento de Zaragoza","nameSource":"junction"},"sourceId":"osm"},{"id":"osm:node:4941280309","latitude":41.6585102,"longitude":-0.8925593,"name":"Paseo de María Agustín near Plaza de Europa","properties":{"access":"yes","bicycle_pa":"stands","capacity":14,"covered":"no","fee":"no","operator":"Ayuntamiento de Zaragoza","nameSource":"junction"},"sourceId":"osm"},{"id":"osm:node:4942912414","latitude":41.6859769,"longitude":-0.8880945,"name":"Calle de Ramón Rey Ardid by Planta piloto de Valorizacion de Residuos","properties":{"access":"yes","bicycle_pa":"stands","capacity":6,"covered":"no","fee":"no","operator":"","nameSource":"landmark"},"sourceId":"osm"},{"id":"osm:node:4949185523","latitude":41.6509091,"longitude":-0.8896228,"name":"Paseo de María Agustín near Calle Doctor Fleming","properties":{"access":"yes","bicycle_pa":"stands","capacity":8,"covered":"no","fee":"no","operator":"Ayuntamiento de Zaragoza","nameSource":"junction"},"sourceId":"osm"},{"id":"osm:node:4955202722","latitude":41.6406094,"longitude":-0.901817,"name":"Calle de Domingo Miral near Calle de San Francisco de Borja","properties":{"access":"unknown","bicycle_pa":"","capacity":0,"covered":"","fee":"","operator":"","nameSource":"junction"},"sourceId":"osm"},{"id":"osm:node:4955205422","latitude":41.6404942,"longitude":-0.9015157,"name":"Calle de Domingo Miral near Calle de San Francisco de Borja","properties":{"access":"yes","bicycle_pa":"stands","capacity":6,"covered":"no","fee":"no","operator":"Ayuntamiento de Zaragoza","nameSource":"junction"},"sourceId":"osm"},{"id":"osm:node:4955207021","latitude":41.6405671,"longitude":-0.901753,"name":"Calle de San Francisco de Borja near Calle de Domingo Miral","properties":{"access":"unknown","bicycle_pa":"stands","capacity":0,"covered":"","fee":"","operator":"","nameSource":"junction"},"sourceId":"osm"},