{"key":"12/1948/1517","points":[{"categories":["repair"],"id":"osm:node:10925985433","latitude":42.2187897,"longitude":-8.7424243,"name":"Concello de Vigo","properties":{"fee":"no","openingHours":"24/7","operator":"Concello de Vigo","servicePump":"yes","serviceTools":"yes"},"sourceId":"osm"},{"categories":["shop","repair"],"id":"osm:node:11157702161","latitude":42.1775872,"longitude":-8.7072793,"name":"Sport Pasión","properties":{"openingHours":"Mo-Fr 10:00-13:30,16:00-20:00; Sa 10:30-13:30","serviceRepair":"yes"},"sourceId":"osm"},{"categories":["shop","repair"],"id":"osm:node:1911947759","latitude":42.2170251,"longitude":-8.7276509,"name":"Bici O Con","properties":{"serviceRepair":"yes"},"sourceId":"osm"},{"categories":["shop"],"id":"osm:node:1911962760","latitude":42.2126364,"longitude":-8.7324025,"name":"Que Bici","properties":{},"sourceId":"osm"},{"categories":["shop","repair"],"id":"osm:node:5626962869","latitude":42.1975724,"longitude":-8.7728861,"name":"Sport Pasión","properties":{"openingHours":"Mo-Fr 10:00-13:30,16:00-20:00; Sa 10:30-13:30","serviceRepair":"yes"},"sourceId":"osm"},{"categories":["shop","repair"],"id":"osm:node:599813639","latitude":42.2222728,"longitude":-8.7325445,"name":"ANCA","properties":{"serviceRepair":"yes"},"sourceId":"osm"},{"categories":["shop","repair"],"id":"osm:way:836010774","latitude":42.19385664,"longitude":-8.7819614,"name":"GaliBici","properties":{"openingHours":"Mo-Fr 10:00-14:00,16:30-20:30; Sa 10:00-14:00","servicePump":"no","serviceRental":"no","serviceRepair":"yes"},"sourceId":"osm"}],"schemaVersion":2}
