{"key":"12/2014/1265","points":[{"id":"osm:node:10611786162","latitude":56.463124,"longitude":-2.9660224,"name":"Trades Lane near Seagate","properties":{"access":"unknown","bicycle_pa":"stands","capacity":10,"covered":"yes","fee":"","operator":"","nameSource":"junction"},"sourceId":"osm"},{"id":"osm:node:10622188343","latitude":56.463209,"longitude":-2.9700368,"name":"Panmure Street near Meadowside","properties":{"access":"unknown","bicycle_pa":"stands","capacity":4,"covered":"no","fee":"","operator":"","nameSource":"junction"},"sourceId":"osm"},{"id":"osm:node:12471313574","latitude":56.4630983,"longitude":-2.9567794,"name":"Camperdown Street cycle parking","properties":{"access":"yes","bicycle_pa":"stands","capacity":8,"covered":"no","fee":"no","operator":"","nameSource":"street"},"sourceId":"osm"},{"id":"osm:node:12480639322","latitude":56.4835062,"longitude":-2.9508725,"name":"Afton Way by Starbucks","properties":{"access":"unknown","bicycle_pa":"","capacity":0,"covered":"yes","fee":"","operator":"","nameSource":"landmark"},"sourceId":"osm"},{"id":"osm:node:12578792819","latitude":56.463808,"longitude":-2.9677963,"name":"Cowgate near King Street","properties":{"access":"yes","bicycle_pa":"stands","capacity":3,"covered":"no","fee":"no","operator":"","nameSource":"junction"},"sourceId":"osm"},{"id":"osm:node:12620774059","latitude":56.4744176,"longitude":-2.9800932,"name":"Strathmartine Road near Paterson Street","properties":{"access":"yes","bicycle_pa":"stands","capacity":10,"covered":"yes","fee":"","operator":"","nameSource":"junction"},"sourceId":"osm"},{"id":"osm:node:12723561642","latitude":56.469552,"longitude":-2.9567992,"name":"Craigie Street near Kemback Street","properties":{"access":"unknown","bicycle_pa":"staple","capacity":10,"covered":"yes","fee":"no","operator":"","nameSource":"junction"},"sourceId":"osm"},{"id":"osm:node:12723561643","latitude":56.4695731,"longitude":-2.9574471,"name":"Craigie Street near Albert Street","properties":{"access":"unknown","bicycle_pa":"staple","capacity":2,"covered":"no","fee":"","operator":"","nameSource":"junction"},"sourceId":"osm"},{"id":"osm:node:12830458334","latitude":56.4672887,"longitude":-2.9585149,"name":"Ferguson Street near Princes Street","properties":{"access":"unknown","bicycle_pa":"stands","capacity":4,"covered":"no","fee":"","operator":"","nameSource":"junction"},"sourceId":"osm"},{"id":"osm:node:13189602198","latitude":56.4628384,"longitude":-2.9745717,"name":"Bell Street near Euclid Crescent","properties":{"access":"unknown","bicycle_pa":"stands","capacity":4,"covered":"partial","fee":"","operator":"","nameSource":"junction"},"sourceId":"osm"},{"id":"osm:node:13304334515","latitude":56.4637534,"longitude":-2.9738705,"name":"Irvine's Square near Soapwork Lane","properties":{"access":"customers","bicycle_pa":"building","capacity":62,"covered":"yes","fee":"no","operator":"Abertay University","nameSource":"junction"},"sourceId":"osm"},{"id":"osm:node:13304334516","latitude":56.4638246,"longitude":-2.9738008,"name":"Irvine's Square near Soapwork Lane","properties":{"access":"private","bicycle_pa":"building","capacity":10,"covered":"yes","fee":"","operator":"Abertay University","nameSource":"junction"},"sourceId":"osm"},{"id":"osm:node:13305552459","latitude":56.4630915,"longitude":-2.980472,"name":"Brown Street near Douglas Street","properties":{"access":"yes","bicycle_pa":"stands","capacity":30,"covered":"yes","fee":"","operator":"","nameSource":"junction"},"sourceId":"osm"},{"id":"osm:node:13307994264","latitude":56.4669528,"longitude":-2.9640828,"name":"Martingale Gardens near Victoria Road","properties":{"access":"unknown","bicycle_pa":"","capacity":0,"covered":"yes","fee":"","operator":"","nameSource":"junction"},"sourceId":"osm"},{"id":"osm:node:13307998189","latitude":56.4633672,"longitude":-2.9622943,"name":"East Whale Lane near East Dock Street","properties":{"access":"yes","bicycle_pa":"building","capacity":0,"covered":"","fee":"","operator":"","nameSource":"junction"},"sourceId":"osm"},{"id":"osm:node:13319752464","latitude":56.464773,"longitude":-2.9698737,"name":"Victoria Road near Hilltown","properties":{"access":"unknown","bicycle_pa":"stands","capacity":10,"covered":"yes","fee":"","operator":"","nameSource":"junction"},"sourceId":"osm"},{"id":"osm:node:13462153152","latitude":56.4804062,"longitude":-2.9231534,"name":"Longtown Street near Linfield Street","properties":{"access":"unknown","bicycle_pa":"stands","capacity":30,"covered":"no","fee":"","operator":"","nameSource":"junction"},"sourceId":"osm"},{"id":"osm:node:13607447282","latitude":56.4802137,"longitude":-2.9801996,"name":"Fairmuir Road near Fairmuir Street","properties":{"access":"unknown","bicycle_pa":"stands","capacity":10,"covered":"no","fee":"","operator":"","nameSource":"junction"},"sourceId":"osm"},{"id":"osm:node:13927250927","latitude":56.4630313,"longitude":-2.9758765,"name":"Constitution Road near West Bell Street","properties":{"access":"unknown","bicycle_pa":"","capacity":0,"covered":"","fee":"","operator":"","nameSource":"junction"},"sourceId":"osm"},{"id":"osm:node:13988046892","latitude":56.4726583,"longitude":-2.9522676,"name":"Baxter Park Terrace cycle parking","properties":{"access":"unknown","bicycle_pa":"stands","capacity":4,"covered":"no","fee":"no","operator":"","nameSource":"street"},"sourceId":"osm"},{"id":"osm:node:3990147374","latitude":56.4627915,"longitude":-2.9710722,"name":"Panmure Street near Euclid Crescent","properties":{"access":"unknown","bicycle_pa":"stands","capacity":8,"covered":"no","fee":"","operator":"","nameSource":"junction"},"sourceId":"osm"},{"id":"osm:node:3990147375","latitude":56.4628187,"longitude":-2.9754711,"name":"Constitution Road near West Bell Street","properties":{"access":"unknown","bicycle_pa":"stands","capacity":8,"covered":"","fee":"","operator":"","nameSource":"junction"},"sourceId":"osm"},{"id":"osm:node:3990147376","latitude":56.4633436,"longitude":-2.969048,"name":"Panmure Street near Cowgate","properties":{"access":"unknown","bicycle_pa":"stands","capacity":15,"covered":"no","fee":"","operator":"","nameSource":"junction"},"sourceId":"osm"},{"id":"osm:node:3990147377","latitude":56.4635134,"longitude":-2.9630464,"name":"East Marketgait by Premier","properties":{"access":"unknown","bicycle_pa":"stands","capacity":9,"covered":"","fee":"","operator":"","nameSource":"landmark"},"sourceId":"osm"},{"id":"osm:node:3990147378","latitude":56.4635665,"longitude":-2.9630401,"name":"East Marketgait by Premier","properties":{"access":"unknown","bicycle_pa":"lockers","capacity":10,"covered":"","fee":"","operator":"","nameSource":"landmark"},"sourceId":"osm"},{"id":"osm:node:3990147380","latitude":56.4636853,"longitude":-2.9633476,"name":"East Marketgait near East Port Roundabout","properties":{"access":"unknown","bicycle_pa":"stands","capacity":10,"covered":"","fee":"","operator":"","nameSource":"junction"},"sourceId":"osm"},{"id":"osm:node:3990147383","latitude":56.4638692,"longitude":-2.9678698,"name":"Cowgate near King Street","properties":{"access":"unknown","bicycle_pa":"stands","capacity":10,"covered":"no","fee":"","operator":"","nameSource":"junction"},"sourceId":"osm"},{"id":"osm:node:3990147386","latitude":56.4645642,"longitude":-2.9741033,"name":"Dalfield Terrace near Dudhope Street","properties":{"access":"unknown","bicycle_pa":"stands","capacity":64,"covered":"","fee":"","operator":"","nameSource":"junction"},"sourceId":"osm"},{"id":"osm:node:3990147392","latitude":56.4648571,"longitude":-2.969598,"name":"North Marketgait by Home Bargains","properties":{"access":"unknown","bicycle_pa":"wall_loops","capacity":6,"covered":"yes","fee":"","operator":"","nameSource":"landmark"},"sourceId":"osm"},{"id":"osm:node:3990147393","latitude":56.4651535,"longitude":-2.9699571,"name":"Victoria Road near Hilltown","properties":{"access":"unknown","bicycle_pa":"stands","capacity":6,"covered":"","fee":"","operator":"","nameSource":"junction"},"sourceId":"osm"},{"id":"osm:node:3990147394","latitude":56.4651658,"longitude":-2.9700828,"name":"North Marketgait by The Little Theatre","properties":{"access":"unknown","bicycle_pa":"stands","capacity":6,"covered":"","fee":"","operator":"","nameSource":"landmark"},"sourceId":"osm"},{"id":"osm:node:3990147395","latitude":56.4650801,"longitude":-2.9694317,"name":"North Marketgait by Dundee Central Library","properties":{"access":"unknown","bicycle_pa":"stands","capacity":14,"covered":"","fee":"","operator":"","nameSource":"landmark"},"sourceId":"osm"},{"id":"osm:node:3990147406","latitude":56.4693284,"longitude":-2.9560281,"name":"Kemback Street near Raglan Street","properties":{"access":"unknown","bicycle_pa":"stands","capacity":6,"covered":"","fee":"","operator":"","nameSource":"junction"},"sourceId":"osm"},{"id":"osm:node:3990147407","latitude":56.4700799,"longitude":-2.9575999,"name":"Albert Street near McGill Street","properties":{"access":"unknown","bicycle_pa":"stands","capacity":8,"covered":"","fee":"","operator":"","nameSource":"junction"},"sourceId":"osm"},{"id":"osm:node:3990147408","latitude":56.4703725,"longitude":-2.9581612,"name":"Whalers' Close near Albert Street","properties":{"access":"unknown","bicycle_pa":"stands","capacity":6,"covered":"","fee":"","operator":"","nameSource":"junction"},"sourceId":"osm"},{"id":"osm:node:3990147409","latitude":56.4709981,"longitude":-2.9590902,"name":"Dura Street near Langland's Street","properties":{"access":"unknown","bicycle_pa":"stands","capacity":8,"covered":"","fee":"","operator":"","nameSource":"junction"},"sourceId":"osm"},{"id":"osm:node:3990147410","latitude":56.4722542,"longitude":-2.9512027,"name":"Pavilion Terrace by Blend at Baxter Park","properties":{"access":"unknown","bicycle_pa":"stands","capacity":4,"covered":"no","fee":"","operator":"","nameSource":"landmark"},"sourceId":"osm"},{"id":"osm:node:3990147411","latitude":56.4723807,"longitude":-2.9582003,"name":"Eliza Street near Catherine Street","properties":{"access":"unknown","bicycle_pa":"stands","capacity":8,"covered":"no","fee":"","operator":"","nameSource":"junction"},"sourceId":"osm"},{"id":"osm:node:3990147414","latitude":56.4730973,"longitude":-2.9698063,"name":"Fairbairn Street near Neish Street","properties":{"access":"unknown","bicycle_pa":"wall_loops","capacity":8,"covered":"","fee":"","operator":"","nameSource":"junction"},"sourceId":"osm"},{"id":"osm:node:3990147415","latitude":56.4732068,"longitude":-2.9813788,"name":"Byron Street near Mortimer Street","properties":{"access":"unknown","bicycle_pa":"stands","capacity":10,"covered":"","fee":"","operator":"","nameSource":"junction"},"sourceId":"osm"},{"id":"osm:node:3990147425","latitude":56.4784748,"longitude":-2.9865423,"name":"Clepington Road cycle parking","properties":{"access":"unknown","bicycle_pa":"lockers","capacity":4,"covered":"","fee":"","operator":"","nameSource":"street"},"sourceId":"osm"},{"id":"osm:node:3990147434","latitude":56.4855368,"longitude":-2.9754665,"name":"Old Glamis Road by McTaggart Gymnastics Centre","properties":{"access":"unknown","bicycle_pa":"stands","capacity":9,"covered":"","fee":"","operator":"","nameSource":"landmark"},"sourceId":"osm"},{"id":"osm:node:3990147436","latitude":56.4858225,"longitude":-2.9754862,"name":"Old Glamis Road by McTaggart Gymnastics Centre","properties":{"access":"unknown","bicycle_pa":"stands","capacity":10,"covered":"","fee":"","operator":"","nameSource":"landmark"},"sourceId":"osm"},{"id":"osm:node:3990147439","latitude":56.4880222,"longitude":-2.9868464,"name":"Derwent Avenue near Kirkton Crescent","properties":{"access":"unknown","bicycle_pa":"wall_loops","capacity":5,"covered":"","fee":"","operator":"","nameSource":"junction"},"sourceId":"osm"},{"id":"osm:node:503046178","latitude":56.4677106,"longitude":-2.9127852,"name":"Broughty Ferry Road cycle parking","properties":{"access":"unknown","bicycle_pa":"stands","capacity":6,"covered":"no","fee":"","operator":"","nameSource":"street"},"sourceId":"osm"},{"id":"osm:node:5376164664","latitude":56.4728733,"longitude":-2.9561926,"name":"Pitkerro Road near Forfar Road","properties":{"access":"unknown","bicycle_pa":"stands","capacity":8,"covered":"no","fee":"","operator":"","nameSource":"junction"},"sourceId":"osm"},{"id":"osm:node:7096294385","latitude":56.4653514,"longitude":-2.9628516,"name":"Constable Street near Dens Street","properties":{"access":"unknown","bicycle_pa":"stands","capacity":12,"covered":"no","fee":"","operator":"","nameSource":"junction"},"sourceId":"osm"},{"id":"osm:way:1370738152","latitude":56.4685975,"longitude":-2.9700794200000002,"name":"Ann Street near Nelson Street","properties":{"access":"unknown","bicycle_pa":"","capacity":0,"covered":"yes","fee":"","operator":"","nameSource":"junction"},"sourceId":"osm"}],"schemaVersion":2}
