{"key":"12/2014/1501","points":[{"id":"osm:node:11356846123","latitude":43.2575831,"longitude":-2.9026858,"name":"Ornilla Doktorearen kalea by Txurdinaga-Artabe BHI","properties":{"access":"customers","bicycle_pa":"","capacity":0,"covered":"","fee":"","operator":"","nameSource":"landmark"},"sourceId":"osm"},{"id":"osm:node:12043464296","latitude":43.2582676,"longitude":-2.9209255,"name":"Tomas Meabe plaza by Unamuno","properties":{"access":"unknown","bicycle_pa":"stands","capacity":6,"covered":"no","fee":"","operator":"","nameSource":"landmark"},"sourceId":"osm"},{"id":"osm:node:12044096820","latitude":43.2562716,"longitude":-2.9201587,"name":"Jardines Solokoetxe near Zumarraga kalea","properties":{"access":"yes","bicycle_pa":"stands","capacity":0,"covered":"no","fee":"","operator":"","nameSource":"junction"},"sourceId":"osm"},{"id":"osm:node:12401851064","latitude":43.2586096,"longitude":-2.9398844,"name":"Etxaniz suhiltzailearen plaza near Egaña kalea","properties":{"access":"unknown","bicycle_pa":"stands","capacity":10,"covered":"no","fee":"","operator":"","nameSource":"junction"},"sourceId":"osm"},{"id":"osm:node:2791936541","latitude":43.2595058,"longitude":-2.9005351,"name":"Kepa Enbeita enparantza","properties":{"access":"unknown","bicycle_pa":"rack","capacity":0,"covered":"","fee":"","operator":"","nameSource":"source"},"sourceId":"osm"},{"id":"osm:node:4714776888","latitude":43.2610341,"longitude":-2.926012,"name":"Jose Maria Olavarri kalea near Nafarroa kalea","properties":{"access":"unknown","bicycle_pa":"stands","capacity":10,"covered":"no","fee":"","operator":"","nameSource":"junction"},"sourceId":"osm"},{"id":"osm:node:5519065330","latitude":43.2572701,"longitude":-2.9275391,"name":"Hernani kalea near Mesedeetako kaia","properties":{"access":"unknown","bicycle_pa":"stands","capacity":10,"covered":"no","fee":"","operator":"","nameSource":"junction"},"sourceId":"osm"},{"id":"osm:node:6371194090","latitude":43.2576481,"longitude":-2.925413,"name":"Pilota kalea near Dorre kalea","properties":{"access":"unknown","bicycle_pa":"stands","capacity":4,"covered":"no","fee":"","operator":"","nameSource":"junction"},"sourceId":"osm"},{"id":"osm:node:6371242685","latitude":43.2611167,"longitude":-2.9269536,"name":"Nafarroa kalea near Plaza Biribila","properties":{"access":"unknown","bicycle_pa":"stands","capacity":6,"covered":"no","fee":"","operator":"","nameSource":"junction"},"sourceId":"osm"},{"id":"osm:node:6371242686","latitude":43.2598826,"longitude":-2.9248017,"name":"Arriaga plaza near Túnel Nagusia","properties":{"access":"unknown","bicycle_pa":"stands","capacity":8,"covered":"no","fee":"","operator":"","nameSource":"junction"},"sourceId":"osm"},{"id":"osm:node:6392300189","latitude":43.2608208,"longitude":-2.9540001,"name":"Montevideo etorbidea near Olabeaga Aldapa","properties":{"access":"unknown","bicycle_pa":"","capacity":0,"covered":"","fee":"","operator":"","nameSource":"junction"},"sourceId":"osm"},{"id":"osm:node:6491633785","latitude":43.2599262,"longitude":-2.9332881,"name":"Elcano kalea near Urkixo zumarkalea","properties":{"access":"unknown","bicycle_pa":"","capacity":0,"covered":"","fee":"","operator":"","nameSource":"junction"},"sourceId":"osm"},{"id":"osm:node:6540012887","latitude":43.2604094,"longitude":-2.9287967,"name":"Hurtado de Amezaga kalea near Aiala kantzilerraren kalea","properties":{"access":"unknown","bicycle_pa":"stands","capacity":8,"covered":"no","fee":"","operator":"","nameSource":"junction"},"sourceId":"osm"},{"id":"osm:node:6735215389","latitude":43.2588376,"longitude":-2.9354018,"name":"Fernández del Campo kalea near Concha jeneralaren kalea","properties":{"access":"unknown","bicycle_pa":"","capacity":0,"covered":"no","fee":"","operator":"","nameSource":"junction"},"sourceId":"osm"},{"id":"osm:node:6735239285","latitude":43.2596886,"longitude":-2.936445,"name":"Errekakoetxe kalea near Recalde zumarkalea","properties":{"access":"unknown","bicycle_pa":"stands","capacity":10,"covered":"no","fee":"","operator":"","nameSource":"junction"},"sourceId":"osm"},{"id":"osm:node:6745595088","latitude":43.2600448,"longitude":-2.9315639,"name":"Urkixo zumarkalea near Bertendona kalea","properties":{"access":"unknown","bicycle_pa":"","capacity":10,"covered":"","fee":"","operator":"","nameSource":"junction"},"sourceId":"osm"},{"id":"osm:node:6745679186","latitude":43.2598982,"longitude":-2.9492977,"name":"Egia jeneralaren kalea near Luis Briñas kalea","properties":{"access":"unknown","bicycle_pa":"","capacity":0,"covered":"","fee":"","operator":"","nameSource":"junction"},"sourceId":"osm"},{"id":"osm:node:6745705086","latitude":43.2598087,"longitude":-2.9385155,"name":"Gordoniz kalea near Santimami zumarkalea","properties":{"access":"unknown","bicycle_pa":"stands","capacity":8,"covered":"no","fee":"","operator":"","nameSource":"junction"},"sourceId":"osm"},{"id":"osm:node:6792350687","latitude":43.2515354,"longitude":-2.944473,"name":"Errekalde plaza near Errekalde-Larraskitu errepidea","properties":{"access":"unknown","bicycle_pa":"","capacity":0,"covered":"","fee":"","operator":"","nameSource":"junction"},"sourceId":"osm"},{"id":"osm:node:6816868286","latitude":43.2562555,"longitude":-2.9269042,"name":"Mariaren Bihotza plaza by Policía Municipal de Bilbao","properties":{"access":"unknown","bicycle_pa":"","capacity":0,"covered":"","fee":"","operator":"","nameSource":"landmark"},"sourceId":"osm"},{"id":"osm:node:6821083485","latitude":43.254295,"longitude":-2.9232,"name":"San Anton zubia near On Claudio Gallastegi kalea","properties":{"access":"unknown","bicycle_pa":"stands","capacity":10,"covered":"no","fee":"","operator":"","nameSource":"junction"},"sourceId":"osm"},{"id":"osm:node:7021738085","latitude":43.2449151,"longitude":-2.9245101,"name":"Ibaizabal landa kalea near Zamakola kalea","properties":{"access":"unknown","bicycle_pa":"wall_loops","capacity":0,"covered":"no","fee":"","operator":"","nameSource":"junction"},"sourceId":"osm"},{"id":"osm:node:7171735585","latitude":43.2607387,"longitude":-2.9359474,"name":"Recalde zumarkalea near Poza lizentziatuaren kalea","properties":{"access":"unknown","bicycle_pa":"stands","capacity":16,"covered":"no","fee":"","operator":"","nameSource":"junction"},"sourceId":"osm"},{"id":"osm:node:7260602985","latitude":43.261021,"longitude":-2.9223386,"name":"Itxaropen kalea near Estufa zeharkalea","properties":{"access":"unknown","bicycle_pa":"stands","capacity":10,"covered":"no","fee":"","operator":"","nameSource":"junction"},"sourceId":"osm"},{"id":"osm:node:7760913586","latitude":43.2551803,"longitude":-2.9235721,"name":"Bilboko konsuletxearen plaza near San Anton kaia","properties":{"access":"unknown","bicycle_pa":"stands","capacity":10,"covered":"no","fee":"","operator":"","nameSource":"junction"},"sourceId":"osm"},{"id":"osm:node:7895226668","latitude":43.2598444,"longitude":-2.9377428,"name":"Fernández del Campo kalea near Iparraguirre kalea","properties":{"access":"unknown","bicycle_pa":"stands","capacity":20,"covered":"no","fee":"","operator":"","nameSource":"junction"},"sourceId":"osm"},{"id":"osm:node:8014064677","latitude":43.2578827,"longitude":-2.9066587,"name":"Gabriel Aresti etorbidea near Xoko kalea","properties":{"access":"yes","bicycle_pa":"stands","capacity":10,"covered":"no","fee":"","operator":"","nameSource":"junction"},"sourceId":"osm"},{"id":"osm:node:8453995466","latitude":43.2596517,"longitude":-2.9402415,"name":"Aureliano Valle kalea near Simon Bolivar kalea","properties":{"access":"unknown","bicycle_pa":"stands","capacity":8,"covered":"no","fee":"","operator":"","nameSource":"junction"},"sourceId":"osm"},{"id":"osm:node:8685214419","latitude":43.2420772,"longitude":-2.9176045,"name":"Santa Isabel kalea near Santa Isabel","properties":{"access":"yes","bicycle_pa":"wall_loops","capacity":5,"covered":"no","fee":"no","operator":"","nameSource":"junction"},"sourceId":"osm"},{"id":"osm:node:8685214523","latitude":43.2409226,"longitude":-2.9187464,"name":"Olatxu kalea near Santa Isabel kalea","properties":{"access":"unknown","bicycle_pa":"","capacity":0,"covered":"no","fee":"","operator":"","nameSource":"junction"},"sourceId":"osm"},{"id":"osm:node:8754322976","latitude":43.2414152,"longitude":-2.9209618,"name":"Abusu kalea by Andra Mari","properties":{"access":"unknown","bicycle_pa":"","capacity":0,"covered":"","fee":"","operator":"","nameSource":"landmark"},"sourceId":"osm"},{"id":"osm:way:1173232425","latitude":43.260752499999995,"longitude":-2.9492033999999996,"name":"Luis Briñas kalea near Perez Galdos kalea","properties":{"access":"yes","bicycle_pa":"stands","capacity":50,"covered":"no","fee":"","operator":"","nameSource":"junction"},"sourceId":"osm"},{"id":"osm:way:419249912","latitude":43.247114366666665,"longitude":-2.91747365,"name":"Aparkalekua","properties":{"access":"unknown","bicycle_pa":"","capacity":0,"covered":"no","fee":"","operator":"","nameSource":"source"},"sourceId":"osm"}],"schemaVersion":2}
