{"key":"12/2014/1510","points":[{"id":"osm:node:13587169256","latitude":42.6611368,"longitude":-2.9185048,"name":"Avenida México cycle parking","properties":{"access":"unknown","bicycle_pa":"stands","capacity":12,"covered":"","fee":"","operator":"","nameSource":"street"},"sourceId":"osm"},{"id":"osm:node:4513839949","latitude":42.6816264,"longitude":-2.9443051,"name":"Calle del Río Ebro cycle parking","properties":{"access":"unknown","bicycle_pa":"stands","capacity":8,"covered":"","fee":"","operator":"","nameSource":"street"},"sourceId":"osm"},{"id":"osm:node:6325910006","latitude":42.6796171,"longitude":-2.9686594,"name":"Calle Mariana Pineda near Calle Alondra","properties":{"access":"unknown","bicycle_pa":"","capacity":20,"covered":"","fee":"","operator":"","nameSource":"junction"},"sourceId":"osm"},{"id":"osm:node:6327249378","latitude":42.678905,"longitude":-2.9323329,"name":"Camino de Anduva by Piscina Pública climatizada","properties":{"access":"unknown","bicycle_pa":"","capacity":0,"covered":"","fee":"","operator":"","nameSource":"landmark"},"sourceId":"osm"},{"id":"osm:node:6327249380","latitude":42.678327,"longitude":-2.9324543,"name":"El Poli cycle parking","properties":{"access":"unknown","bicycle_pa":"","capacity":6,"covered":"","fee":"","operator":"","nameSource":"landmark"},"sourceId":"osm"},{"id":"osm:node:6345091543","latitude":42.6823157,"longitude":-2.9436576,"name":"Calle San Agustín near Calle Ciudad de Vierzón","properties":{"access":"unknown","bicycle_pa":"","capacity":10,"covered":"","fee":"","operator":"","nameSource":"junction"},"sourceId":"osm"},{"id":"osm:node:6345091708","latitude":42.6808543,"longitude":-2.9367836,"name":"Camino de Anduva cycle parking","properties":{"access":"unknown","bicycle_pa":"","capacity":16,"covered":"","fee":"","operator":"","nameSource":"street"},"sourceId":"osm"},{"id":"osm:node:6358785153","latitude":42.6809685,"longitude":-2.9525489,"name":"Callejonda by Parque de Callejonda","properties":{"access":"unknown","bicycle_pa":"","capacity":10,"covered":"","fee":"","operator":"","nameSource":"landmark"},"sourceId":"osm"},{"id":"osm:node:9817979422","latitude":42.6817548,"longitude":-2.9503577,"name":"Camino de la Arboleda by Centro de Educación de Personas Adultas Real Aquende","properties":{"access":"unknown","bicycle_pa":"","capacity":8,"covered":"","fee":"","operator":"","nameSource":"landmark"},"sourceId":"osm"}],"schemaVersion":2}
