{"key":"12/2014/1618","points":[{"id":"osm:node:13394802620","latitude":35.2906034,"longitude":-2.9435728,"name":"Avenida General Aizpuru near Bulevar Avenida Duquesa de la Victoria","properties":{"access":"unknown","bicycle_pa":"","capacity":0,"covered":"","fee":"","operator":"","nameSource":"junction"},"sourceId":"osm"},{"id":"osm:node:3096878097","latitude":35.2965843,"longitude":-2.950287,"name":"Calle Lepanto","properties":{"access":"unknown","bicycle_pa":"stands","capacity":0,"covered":"","fee":"","operator":"","nameSource":"source"},"sourceId":"osm"},{"id":"osm:node:3096944128","latitude":35.2955399,"longitude":-2.9445646,"name":"General Weyler (Mercado Central)","properties":{"access":"unknown","bicycle_pa":"stands","capacity":8,"covered":"no","fee":"","operator":"","nameSource":"source"},"sourceId":"osm"},{"id":"osm:node:3096951434","latitude":35.2952161,"longitude":-2.9436848,"name":"Plaza Ramón y Cajal","properties":{"access":"unknown","bicycle_pa":"stands","capacity":8,"covered":"no","fee":"","operator":"","nameSource":"source"},"sourceId":"osm"},{"id":"osm:node:3096957219","latitude":35.2951613,"longitude":-2.9439581,"name":"Parking del Mercado Central","properties":{"access":"unknown","bicycle_pa":"stands","capacity":0,"covered":"yes","fee":"","operator":"","nameSource":"source"},"sourceId":"osm"},{"id":"osm:node:3096971373","latitude":35.2944884,"longitude":-2.942468,"name":"Lope de Vega (UNED)","properties":{"access":"unknown","bicycle_pa":"stands","capacity":8,"covered":"no","fee":"","operator":"","nameSource":"source"},"sourceId":"osm"},{"id":"osm:node:3096974877","latitude":35.2935763,"longitude":-2.9413218,"name":"General Pareja","properties":{"access":"unknown","bicycle_pa":"stands","capacity":6,"covered":"no","fee":"","operator":"","nameSource":"source"},"sourceId":"osm"},{"id":"osm:node:3096981256","latitude":35.2926064,"longitude":-2.9414666,"name":"General Marina","properties":{"access":"unknown","bicycle_pa":"stands","capacity":8,"covered":"no","fee":"","operator":"","nameSource":"source"},"sourceId":"osm"},{"id":"osm:node:3096992275","latitude":35.2934625,"longitude":-2.9389051,"name":"Miguel de Cervantes","properties":{"access":"unknown","bicycle_pa":"stands","capacity":6,"covered":"no","fee":"","operator":"","nameSource":"source"},"sourceId":"osm"},{"id":"osm:node:3097014012","latitude":35.2938182,"longitude":-2.9372176,"name":"Plaza de las Cuatro Culturas","properties":{"access":"unknown","bicycle_pa":"stands","capacity":8,"covered":"no","fee":"","operator":"","nameSource":"source"},"sourceId":"osm"},{"id":"osm:node:3097033533","latitude":35.2926021,"longitude":-2.9374245,"name":"Plaza de España (puerta del Casino Militar)","properties":{"access":"unknown","bicycle_pa":"stands","capacity":8,"covered":"no","fee":"","operator":"","nameSource":"source"},"sourceId":"osm"},{"id":"osm:node:3097033534","latitude":35.2916991,"longitude":-2.9385265,"name":"Plaza de España (puerta de la biblioteca Municipal)","properties":{"access":"unknown","bicycle_pa":"stands","capacity":8,"covered":"no","fee":"","operator":"","nameSource":"source"},"sourceId":"osm"},{"id":"osm:node:3097068323","latitude":35.2896673,"longitude":-2.9366353,"name":"Paseo Marítimo Alcalde Rafael Ginel Cañamaque","properties":{"access":"unknown","bicycle_pa":"stands","capacity":8,"covered":"no","fee":"","operator":"","nameSource":"source"},"sourceId":"osm"},{"id":"osm:node:3097112902","latitude":35.2875177,"longitude":-2.9377433,"name":"Paseo Marítimo Alcalde Rafael Ginel Cañamaque 10","properties":{"access":"unknown","bicycle_pa":"stands","capacity":8,"covered":"no","fee":"","operator":"","nameSource":"source"},"sourceId":"osm"},{"id":"osm:node:3097126871","latitude":35.2879356,"longitude":-2.942987,"name":"Avenida de la Juventúd 9","properties":{"access":"unknown","bicycle_pa":"stands","capacity":8,"covered":"no","fee":"","operator":"","nameSource":"source"},"sourceId":"osm"},{"id":"osm:node:3097130308","latitude":35.2885027,"longitude":-2.944325,"name":"Avenida de la Juventúd 27","properties":{"access":"unknown","bicycle_pa":"stands","capacity":8,"covered":"no","fee":"","operator":"","nameSource":"source"},"sourceId":"osm"},{"id":"osm:node:3097159823","latitude":35.2904032,"longitude":-2.9450145,"name":"Duquesa de la Victoria","properties":{"access":"unknown","bicycle_pa":"stands","capacity":8,"covered":"no","fee":"","operator":"","nameSource":"source"},"sourceId":"osm"},{"id":"osm:node:3097171859","latitude":35.2916903,"longitude":-2.9436492,"name":"Carlos Ramírez de Arellano","properties":{"access":"unknown","bicycle_pa":"stands","capacity":8,"covered":"no","fee":"","operator":"","nameSource":"source"},"sourceId":"osm"}],"schemaVersion":2}
