{"key":"12/2048/1360","points":[{"categories":["shop"],"id":"osm:node:1303497855","latitude":51.6026025,"longitude":0.0868068,"name":"Ciclos Uno","properties":{"website":"http://www.ciclosuno.com/"},"sourceId":"osm"},{"categories":["shop"],"id":"osm:node:13243413086","latitude":51.5774063,"longitude":0.065164,"name":"Bike Vibe","properties":{"website":"https://www.bikevibe.co.uk/"},"sourceId":"osm"},{"categories":["shop"],"id":"osm:node:1837634899","latitude":51.575499,"longitude":0.0273615,"name":"Biketrax","properties":{},"sourceId":"osm"},{"categories":["shop"],"id":"osm:node:2471113728","latitude":51.5912588,"longitude":0.0290371,"name":"Woodford Cycle Centre","properties":{"website":"https://woodfordcyclecentre.co.uk/"},"sourceId":"osm"},{"categories":["hire"],"id":"osm:node:5919322085","latitude":51.5684766,"longitude":0.008928,"name":"Brompton Bike Hire","properties":{"brand":"Brompton Bike Hire","network":"Brompton Bike Hire","operator":"Brompton Bike Hire"},"sourceId":"osm"},{"categories":["shop"],"id":"osm:way:678685297","latitude":51.60678272222222,"longitude":0.0010029111111111112,"name":"Heales Cycles","properties":{"website":"http://www.healescycles.com/"},"sourceId":"osm"}],"schemaVersion":2}
