{"key":"12/2048/1361","points":[{"categories":["shop"],"id":"osm:node:10054645756","latitude":51.5309383,"longitude":0.0198135,"name":"London Bike Cartel","properties":{},"sourceId":"osm"},{"categories":["hire"],"id":"osm:node:10136494360","latitude":51.5148545,"longitude":0.0087707,"name":"Brompton Bike Hire","properties":{"brand":"Brompton Bike Hire","fee":"yes","network":"Brompton","operator":"Brompton Bike Hire"},"sourceId":"osm"},{"categories":["shop"],"id":"osm:node:10308926051","latitude":51.5267619,"longitude":0.0308524,"name":"Bicycle shop","properties":{},"sourceId":"osm"},{"categories":["hire"],"id":"osm:node:10615908479","latitude":51.5102445,"longitude":0.0260108,"name":"Brompton Bicycle Hire","properties":{"fee":"yes","website":"https://www.bromptonhire.com/"},"sourceId":"osm"},{"categories":["repair"],"id":"osm:node:12000950056","latitude":51.5417021,"longitude":0.004963,"name":"Bicycle repair station","properties":{"servicePump":"no","serviceTools":"yes"},"sourceId":"osm"},{"categories":["shop"],"id":"osm:node:12078056038","latitude":51.5430088,"longitude":0.0264111,"name":"Etty & Tyler","properties":{},"sourceId":"osm"},{"categories":["shop"],"id":"osm:node:12112463497","latitude":51.558643,"longitude":0.0077809,"name":"Stayer Cycles","properties":{"website":"https://stayercycles.com/"},"sourceId":"osm"},{"categories":["shop"],"id":"osm:node:12222615090","latitude":51.5465307,"longitude":0.0296384,"name":"Bike & Scooter Shop","properties":{},"sourceId":"osm"},{"categories":["shop","repair"],"id":"osm:node:4534008511","latitude":51.5493669,"longitude":0.0053249,"name":"The Bike Zone","properties":{"serviceRepair":"yes"},"sourceId":"osm"},{"categories":["shop","repair"],"id":"osm:node:6967654230","latitude":51.554094,"longitude":0.0050171,"name":"Dancing Chain Bike Shop","properties":{"serviceRepair":"yes","website":"https://www.dancingchain.co.uk/"},"sourceId":"osm"},{"categories":["repair"],"id":"osm:node:7461457928","latitude":51.5435009,"longitude":0.0046158,"name":"Bicycle repair station","properties":{"fee":"no","servicePump":"yes"},"sourceId":"osm"},{"categories":["repair"],"id":"osm:node:7461553803","latitude":51.541502,"longitude":0.0022674,"name":"Bicycle repair station","properties":{"fee":"no","servicePump":"yes"},"sourceId":"osm"},{"categories":["shop","repair"],"id":"osm:node:8557004261","latitude":51.5530732,"longitude":0.0236629,"name":"Forest Gate Ebike Repair","properties":{"serviceRepair":"yes"},"sourceId":"osm"},{"categories":["hire"],"id":"osm:node:8560385876","latitude":51.5462973,"longitude":0.0064452,"name":"Maryland Station","properties":{"brand":"Brompton Bike Hire","network":"Brompton Bike Hire","operator":"Brompton Bike Hire","website":"https://www.bromptonbikehire.com/docks/3142-london:leytonstation"},"sourceId":"osm"},{"categories":["hire"],"id":"osm:node:8599540003","latitude":51.5490963,"longitude":0.0250504,"name":"Brompton Bike Hire","properties":{"brand":"Brompton Bike Hire","network":"Brompton Bike Hire","operator":"Brompton Bike Hire"},"sourceId":"osm"},{"categories":["hire"],"id":"osm:node:8736437048","latitude":51.5232999,"longitude":0.0335462,"name":"Newham Hospital","properties":{"brand":"Brompton Bike Hire","network":"Brompton Bike Hire","operator":"Brompton Bike Hire","website":"https://www.bromptonbikehire.com/docks/3142-london:leytonstation"},"sourceId":"osm"},{"categories":["hire"],"id":"osm:node:9291035212","latitude":51.5525384,"longitude":0.0468099,"name":"Manor Park Station","properties":{"brand":"Brompton Bike Hire","network":"Brompton Bike Hire","operator":"Brompton Bike Hire"},"sourceId":"osm"},{"categories":["shop","repair"],"id":"osm:way:611608458","latitude":51.54092271,"longitude":0.0106932,"name":"E15 Bike Sale and Repair Centre","properties":{"serviceRepair":"yes"},"sourceId":"osm"},{"categories":["shop"],"id":"osm:way:813216683","latitude":51.554117,"longitude":0.023960525,"name":"Spoke Shed","properties":{"website":"https://www.spokeshed.co.uk/"},"sourceId":"osm"},{"categories":["shop"],"id":"osm:way:934243330","latitude":51.51982432307693,"longitude":0.01649775384615385,"name":"All Bikes","properties":{},"sourceId":"osm"}],"schemaVersion":2}
