{"key":"12/2048/1570","points":[{"categories":["shop"],"id":"osm:node:11118852248","latitude":38.6438208,"longitude":0.050155,"name":"Cicles Tony","properties":{},"sourceId":"osm"},{"categories":["shop","hire"],"id":"osm:node:11581286454","latitude":38.6424148,"longitude":0.043269,"name":"Coll de Rates Cycling Holidays","properties":{"openingHours":"Mo-Sa 09:00-15:00","operator":"Home in Calpe Invest S.L.","serviceRental":"yes","serviceTools":"yes"},"sourceId":"osm"},{"categories":["hire"],"id":"osm:node:6986841275","latitude":38.6419842,"longitude":0.0479358,"name":"Start With Bike","properties":{"fee":"yes","openingHours":"Mo,Tu,Th,Fr,Sa 9:30-13:00,17:00-18:00; We 11:00-13:00,17:00-18:00; Su 11:00-14:00","operator":"Start With Bike"},"sourceId":"osm"},{"categories":["shop","repair","hire"],"id":"osm:node:8675877525","latitude":38.6435671,"longitude":0.0597656,"name":"Baguet","properties":{"openingHours":"Mo-Su 09:00-18:00","serviceRental":"yes","serviceRepair":"yes"},"sourceId":"osm"},{"categories":["hire"],"id":"osm:node:9556435565","latitude":38.6505093,"longitude":0.0745595,"name":"Vuelta Turistica","properties":{"fee":"yes"},"sourceId":"osm"}],"schemaVersion":2}
