{"key":"12/2073/1521","points":[{"id":"osm:node:11450120620","latitude":41.946444,"longitude":2.2389271,"name":"Carretera de Sant Bartomeu near Carrer del Castell","properties":{"access":"customers","bicycle_pa":"","capacity":0,"covered":"no","fee":"no","operator":"","nameSource":"junction"},"sourceId":"osm"},{"id":"osm:node:11902391990","latitude":41.9476768,"longitude":2.2707256,"name":"Carrer de Lleida by Eukarya","properties":{"access":"customers","bicycle_pa":"wall_loops","capacity":0,"covered":"no","fee":"no","operator":"","nameSource":"landmark"},"sourceId":"osm"},{"id":"osm:node:13596187712","latitude":41.9323317,"longitude":2.260976,"name":"Camí de l'Escorial near Carretera de Roda","properties":{"access":"unknown","bicycle_pa":"stands","capacity":4,"covered":"no","fee":"","operator":"","nameSource":"junction"},"sourceId":"osm"},{"id":"osm:node:13643597114","latitude":41.9305776,"longitude":2.2508997,"name":"Carrer del Bisbe Morgades near Carrer de Jacint Verdaguer","properties":{"access":"unknown","bicycle_pa":"stands","capacity":3,"covered":"no","fee":"","operator":"","nameSource":"junction"},"sourceId":"osm"},{"id":"osm:node:13643688462","latitude":41.9305684,"longitude":2.2517903,"name":"Carrer de Jacint Verdaguer by Pretty","properties":{"access":"unknown","bicycle_pa":"stands","capacity":3,"covered":"no","fee":"","operator":"","nameSource":"landmark"},"sourceId":"osm"},{"id":"osm:node:13643700541","latitude":41.931687,"longitude":2.2488601,"name":"Carrer del Pare Gallissà near Carrer de l'Arquebisbe Alemany","properties":{"access":"yes","bicycle_pa":"lockers","capacity":5,"covered":"yes","fee":"no","operator":"","nameSource":"junction"},"sourceId":"osm"},{"id":"osm:node:13656590186","latitude":41.9299118,"longitude":2.2528234,"name":"Rambla de l'Hospital near Carrer de Sant Josep","properties":{"access":"unknown","bicycle_pa":"stands","capacity":3,"covered":"no","fee":"","operator":"","nameSource":"junction"},"sourceId":"osm"},{"id":"osm:node:13656640099","latitude":41.9305939,"longitude":2.248815,"name":"Carrer de Mossèn Josep Gudiol near Plaça de l'Estació","properties":{"access":"unknown","bicycle_pa":"stands","capacity":5,"covered":"no","fee":"","operator":"","nameSource":"junction"},"sourceId":"osm"},{"id":"osm:node:13907643032","latitude":41.9277184,"longitude":2.2563032,"name":"Rambla del Bisbat near Plaça de Santa Elisabeth","properties":{"access":"unknown","bicycle_pa":"stands","capacity":6,"covered":"no","fee":"","operator":"","nameSource":"junction"},"sourceId":"osm"},{"id":"osm:node:13907645922","latitude":41.92727,"longitude":2.254784,"name":"Rambla del Bisbat near Carrer de Santa Maria","properties":{"access":"unknown","bicycle_pa":"stands","capacity":4,"covered":"no","fee":"","operator":"","nameSource":"junction"},"sourceId":"osm"},{"id":"osm:node:13929330603","latitude":41.9270235,"longitude":2.2555657,"name":"Carrer de la Soledat near Carrer d'Anselm Clavé","properties":{"access":"unknown","bicycle_pa":"stands","capacity":3,"covered":"no","fee":"","operator":"","nameSource":"junction"},"sourceId":"osm"},{"id":"osm:node:13929804219","latitude":41.9262693,"longitude":2.2559991,"name":"Avinguda de Martí Genís i Aguilar near Carrer d'Anselm Clavé","properties":{"access":"unknown","bicycle_pa":"stands","capacity":0,"covered":"no","fee":"no","operator":"","nameSource":"junction"},"sourceId":"osm"},{"id":"osm:node:4764728543","latitude":41.9280587,"longitude":2.2547257,"name":"Plaça de la Catedral near Carrer Gibraltar","properties":{"access":"unknown","bicycle_pa":"stands","capacity":3,"covered":"no","fee":"","operator":"","nameSource":"junction"},"sourceId":"osm"},{"id":"osm:node:4767452125","latitude":41.9302,"longitude":2.2508901,"name":"Pikment","properties":{"access":"customers","bicycle_pa":"wall_loops","capacity":4,"covered":"yes","fee":"","operator":"","nameSource":"source"},"sourceId":"osm"},{"id":"osm:node:4767452126","latitude":41.9300313,"longitude":2.2444013,"name":"Zèfir","properties":{"access":"customers","bicycle_pa":"wall_loops","capacity":8,"covered":"no","fee":"","operator":"","nameSource":"source"},"sourceId":"osm"},{"id":"osm:node:4784302785","latitude":41.944605,"longitude":2.2591238,"name":"Decathlon Vic","properties":{"access":"customers","bicycle_pa":"wall_loops","capacity":0,"covered":"no","fee":"no","operator":"","nameSource":"source"},"sourceId":"osm"},{"id":"osm:node:4784306751","latitude":41.9342134,"longitude":2.2501851,"name":"Carrer de l'Era d'en Sellés near Plaça del Mil·lenari de Catalunya","properties":{"access":"unknown","bicycle_pa":"stands","capacity":8,"covered":"no","fee":"","operator":"","nameSource":"junction"},"sourceId":"osm"},{"id":"osm:node:4787630733","latitude":41.933355,"longitude":2.239489,"name":"carrer del Mas d'Osona near Avinguda d'Olímpia","properties":{"access":"unknown","bicycle_pa":"stands","capacity":5,"covered":"no","fee":"","operator":"","nameSource":"junction"},"sourceId":"osm"},{"id":"osm:node:4788900834","latitude":41.9327658,"longitude":2.2493748,"name":"Estació d'Autobusos","properties":{"access":"unknown","bicycle_pa":"stands","capacity":6,"covered":"yes","fee":"","operator":"","nameSource":"source"},"sourceId":"osm"},{"id":"osm:node:4788900835","latitude":41.9329892,"longitude":2.2482697,"name":"Carrer de Miramarges by Natur Estetic Carme i Cristina","properties":{"access":"unknown","bicycle_pa":"stands","capacity":3,"covered":"no","fee":"","operator":"","nameSource":"landmark"},"sourceId":"osm"},{"id":"osm:node:4788900838","latitude":41.9320504,"longitude":2.2478392,"name":"Carrer de Miquel Llor near Carrer de Miramarges","properties":{"access":"unknown","bicycle_pa":"stands","capacity":5,"covered":"no","fee":"","operator":"","nameSource":"junction"},"sourceId":"osm"},{"id":"osm:node:4790717905","latitude":41.9277542,"longitude":2.2465917,"name":"Carrer de l'historiador Ramon d'Abadal i de Vinyals near Carrer de la Llotja","properties":{"access":"unknown","bicycle_pa":"stands","capacity":4,"covered":"no","fee":"","operator":"","nameSource":"junction"},"sourceId":"osm"},{"id":"osm:node:4790721786","latitude":41.9305931,"longitude":2.2488935,"name":"Carrer de Mossèn Josep Gudiol near Plaça de l'Estació","properties":{"access":"unknown","bicycle_pa":"stands","capacity":6,"covered":"no","fee":"","operator":"","nameSource":"junction"},"sourceId":"osm"},{"id":"osm:node:5083212837","latitude":41.9333964,"longitude":2.2414946,"name":"Avinguda d'Olímpia near Carrer del Nadal","properties":{"access":"yes","bicycle_pa":"stands","capacity":34,"covered":"no","fee":"no","operator":"Ajuntament de Vic","nameSource":"junction"},"sourceId":"osm"},{"id":"osm:node:5083212838","latitude":41.935918,"longitude":2.2567767,"name":"Carrer de Mossèn Llorenç Vilacís cycle parking","properties":{"access":"unknown","bicycle_pa":"wall_loops","capacity":17,"covered":"no","fee":"","operator":"","nameSource":"street"},"sourceId":"osm"},{"id":"osm:node:5179729416","latitude":41.930396,"longitude":2.2534301,"name":"Carrer de Jacint Verdaguer near Rambla de l'Hospital","properties":{"access":"unknown","bicycle_pa":"stands","capacity":8,"covered":"no","fee":"","operator":"","nameSource":"junction"},"sourceId":"osm"},{"id":"osm:node:5179729417","latitude":41.9313184,"longitude":2.2536673,"name":"Carrer de la Mare de Déu de les Neus near Rambla del Carme","properties":{"access":"unknown","bicycle_pa":"stands","capacity":6,"covered":"no","fee":"","operator":"","nameSource":"junction"},"sourceId":"osm"},{"id":"osm:node:5179729418","latitude":41.9296877,"longitude":2.2608977,"name":"Carrer de Sant Segimon near Carrer de la Indústria","properties":{"access":"private","bicycle_pa":"wall_loops","capacity":20,"covered":"","fee":"","operator":"","nameSource":"junction"},"sourceId":"osm"},{"id":"osm:node:5200609252","latitude":41.93074,"longitude":2.2488021,"name":"Plaça de l'Estació near Carrer de Mossèn Josep Gudiol","properties":{"access":"unknown","bicycle_pa":"stands","capacity":6,"covered":"no","fee":"","operator":"","nameSource":"junction"},"sourceId":"osm"},{"id":"osm:node:5222346795","latitude":41.9260425,"longitude":2.2466945,"name":"Carrer de la Llotja near Carrer Eix Onze de Setembre","properties":{"access":"customers","bicycle_pa":"","capacity":0,"covered":"","fee":"","operator":"","nameSource":"junction"},"sourceId":"osm"},{"id":"osm:node:5640970891","latitude":41.9316023,"longitude":2.2428505,"name":"Carrer del Bisbe Font Andreu by Baobab Fleca, S.L.","properties":{"access":"unknown","bicycle_pa":"stands","capacity":4,"covered":"no","fee":"","operator":"","nameSource":"landmark"},"sourceId":"osm"},{"id":"osm:node:5640970892","latitude":41.9327046,"longitude":2.2424789,"name":"Carrer de Salvador Allende Gosse near Carrer del Bisbe Font Andreu","properties":{"access":"unknown","bicycle_pa":"stands","capacity":4,"covered":"no","fee":"no","operator":"","nameSource":"junction"},"sourceId":"osm"},{"id":"osm:node:5640973282","latitude":41.9308986,"longitude":2.2453636,"name":"Carrer de la Laura near Carrer Eix Onze de Setembre","properties":{"access":"unknown","bicycle_pa":"stands","capacity":3,"covered":"no","fee":"","operator":"","nameSource":"junction"},"sourceId":"osm"},{"id":"osm:node:5640999447","latitude":41.9324155,"longitude":2.2459644,"name":"Carrer de Perot Rocaguinarda cycle parking","properties":{"access":"unknown","bicycle_pa":"stands","capacity":3,"covered":"","fee":"","operator":"","nameSource":"street"},"sourceId":"osm"},{"id":"osm:node:5640999448","latitude":41.932988,"longitude":2.2466304,"name":"Carrer de Miquel Martí i Pol cycle parking","properties":{"access":"unknown","bicycle_pa":"stands","capacity":2,"covered":"","fee":"","operator":"","nameSource":"street"},"sourceId":"osm"},{"id":"osm:node:5640999449","latitude":41.9334407,"longitude":2.2483524,"name":"Carrer de Miramarges near Carrer de la Sagrada Família","properties":{"access":"unknown","bicycle_pa":"stands","capacity":2,"covered":"no","fee":"","operator":"","nameSource":"junction"},"sourceId":"osm"},{"id":"osm:node:5655438422","latitude":41.9367877,"longitude":2.2376834,"name":"carrer del Mas d'Osona by pavelló de l'Ausoneta","properties":{"access":"unknown","bicycle_pa":"stands","capacity":4,"covered":"no","fee":"","operator":"","nameSource":"landmark"},"sourceId":"osm"},{"id":"osm:node:5655438454","latitude":41.9362907,"longitude":2.2388218,"name":"carrer d'Antoni Vilà Cañellas near carrer del Mas d'Osona","properties":{"access":"customers","bicycle_pa":"stands","capacity":5,"covered":"no","fee":"","operator":"","nameSource":"junction"},"sourceId":"osm"},{"id":"osm:node:5832588785","latitude":41.9292753,"longitude":2.2573693,"name":"Plaça de Don Miquel de Clariana near Carrer de Cardona","properties":{"access":"yes","bicycle_pa":"stands","capacity":3,"covered":"no","fee":"","operator":"","nameSource":"junction"},"sourceId":"osm"},{"id":"osm:node:5832588786","latitude":41.9293107,"longitude":2.2573746,"name":"Plaça de Don Miquel de Clariana near Carrer de Cardona","properties":{"access":"yes","bicycle_pa":"stands","capacity":3,"covered":"no","fee":"","operator":"","nameSource":"junction"},"sourceId":"osm"},{"id":"osm:node:5846935795","latitude":41.9296996,"longitude":2.2553433,"name":"Plaça de Sant Felip near Carrer de la Ciutat","properties":{"access":"unknown","bicycle_pa":"stands","capacity":2,"covered":"","fee":"","operator":"","nameSource":"junction"},"sourceId":"osm"},{"id":"osm:node:5846935796","latitude":41.929837,"longitude":2.2548901,"name":"Carrer de la Ciutat near Carrer de Sant Miquel dels Sants","properties":{"access":"unknown","bicycle_pa":"stands","capacity":3,"covered":"","fee":"","operator":"","nameSource":"junction"},"sourceId":"osm"},{"id":"osm:node:5859504185","latitude":41.9334215,"longitude":2.2415969,"name":"Avinguda d'Olímpia near Carrer del Bisbe Font Andreu","properties":{"access":"customers","bicycle_pa":"wall_loops","capacity":5,"covered":"","fee":"","operator":"","nameSource":"junction"},"sourceId":"osm"},{"id":"osm:node:5859504186","latitude":41.9334262,"longitude":2.2416701,"name":"Avinguda d'Olímpia near Carrer del Bisbe Font Andreu","properties":{"access":"customers","bicycle_pa":"wall_loops","capacity":6,"covered":"","fee":"","operator":"","nameSource":"junction"},"sourceId":"osm"},{"id":"osm:node:5859504187","latitude":41.9334311,"longitude":2.2417343,"name":"Avinguda d'Olímpia near Carrer del Bisbe Font Andreu","properties":{"access":"customers","bicycle_pa":"wall_loops","capacity":6,"covered":"","fee":"","operator":"","nameSource":"junction"},"sourceId":"osm"},{"id":"osm:node:5859504188","latitude":41.9334234,"longitude":2.2416256,"name":"Avinguda d'Olímpia near Carrer del Bisbe Font Andreu","properties":{"access":"customers","bicycle_pa":"wall_loops","capacity":5,"covered":"","fee":"","operator":"","nameSource":"junction"},"sourceId":"osm"},{"id":"osm:node:5859504189","latitude":41.9334287,"longitude":2.241702,"name":"Avinguda d'Olímpia near Carrer del Bisbe Font Andreu","properties":{"access":"customers","bicycle_pa":"wall_loops","capacity":6,"covered":"","fee":"","operator":"","nameSource":"junction"},"sourceId":"osm"},{"id":"osm:node:5901156485","latitude":41.9212482,"longitude":2.2512692,"name":"Carrer Manuel Serra Moret near Carrer Virrei Avilés","properties":{"access":"yes","bicycle_pa":"stands","capacity":16,"covered":"no","fee":"no","operator":"Ajuntament de Vic","nameSource":"junction"},"sourceId":"osm"},{"id":"osm:node:6248808170","latitude":41.9300462,"longitude":2.2549753,"name":"Plaça del Pes near Carrer de la Ciutat","properties":{"access":"unknown","bicycle_pa":"stands","capacity":2,"covered":"no","fee":"no","operator":"","nameSource":"junction"},"sourceId":"osm"},{"id":"osm:node:6477846568","latitude":41.9311943,"longitude":2.2634684,"name":"Carrer del Canigó near Carrer del Raval Cortines","properties":{"access":"unknown","bicycle_pa":"stands","capacity":4,"covered":"no","fee":"no","operator":"","nameSource":"junction"},"sourceId":"osm"},{"id":"osm:node:6477846569","latitude":41.9286377,"longitude":2.2529174,"name":"Call Nou near Carrer Call Moltó","properties":{"access":"unknown","bicycle_pa":"stands","capacity":1,"covered":"no","fee":"","operator":"","nameSource":"junction"},"sourceId":"osm"},{"id":"osm:node:6600170289","latitude":41.9360682,"longitude":2.2497255,"name":"Carrer de l'Era d'en Sellés near Passatge de La Roqueta","properties":{"access":"unknown","bicycle_pa":"stands","capacity":3,"covered":"no","fee":"","operator":"","nameSource":"junction"},"sourceId":"osm"},{"id":"osm:node:6917946753","latitude":41.9307309,"longitude":2.2505814,"name":"Carrer de Jacint Verdaguer near Carrer del Bisbe Morgades","properties":{"access":"unknown","bicycle_pa":"stands","capacity":4,"covered":"no","fee":"","operator":"","nameSource":"junction"},"sourceId":"osm"},{"id":"osm:node:6917946754","latitude":41.9305471,"longitude":2.2519066,"name":"Carrer de Jacint Verdaguer by Drunn","properties":{"access":"unknown","bicycle_pa":"stands","capacity":4,"covered":"no","fee":"","operator":"","nameSource":"landmark"},"sourceId":"osm"},{"id":"osm:node:8201389932","latitude":41.9219411,"longitude":2.2492604,"name":"Plaça de fra Joan near Carrer del Remei","properties":{"access":"unknown","bicycle_pa":"stands","capacity":5,"covered":"","fee":"","operator":"","nameSource":"junction"},"sourceId":"osm"},{"id":"osm:node:8231225271","latitude":41.9310394,"longitude":2.261128,"name":"Plaça de la Divina Pastora near Carrer de Sant Jordi","properties":{"access":"unknown","bicycle_pa":"stands","capacity":4,"covered":"no","fee":"","operator":"","nameSource":"junction"},"sourceId":"osm"},{"id":"osm:node:8231225272","latitude":41.930262,"longitude":2.2592375,"name":"Carrer de la Gelada near Carrer Santa Joaquima de Vedruna","properties":{"access":"unknown","bicycle_pa":"stands","capacity":2,"covered":"yes","fee":"","operator":"","nameSource":"junction"},"sourceId":"osm"},{"id":"osm:node:8231225273","latitude":41.9302775,"longitude":2.2592778,"name":"Carrer de la Gelada near Carrer Santa Joaquima de Vedruna","properties":{"access":"unknown","bicycle_pa":"stands","capacity":2,"covered":"no","fee":"","operator":"","nameSource":"junction"},"sourceId":"osm"},{"id":"osm:node:8231244184","latitude":41.9331979,"longitude":2.2537586,"name":"Carrer del Pare Coll near Carrer de Jaume I el Conqueridor","properties":{"access":"unknown","bicycle_pa":"stands","capacity":4,"covered":"","fee":"","operator":"","nameSource":"junction"},"sourceId":"osm"},{"id":"osm:node:8231244185","latitude":41.9357572,"longitude":2.2575674,"name":"Carrer de Mossèn Llorenç Vilacís near Carrer de Ramon Sala i Saçala","properties":{"access":"unknown","bicycle_pa":"stands","capacity":17,"covered":"yes","fee":"","operator":"","nameSource":"junction"},"sourceId":"osm"},{"id":"osm:node:8778213889","latitude":41.9160091,"longitude":2.2603658,"name":"Camí Antic a Taradell near Passatge de la Creu del Marcé","properties":{"access":"yes","bicycle_pa":"stands","capacity":8,"covered":"no","fee":"no","operator":"Ajuntament de Vic","nameSource":"junction"},"sourceId":"osm"},{"id":"osm:node:8778217227","latitude":41.9147409,"longitude":2.256726,"name":"Avinguda de Rafael Casanova near Carrer de Mossèn Josep Guiteras","properties":{"access":"yes","bicycle_pa":"stands","capacity":10,"covered":"no","fee":"no","operator":"Ajuntament de Vic","nameSource":"junction"},"sourceId":"osm"},{"id":"osm:node:8778241907","latitude":41.913672,"longitude":2.2567443,"name":"Avinguda de Rafael Casanova near Carrer de Mossèn Josep Guiteras","properties":{"access":"customers","bicycle_pa":"stands","capacity":6,"covered":"no","fee":"no","operator":"Ajuntament de Vic","nameSource":"junction"},"sourceId":"osm"},{"id":"osm:node:8778595915","latitude":41.9359758,"longitude":2.2398777,"name":"carrer d'Antoni Vilà Cañellas near carrer dels Jocs del 92","properties":{"access":"yes","bicycle_pa":"stands","capacity":8,"covered":"no","fee":"no","operator":"Ajuntament de Vic","nameSource":"junction"},"sourceId":"osm"},{"id":"osm:node:8778610808","latitude":41.9203075,"longitude":2.2480191,"name":"Carrer Sant Joan Bosco near Carrer Sant Quirze de Besora","properties":{"access":"yes","bicycle_pa":"stands","capacity":0,"covered":"no","fee":"no","operator":"Ajuntament de Vic","nameSource":"junction"},"sourceId":"osm"},{"id":"osm:node:8778610809","latitude":41.9197207,"longitude":2.2482026,"name":"Carrer de Centelles near Avinguda Montseny","properties":{"access":"yes","bicycle_pa":"stands","capacity":20,"covered":"no","fee":"no","operator":"Ajuntament de Vic","nameSource":"junction"},"sourceId":"osm"},{"id":"osm:node:8778619915","latitude":41.9219369,"longitude":2.2503279,"name":"Carrer Doctor Candi Bayes near Carrer Raimon d'Abadal","properties":{"access":"yes","bicycle_pa":"stands","capacity":10,"covered":"no","fee":"no","operator":"Ajuntament de Vic","nameSource":"junction"},"sourceId":"osm"},{"id":"osm:node:8778619916","latitude":41.9238795,"longitude":2.2507591,"name":"Carretera de La Guixa near Carrer Doctor Candi Bayes","properties":{"access":"yes","bicycle_pa":"stands","capacity":6,"covered":"no","fee":"no","operator":"Ajuntament de Vic","nameSource":"junction"},"sourceId":"osm"},{"id":"osm:node:8778662413","latitude":41.9218275,"longitude":2.2511444,"name":"Carrer Raimon d'Abadal near Carrer Virrei Avilés","properties":{"access":"yes","bicycle_pa":"stands","capacity":12,"covered":"no","fee":"no","operator":"Ajuntament de Vic","nameSource":"junction"},"sourceId":"osm"},{"id":"osm:node:8778673117","latitude":41.9232592,"longitude":2.2507664,"name":"Carrer del Bisbe Strauch near Carrer Doctor Candi Bayes","properties":{"access":"yes","bicycle_pa":"stands","capacity":10,"covered":"no","fee":"no","operator":"Ajuntament de Vic","nameSource":"junction"},"sourceId":"osm"},{"id":"osm:node:8778673118","latitude":41.9230568,"longitude":2.2507497,"name":"Carrer del Bisbe Strauch near Carrer Doctor Candi Bayes","properties":{"access":"yes","bicycle_pa":"stands","capacity":10,"covered":"no","fee":"no","operator":"Ajuntament de Vic","nameSource":"junction"},"sourceId":"osm"},{"id":"osm:node:8778673119","latitude":41.9213632,"longitude":2.2493855,"name":"Carrer del Remei near Carrer Manuel Serra Moret","properties":{"access":"yes","bicycle_pa":"stands","capacity":8,"covered":"no","fee":"no","operator":"Ajuntament de Vic","nameSource":"junction"},"sourceId":"osm"},{"id":"osm:node:8778673120","latitude":41.9199087,"longitude":2.2505891,"name":"Carrer Joan XXIII near Carrer Virrei Avilés","properties":{"access":"yes","bicycle_pa":"stands","capacity":12,"covered":"no","fee":"no","operator":"Ajuntament de Vic","nameSource":"junction"},"sourceId":"osm"},{"id":"osm:node:8778673121","latitude":41.9200524,"longitude":2.252312,"name":"Passeig de la Generalitat near Carrer d'Enric Prat de la Riba","properties":{"access":"yes","bicycle_pa":"stands","capacity":8,"covered":"no","fee":"no","operator":"Ajuntament de Vic","nameSource":"junction"},"sourceId":"osm"},{"id":"osm:node:8778679985","latitude":41.9251891,"longitude":2.254378,"name":"Carrer d'Andreu Febrer near Carrer del Mestre Garriga","properties":{"access":"yes","bicycle_pa":"stands","capacity":4,"covered":"no","fee":"no","operator":"Ajuntament de Vic","nameSource":"junction"},"sourceId":"osm"},{"id":"osm:node:8778688461","latitude":41.9232562,"longitude":2.2525144,"name":"Carrer del Bisbe Strauch near Rambla Josep Tarradellas","properties":{"access":"yes","bicycle_pa":"stands","capacity":10,"covered":"no","fee":"no","operator":"Ajuntament de Vic","nameSource":"junction"},"sourceId":"osm"},{"id":"osm:node:8778688462","latitude":41.9229824,"longitude":2.2532618,"name":"Plaça Francesc Macià near Passeig de la Generalitat","properties":{"access":"yes","bicycle_pa":"stands","capacity":6,"covered":"no","fee":"no","operator":"Ajuntament de Vic","nameSource":"junction"},"sourceId":"osm"},{"id":"osm:node:8778688463","latitude":41.923364,"longitude":2.2527542,"name":"Carrer del Bisbe Strauch near Passeig de la Generalitat","properties":{"access":"yes","bicycle_pa":"stands","capacity":8,"covered":"no","fee":"no","operator":"Ajuntament de Vic","nameSource":"junction"},"sourceId":"osm"},{"id":"osm:node:8778688960","latitude":41.9238142,"longitude":2.2549282,"name":"Carrer del Doctor Salarich near Carrer del Pare Huix","properties":{"access":"yes","bicycle_pa":"stands","capacity":12,"covered":"no","fee":"no","operator":"Ajuntament de Vic","nameSource":"junction"},"sourceId":"osm"},{"id":"osm:node:8778689409","latitude":41.9244219,"longitude":2.2537669,"name":"Carrer de Narcís Verdaguer i Callís near Carretera de La Guixa","properties":{"access":"yes","bicycle_pa":"stands","capacity":8,"covered":"no","fee":"no","operator":"Ajuntament de Vic","nameSource":"junction"},"sourceId":"osm"},{"id":"osm:node:8778691188","latitude":41.9205541,"longitude":2.2542456,"name":"Carrer del Pare Huix near Ronda dels Ausetans","properties":{"access":"yes","bicycle_pa":"stands","capacity":8,"covered":"no","fee":"no","operator":"Ajuntament de Vic","nameSource":"junction"},"sourceId":"osm"},{"id":"osm:node:8778698328","latitude":41.9212239,"longitude":2.2543377,"name":"Carrer del Pare Huix near Avinguda de l'Estadi","properties":{"access":"yes","bicycle_pa":"stands","capacity":14,"covered":"no","fee":"no","operator":"Ajuntament de Vic","nameSource":"junction"},"sourceId":"osm"},{"id":"osm:node:8778701218","latitude":41.921053,"longitude":2.2519994,"name":"Passeig de la Generalitat near Passeig Pla del Remei","properties":{"access":"yes","bicycle_pa":"stands","capacity":8,"covered":"no","fee":"no","operator":"Ajuntament de Vic","nameSource":"junction"},"sourceId":"osm"},{"id":"osm:node:8778705137","latitude":41.9239474,"longitude":2.2564127,"name":"Carrer de Rafael Subirachs i Ricart cycle parking","properties":{"access":"yes","bicycle_pa":"stands","capacity":8,"covered":"no","fee":"no","operator":"Ajuntament de Vic","nameSource":"street"},"sourceId":"osm"},{"id":"osm:node:8778708733","latitude":41.9199508,"longitude":2.2509616,"name":"Carrer Joan XXIII near Carrer Virrei Avilés","properties":{"access":"yes","bicycle_pa":"stands","capacity":12,"covered":"no","fee":"no","operator":"Ajuntament de Vic","nameSource":"junction"},"sourceId":"osm"},{"id":"osm:node:8778708734","latitude":41.9197417,"longitude":2.2509218,"name":"Carrer Joan XXIII near Carrer Virrei Avilés","properties":{"access":"yes","bicycle_pa":"stands","capacity":8,"covered":"no","fee":"no","operator":"Ajuntament de Vic","nameSource":"junction"},"sourceId":"osm"},{"id":"osm:node:8778710185","latitude":41.9216954,"longitude":2.2539243,"name":"Avinguda de l'Estadi near Passatge de Sant Cosme i Sant Damià","properties":{"access":"yes","bicycle_pa":"stands","capacity":8,"covered":"no","fee":"no","operator":"Ajuntament de Vic","nameSource":"junction"},"sourceId":"osm"},{"id":"osm:node:8778710186","latitude":41.9216896,"longitude":2.2541079,"name":"Avinguda de l'Estadi near Passatge de Sant Cosme i Sant Damià","properties":{"access":"yes","bicycle_pa":"stands","capacity":6,"covered":"no","fee":"no","operator":"Ajuntament de Vic","nameSource":"junction"},"sourceId":"osm"},{"id":"osm:node:8778716539","latitude":41.9205443,"longitude":2.2509118,"name":"Carrer d'Enric Prat de la Riba near Carrer Virrei Avilés","properties":{"access":"yes","bicycle_pa":"stands","capacity":8,"covered":"no","fee":"no","operator":"Ajuntament de Vic","nameSource":"junction"},"sourceId":"osm"},{"id":"osm:node:8778751078","latitude":41.9242632,"longitude":2.2515872,"name":"Carretera de La Guixa near Rambla Josep Tarradellas","properties":{"access":"yes","bicycle_pa":"stands","capacity":8,"covered":"no","fee":"no","operator":"Ajuntament de Vic","nameSource":"junction"},"sourceId":"osm"},{"id":"osm:node:8778753177","latitude":41.9232749,"longitude":2.2515364,"name":"Rambla Josep Tarradellas near Carrer del Bisbe Strauch","properties":{"access":"yes","bicycle_pa":"stands","capacity":10,"covered":"no","fee":"no","operator":"Ajuntament de Vic","nameSource":"junction"},"sourceId":"osm"},{"id":"osm:node:8778798195","latitude":41.921208,"longitude":2.2526438,"name":"Passeig de la Generalitat near Passeig Pla del Remei","properties":{"access":"yes","bicycle_pa":"stands","capacity":10,"covered":"no","fee":"no","operator":"Ajuntament de Vic","nameSource":"junction"},"sourceId":"osm"},{"id":"osm:node:8778816181","latitude":41.9295595,"longitude":2.2584659,"name":"Carrer de Dues Soles near Plaça del Carbó","properties":{"access":"yes","bicycle_pa":"stands","capacity":12,"covered":"no","fee":"no","operator":"Ajuntament de Vic","nameSource":"junction"},"sourceId":"osm"},{"id":"osm:node:8779771862","latitude":41.9366076,"longitude":2.2616125,"name":"Carrer d'en Francesc Pla \"El Vigatà\" near Carrer de Josep Maria Selva","properties":{"access":"yes","bicycle_pa":"stands","capacity":6,"covered":"no","fee":"no","operator":"Ajuntament de Vic","nameSource":"junction"},"sourceId":"osm"},{"id":"osm:node:8779881758","latitude":41.9271428,"longitude":2.2571378,"name":"Passatge dels Blanquers near Carrer de Sant Francesc","properties":{"access":"yes","bicycle_pa":"stands","capacity":6,"covered":"no","fee":"no","operator":"Ajuntament de Vic","nameSource":"junction"},"sourceId":"osm"},{"id":"osm:node:8779882977","latitude":41.9356695,"longitude":2.2625464,"name":"Avinguda de Sant Bernat Calbó cycle parking","properties":{"access":"yes","bicycle_pa":"stands","capacity":8,"covered":"no","fee":"no","operator":"Ajuntament de Vic","nameSource":"street"},"sourceId":"osm"},{"id":"osm:node:8779883601","latitude":41.9366703,"longitude":2.2643487,"name":"Carrer de Sant Miquel Xic near Avinguda de Sant Bernat Calbó","properties":{"access":"yes","bicycle_pa":"stands","capacity":0,"covered":"no","fee":"no","operator":"Ajuntament de Vic","nameSource":"junction"},"sourceId":"osm"},{"id":"osm:node:8779900785","latitude":41.9374812,"longitude":2.2594762,"name":"Carrer de Mossèn Llorenç Vilacís cycle parking","properties":{"access":"yes","bicycle_pa":"stands","capacity":6,"covered":"yes","fee":"no","operator":"Ajuntament de Vic","nameSource":"street"},"sourceId":"osm"},{"id":"osm:node:8779904427","latitude":41.920324,"longitude":2.2530079,"name":"Carrer Joan Maragall near Carrer d'Enric Prat de la Riba","properties":{"access":"yes","bicycle_pa":"stands","capacity":6,"covered":"no","fee":"no","operator":"Ajuntament de Vic","nameSource":"junction"},"sourceId":"osm"},{"id":"osm:node:8779907628","latitude":41.9203738,"longitude":2.2563816,"name":"Carrer de Josep Maria Pallàs near Carrer de la Providència","properties":{"access":"yes","bicycle_pa":"stands","capacity":12,"covered":"no","fee":"no","operator":"Ajuntament de Vic","nameSource":"junction"},"sourceId":"osm"},{"id":"osm:node:8779924833","latitude":41.9366425,"longitude":2.2624686,"name":"Carrer de Josep Maria Selva near Carrer de Ramon Sala i Saçala","properties":{"access":"yes","bicycle_pa":"stands","capacity":20,"covered":"no","fee":"no","operator":"Ajuntament de Vic","nameSource":"junction"},"sourceId":"osm"},{"id":"osm:node:8806120214","latitude":41.9318695,"longitude":2.2522035,"name":"Plaça Andreu Colomer Munmany near Carrer de l'Arquebisbe Alemany","properties":{"access":"yes","bicycle_pa":"stands","capacity":6,"covered":"no","fee":"no","operator":"Ajuntament de Vic","nameSource":"junction"},"sourceId":"osm"},{"id":"osm:node:8806931757","latitude":41.9295977,"longitude":2.2390186,"name":"Carrer de l'Esbart de Vic near Carrer de la Laura","properties":{"access":"yes","bicycle_pa":"stands","capacity":6,"covered":"no","fee":"no","operator":"Ajuntament de Vic","nameSource":"junction"},"sourceId":"osm"},{"id":"osm:node:8983718107","latitude":41.9296171,"longitude":2.2645082,"name":"Carrer de Bellmunt near Carrer de la Indústria","properties":{"access":"yes","bicycle_pa":"stands","capacity":6,"covered":"no","fee":"no","operator":"Ajuntament de Vic","nameSource":"junction"},"sourceId":"osm"},{"id":"osm:node:8983718108","latitude":41.9305523,"longitude":2.2654735,"name":"Carrer de Can Pau Raba near Carrer Torelló","properties":{"access":"yes","bicycle_pa":"stands","capacity":4,"covered":"no","fee":"no","operator":"Ajuntament de Vic","nameSource":"junction"},"sourceId":"osm"},{"id":"osm:node:8983718109","latitude":41.9283043,"longitude":2.2652075,"name":"Carrer de Torelló near Passatge de Torelló","properties":{"access":"yes","bicycle_pa":"stands","capacity":8,"covered":"no","fee":"no","operator":"Ajuntament de Vic","nameSource":"junction"},"sourceId":"osm"},{"id":"osm:node:8983718110","latitude":41.9287563,"longitude":2.2649014,"name":"Passatge de Torelló near Carrer de Torelló","properties":{"access":"yes","bicycle_pa":"stands","capacity":16,"covered":"no","fee":"no","operator":"Ajuntament de Vic","nameSource":"junction"},"sourceId":"osm"},{"id":"osm:node:8983790728","latitude":41.9302537,"longitude":2.2616873,"name":"Carrer de la Indústria near Carrer de Sant Segimon","properties":{"access":"yes","bicycle_pa":"stands","capacity":4,"covered":"no","fee":"no","operator":"Ajuntament de Vic","nameSource":"junction"},"sourceId":"osm"},{"id":"osm:node:8983790729","latitude":41.9287092,"longitude":2.2620061,"name":"Carrer Collsacabra near Carrer de Montserrat","properties":{"access":"yes","bicycle_pa":"stands","capacity":8,"covered":"no","fee":"no","operator":"Ajuntament de Vic","nameSource":"junction"},"sourceId":"osm"},{"id":"osm:node:8983790730","latitude":41.9310176,"longitude":2.2622735,"name":"Carrer de Sant Jordi near Carrer del Raval Cortines","properties":{"access":"yes","bicycle_pa":"stands","capacity":6,"covered":"no","fee":"no","operator":"Ajuntament de Vic","nameSource":"junction"},"sourceId":"osm"},{"id":"osm:node:8983790731","latitude":41.9291384,"longitude":2.2599217,"name":"Carrer Bisbe Torras i Bages near Carrer de Sant Segimon","properties":{"access":"yes","bicycle_pa":"stands","capacity":6,"covered":"no","fee":"no","operator":"Ajuntament de Vic","nameSource":"junction"},"sourceId":"osm"},{"id":"osm:node:8983790732","latitude":41.9294943,"longitude":2.2610643,"name":"Carrer de Sant Segimon near Carrer Bisbe Torras i Bages","properties":{"access":"yes","bicycle_pa":"stands","capacity":8,"covered":"no","fee":"no","operator":"Ajuntament de Vic","nameSource":"junction"},"sourceId":"osm"},{"id":"osm:node:8983811172","latitude":41.9338226,"longitude":2.2618062,"name":"Carrer del Comtat d'Osona near Carrer de Joan Traveria","properties":{"access":"yes","bicycle_pa":"stands","capacity":8,"covered":"no","fee":"no","operator":"Ajuntament de Vic","nameSource":"junction"},"sourceId":"osm"},{"id":"osm:node:8983860377","latitude":41.9273628,"longitude":2.2493933,"name":"Carrer de les Flors near Avinguda dels Països Catalans","properties":{"access":"yes","bicycle_pa":"stands","capacity":6,"covered":"no","fee":"no","operator":"Ajuntament de Vic","nameSource":"junction"},"sourceId":"osm"},{"id":"osm:node:8983860378","latitude":41.9269472,"longitude":2.2491477,"name":"Avinguda dels Països Catalans near Carrer de les Flors","properties":{"access":"yes","bicycle_pa":"stands","capacity":8,"covered":"no","fee":"no","operator":"Ajuntament de Vic","nameSource":"junction"},"sourceId":"osm"},{"id":"osm:node:8983860379","latitude":41.9284031,"longitude":2.2500333,"name":"Carrer Ramon Soler near Carrer del Doctor Junyent","properties":{"access":"yes","bicycle_pa":"stands","capacity":4,"covered":"no","fee":"no","operator":"Ajuntament de Vic","nameSource":"junction"},"sourceId":"osm"},{"id":"osm:node:8983860380","latitude":41.9247953,"longitude":2.2504086,"name":"Passeig de Pep Ventura near Carrer de Sant Pere","properties":{"access":"yes","bicycle_pa":"stands","capacity":6,"covered":"no","fee":"no","operator":"Ajuntament de Vic","nameSource":"junction"},"sourceId":"osm"},{"id":"osm:node:8983878688","latitude":41.9208683,"longitude":2.2482997,"name":"Carrer Sant Isidre near Avinguda Montseny","properties":{"access":"yes","bicycle_pa":"stands","capacity":6,"covered":"no","fee":"no","operator":"Ajuntament de Vic","nameSource":"junction"},"sourceId":"osm"},{"id":"osm:node:8983878689","latitude":41.9196216,"longitude":2.2488201,"name":"Carrer d'en Rafael Gay de Montellà near Carrer Tona","properties":{"access":"yes","bicycle_pa":"stands","capacity":24,"covered":"no","fee":"no","operator":"Ajuntament de Vic","nameSource":"junction"},"sourceId":"osm"},{"id":"osm:node:8983878690","latitude":41.9203073,"longitude":2.2475363,"name":"Avinguda Montseny near Carrer Sant Joan Bosco","properties":{"access":"customers","bicycle_pa":"stands","capacity":8,"covered":"no","fee":"no","operator":"Ajuntament de Vic","nameSource":"junction"},"sourceId":"osm"},{"id":"osm:node:8983878691","latitude":41.9201374,"longitude":2.2585628,"name":"Avinguda dels Països Catalans cycle parking","properties":{"access":"yes","bicycle_pa":"stands","capacity":8,"covered":"no","fee":"no","operator":"Ajuntament de Vic","nameSource":"street"},"sourceId":"osm"},{"id":"osm:node:8983878692","latitude":41.9196833,"longitude":2.2573776,"name":"Avinguda dels Països Catalans near Carrer del Botànic Micó","properties":{"access":"yes","bicycle_pa":"stands","capacity":8,"covered":"no","fee":"no","operator":"Ajuntament de Vic","nameSource":"junction"},"sourceId":"osm"},{"id":"osm:node:8983907036","latitude":41.9278783,"longitude":2.2563067,"name":"Plaça de Santa Elisabeth near Pont de Queralt","properties":{"access":"yes","bicycle_pa":"stands","capacity":6,"covered":"no","fee":"no","operator":"Ajuntament de Vic","nameSource":"junction"},"sourceId":"osm"},{"id":"osm:node:8983907037","latitude":41.9291354,"longitude":2.2534998,"name":"Plaça de Pompeu Fabra near Carrer de la Riera","properties":{"access":"yes","bicycle_pa":"stands","capacity":4,"covered":"no","fee":"no","operator":"Ajuntament de Vic","nameSource":"junction"},"sourceId":"osm"},{"id":"osm:node:8983907038","latitude":41.9294972,"longitude":2.2526041,"name":"Rambla de l'Hospital near Carrer de Sant Just","properties":{"access":"yes","bicycle_pa":"stands","capacity":6,"covered":"no","fee":"no","operator":"Ajuntament de Vic","nameSource":"junction"},"sourceId":"osm"},{"id":"osm:node:8983907039","latitude":41.9285187,"longitude":2.2522541,"name":"Rambla de l'Hospital near Passatge dels estudis","properties":{"access":"yes","bicycle_pa":"stands","capacity":6,"covered":"no","fee":"no","operator":"Ajuntament de Vic","nameSource":"junction"},"sourceId":"osm"},{"id":"osm:node:8983909340","latitude":41.9274164,"longitude":2.2530427,"name":"Rambla de l'Hospital near Carrer de Sant Pere","properties":{"access":"yes","bicycle_pa":"stands","capacity":6,"covered":"no","fee":"no","operator":"Ajuntament de Vic","nameSource":"junction"},"sourceId":"osm"},{"id":"osm:node:8983933122","latitude":41.9307393,"longitude":2.2556427,"name":"Rambla del Passeig near Carrer de Sant Antoni","properties":{"access":"yes","bicycle_pa":"stands","capacity":6,"covered":"no","fee":"no","operator":"Ajuntament de Vic","nameSource":"junction"},"sourceId":"osm"},{"id":"osm:way:1232047249","latitude":41.94644603333334,"longitude":2.238963083333333,"name":"Carretera de Sant Bartomeu near Carrer del Castell","properties":{"access":"customers","bicycle_pa":"stands","capacity":0,"covered":"no","fee":"no","operator":"","nameSource":"junction"},"sourceId":"osm"},{"id":"osm:way:1258442406","latitude":41.94331052,"longitude":2.2531347200000003,"name":"Carretera de Sant Hipòlit de Voltregà near Carrer de Figueres","properties":{"access":"unknown","bicycle_pa":"","capacity":0,"covered":"no","fee":"no","operator":"","nameSource":"junction"},"sourceId":"osm"}],"schemaVersion":2}
