{"key":"12/2073/1526","points":[{"id":"osm:node:10611812426","latitude":41.6164601,"longitude":2.2382958,"name":"Carrer de Castelló de la Plana near Carrer de Prat de la Riba","properties":{"access":"yes","bicycle_pa":"stands","capacity":6,"covered":"no","fee":"no","operator":"","nameSource":"junction"},"sourceId":"osm"},{"id":"osm:node:12189819768","latitude":41.6131519,"longitude":2.2393142,"name":"Carrer d'en Folch i Torres near Carrer de Barcelona","properties":{"access":"unknown","bicycle_pa":"stands","capacity":10,"covered":"no","fee":"no","operator":"","nameSource":"junction"},"sourceId":"osm"},{"id":"osm:node:13061405119","latitude":41.6083073,"longitude":2.2847225,"name":"Carrer de Pompeu Fabra near Carrer de la Mare de Déu de Núria","properties":{"access":"yes","bicycle_pa":"stands","capacity":4,"covered":"no","fee":"no","operator":"","nameSource":"junction"},"sourceId":"osm"},{"id":"osm:node:4767998524","latitude":41.596287,"longitude":2.2840275,"name":"Camí Ral by Carrefour","properties":{"access":"unknown","bicycle_pa":"","capacity":0,"covered":"","fee":"","operator":"","nameSource":"landmark"},"sourceId":"osm"},{"id":"osm:node:9063070695","latitude":41.6023083,"longitude":2.2838416,"name":"Carrer dels Teixidors by Roca Umbert Fàbrica de les Arts","properties":{"access":"unknown","bicycle_pa":"stands","capacity":8,"covered":"no","fee":"","operator":"","nameSource":"landmark"},"sourceId":"osm"},{"id":"osm:node:9063097169","latitude":41.6021222,"longitude":2.2842903,"name":"Carrer dels Teixidors by Roca Umbert Fàbrica de les Arts","properties":{"access":"yes","bicycle_pa":"stands","capacity":8,"covered":"no","fee":"","operator":"","nameSource":"landmark"},"sourceId":"osm"},{"id":"osm:node:9064498184","latitude":41.6022828,"longitude":2.2837076,"name":"Carrer dels Teixidors by Bar Roca Umbert","properties":{"access":"unknown","bicycle_pa":"stands","capacity":0,"covered":"no","fee":"","operator":"","nameSource":"landmark"},"sourceId":"osm"},{"id":"osm:node:9210272616","latitude":41.6139441,"longitude":2.2797043,"name":"Pavelló Municipal del Congost Granollers","properties":{"access":"permit","bicycle_pa":"lockers","capacity":5,"covered":"yes","fee":"no","operator":"GRN Bici","nameSource":"source"},"sourceId":"osm"},{"id":"osm:node:9210291220","latitude":41.6023189,"longitude":2.2838782,"name":"Recinte Roca Umbert Granollers","properties":{"access":"permit","bicycle_pa":"lockers","capacity":5,"covered":"yes","fee":"no","operator":"GRN Bici","nameSource":"source"},"sourceId":"osm"},{"id":"osm:node:9210291221","latitude":41.604501,"longitude":2.2827954,"name":"Barri Primer de Maig","properties":{"access":"permit","bicycle_pa":"lockers","capacity":5,"covered":"yes","fee":"no","operator":"GRN Bici","nameSource":"source"},"sourceId":"osm"},{"id":"osm:node:9210291222","latitude":41.6003163,"longitude":2.2822053,"name":"Club Natació Granollers","properties":{"access":"permit","bicycle_pa":"lockers","capacity":5,"covered":"yes","fee":"no","operator":"GRN Bici","nameSource":"source"},"sourceId":"osm"}],"schemaVersion":2}
