{"key":"12/2073/1528","points":[{"id":"osm:node:10540250015","latitude":41.4626879,"longitude":2.2715428,"name":"Bicibox","properties":{"access":"yes","bicycle_pa":"shed","capacity":13,"covered":"yes","fee":"no","operator":"bicibox","nameSource":"source"},"sourceId":"osm"},{"id":"osm:node:10682638310","latitude":41.4491102,"longitude":2.253199,"name":"Passeig Marítim cycle parking","properties":{"access":"unknown","bicycle_pa":"stands","capacity":8,"covered":"no","fee":"","operator":"","nameSource":"street"},"sourceId":"osm"},{"id":"osm:node:10684122464","latitude":41.4450828,"longitude":2.2494319,"name":"Passeig Marítim near Avinguda d'en Martí Pujol","properties":{"access":"unknown","bicycle_pa":"","capacity":0,"covered":"","fee":"","operator":"","nameSource":"junction"},"sourceId":"osm"},{"id":"osm:node:10684122467","latitude":41.4456904,"longitude":2.2499703,"name":"Passeig Marítim near Carrer d'Eduard Maristany","properties":{"access":"unknown","bicycle_pa":"","capacity":0,"covered":"","fee":"","operator":"","nameSource":"junction"},"sourceId":"osm"},{"id":"osm:node:10684133695","latitude":41.4468862,"longitude":2.2508047,"name":"Carrer d'Eduard Maristany near Passeig Marítim","properties":{"access":"unknown","bicycle_pa":"stands","capacity":8,"covered":"no","fee":"","operator":"","nameSource":"junction"},"sourceId":"osm"},{"id":"osm:node:10684133696","latitude":41.447081,"longitude":2.2509982,"name":"Passeig Marítim near Carrer d'Eduard Maristany","properties":{"access":"unknown","bicycle_pa":"stands","capacity":8,"covered":"no","fee":"","operator":"","nameSource":"junction"},"sourceId":"osm"},{"id":"osm:node:10684133698","latitude":41.4485452,"longitude":2.2526412,"name":"Passeig Marítim by Aqu Beach Club","properties":{"access":"unknown","bicycle_pa":"stands","capacity":8,"covered":"no","fee":"","operator":"","nameSource":"landmark"},"sourceId":"osm"},{"id":"osm:node:11225668237","latitude":41.4509578,"longitude":2.2030994,"name":"Carrer Baró near Carrer de Santa Rosa","properties":{"access":"unknown","bicycle_pa":"","capacity":0,"covered":"","fee":"","operator":"","nameSource":"junction"},"sourceId":"osm"},{"id":"osm:node:11225668238","latitude":41.4521035,"longitude":2.2054214,"name":"Avinguda de Francesc Macià near Carrer de Santa Rosa","properties":{"access":"unknown","bicycle_pa":"stands","capacity":2,"covered":"no","fee":"","operator":"","nameSource":"junction"},"sourceId":"osm"},{"id":"osm:node:11225668337","latitude":41.4512316,"longitude":2.2031251,"name":"Carrer de Santa Rosa near Carrer Baró","properties":{"access":"unknown","bicycle_pa":"","capacity":0,"covered":"","fee":"","operator":"","nameSource":"junction"},"sourceId":"osm"},{"id":"osm:node:11225668437","latitude":41.4526711,"longitude":2.2039959,"name":"Plaça de l'Olimpo near Carrer Mare de Déu dels Àngels","properties":{"access":"unknown","bicycle_pa":"","capacity":0,"covered":"","fee":"","operator":"","nameSource":"junction"},"sourceId":"osm"},{"id":"osm:node:11246046737","latitude":41.4515764,"longitude":2.2007871,"name":"Bicivia 8 cycle parking","properties":{"access":"unknown","bicycle_pa":"","capacity":0,"covered":"","fee":"","operator":"","nameSource":"street"},"sourceId":"osm"},{"id":"osm:node:11272552069","latitude":41.4439814,"longitude":2.2105442,"name":"Avinguda de la Generalitat near BV-5001","properties":{"access":"unknown","bicycle_pa":"","capacity":0,"covered":"","fee":"","operator":"","nameSource":"junction"},"sourceId":"osm"},{"id":"osm:node:12000935203","latitude":41.4477098,"longitude":2.2517423,"name":"Passeig Marítim cycle parking","properties":{"access":"unknown","bicycle_pa":"stands","capacity":10,"covered":"no","fee":"","operator":"","nameSource":"street"},"sourceId":"osm"},{"id":"osm:node:1200349797","latitude":41.4470372,"longitude":2.2507276,"name":"Passeig Marítim near Carrer d'Eduard Maristany","properties":{"access":"unknown","bicycle_pa":"stands","capacity":4,"covered":"no","fee":"","operator":"","nameSource":"junction"},"sourceId":"osm"},{"id":"osm:node:12606693975","latitude":41.4458828,"longitude":2.2486758,"name":"Bicibox","properties":{"access":"yes","bicycle_pa":"shed","capacity":76,"covered":"yes","fee":"no","operator":"bicibox","nameSource":"source"},"sourceId":"osm"},{"id":"osm:node:12606693976","latitude":41.4494329,"longitude":2.2442033,"name":"Bicibox","properties":{"access":"yes","bicycle_pa":"shed","capacity":32,"covered":"yes","fee":"no","operator":"bicibox","nameSource":"source"},"sourceId":"osm"},{"id":"osm:node:12950120421","latitude":41.456782,"longitude":2.2205488,"name":"Carrer de Pedro Antonio de Alarcón near Rambla de França","properties":{"access":"yes","bicycle_pa":"stands","capacity":8,"covered":"","fee":"","operator":"","nameSource":"junction"},"sourceId":"osm"},{"id":"osm:node:12950120422","latitude":41.4563593,"longitude":2.2211922,"name":"Carrer de Sicília near Rambla de França","properties":{"access":"yes","bicycle_pa":"stands","capacity":8,"covered":"no","fee":"","operator":"","nameSource":"junction"},"sourceId":"osm"},{"id":"osm:node:12961329361","latitude":41.4446313,"longitude":2.2097996,"name":"302 Can Peixauet","properties":{"access":"customers","bicycle_pa":"lockers","capacity":14,"covered":"","fee":"yes","operator":"Movement","nameSource":"source"},"sourceId":"osm"},{"id":"osm:node:12961329362","latitude":41.4523946,"longitude":2.218992,"name":"301 Rambla Fondo","properties":{"access":"customers","bicycle_pa":"lockers","capacity":14,"covered":"","fee":"yes","operator":"Movement","nameSource":"source"},"sourceId":"osm"},{"id":"osm:node:12961329363","latitude":41.4594816,"longitude":2.2055626,"name":"303 Metro Singuerlín L9","properties":{"access":"customers","bicycle_pa":"lockers","capacity":14,"covered":"","fee":"yes","operator":"Movement","nameSource":"source"},"sourceId":"osm"},{"id":"osm:node:13431399614","latitude":41.4492309,"longitude":2.2530324,"name":"Passeig Marítim cycle parking","properties":{"access":"unknown","bicycle_pa":"stands","capacity":8,"covered":"no","fee":"","operator":"","nameSource":"street"},"sourceId":"osm"},{"id":"osm:node:13431429234","latitude":41.4437856,"longitude":2.2481156,"name":"Passeig Marítim by CEM BDN","properties":{"access":"unknown","bicycle_pa":"wall_loops","capacity":10,"covered":"no","fee":"","operator":"","nameSource":"landmark"},"sourceId":"osm"},{"id":"osm:node:13431429977","latitude":41.4463704,"longitude":2.2501728,"name":"Carrer d'Eduard Maristany by Sotavent","properties":{"access":"unknown","bicycle_pa":"stands","capacity":15,"covered":"no","fee":"","operator":"","nameSource":"landmark"},"sourceId":"osm"},{"id":"osm:node:13532684320","latitude":41.4440684,"longitude":2.2482991,"name":"Passeig Marítim by Club de Rem Badalona","properties":{"access":"unknown","bicycle_pa":"stands","capacity":8,"covered":"no","fee":"","operator":"","nameSource":"landmark"},"sourceId":"osm"},{"id":"osm:node:13596075503","latitude":41.4481877,"longitude":2.2351051,"name":"Avinguda de Salvador Espriu near Passatge del Riu Mogent","properties":{"access":"unknown","bicycle_pa":"stands","capacity":4,"covered":"no","fee":"","operator":"","nameSource":"junction"},"sourceId":"osm"},{"id":"osm:node:13649261302","latitude":41.4560615,"longitude":2.2012909,"name":"343 Jardins de Josep Moragues","properties":{"access":"customers","bicycle_pa":"lockers","capacity":14,"covered":"","fee":"yes","operator":"Movement","nameSource":"source"},"sourceId":"osm"},{"id":"osm:node:13649261306","latitude":41.4464826,"longitude":2.2157829,"name":"344 Metro Santa Rosa L9N","properties":{"access":"customers","bicycle_pa":"lockers","capacity":14,"covered":"","fee":"yes","operator":"Movement","nameSource":"source"},"sourceId":"osm"},{"id":"osm:node:13782470901","latitude":41.4465997,"longitude":2.2328808,"name":"Avinguda de Salvador Espriu near Carrer de Marià Benlliure","properties":{"access":"unknown","bicycle_pa":"","capacity":0,"covered":"","fee":"","operator":"","nameSource":"junction"},"sourceId":"osm"},{"id":"osm:node:1416239719","latitude":41.4700071,"longitude":2.2200937,"name":"Camí del Monestir by Font del Lleó","properties":{"access":"unknown","bicycle_pa":"","capacity":0,"covered":"","fee":"","operator":"","nameSource":"landmark"},"sourceId":"osm"},{"id":"osm:node:1650852379","latitude":41.457625,"longitude":2.2086206,"name":"Carrer Balears near Avinguda Pallaresa","properties":{"access":"unknown","bicycle_pa":"stands","capacity":12,"covered":"no","fee":"","operator":"","nameSource":"junction"},"sourceId":"osm"},{"id":"osm:node:5122937746","latitude":41.4474753,"longitude":2.2067258,"name":"Carrer de Sant Joaquim near Carrer de la Cultura","properties":{"access":"unknown","bicycle_pa":"stands","capacity":6,"covered":"","fee":"","operator":"","nameSource":"junction"},"sourceId":"osm"},{"id":"osm:node:5122937747","latitude":41.4481488,"longitude":2.2041857,"name":"Entrada F. Moragas near Parc Fluvial del Besòs","properties":{"access":"unknown","bicycle_pa":"stands","capacity":8,"covered":"","fee":"","operator":"","nameSource":"junction"},"sourceId":"osm"},{"id":"osm:node:5122937748","latitude":41.4527986,"longitude":2.2076343,"name":"Carrer del Torrent by Refugi climàtic Biblioteca Central","properties":{"access":"unknown","bicycle_pa":"stands","capacity":12,"covered":"no","fee":"","operator":"","nameSource":"landmark"},"sourceId":"osm"},{"id":"osm:node:5122937749","latitude":41.4519846,"longitude":2.2077102,"name":"Plaça de la Vila near Carrer de Francesc Vinyes","properties":{"access":"unknown","bicycle_pa":"stands","capacity":12,"covered":"no","fee":"","operator":"","nameSource":"junction"},"sourceId":"osm"},{"id":"osm:node:5122937750","latitude":41.4518289,"longitude":2.2133133,"name":"Plaça D'En Vilaseca cycle parking","properties":{"access":"unknown","bicycle_pa":"stands","capacity":12,"covered":"","fee":"","operator":"","nameSource":"street"},"sourceId":"osm"},{"id":"osm:node:5122937772","latitude":41.4513328,"longitude":2.2010254,"name":"Entrada Pallaresa near Pallaresa","properties":{"access":"unknown","bicycle_pa":"stands","capacity":8,"covered":"","fee":"","operator":"","nameSource":"junction"},"sourceId":"osm"},{"id":"osm:node:5122937773","latitude":41.4555444,"longitude":2.2029117,"name":"Carrer de Victor Hugo cycle parking","properties":{"access":"unknown","bicycle_pa":"rack","capacity":3,"covered":"no","fee":"","operator":"","nameSource":"street"},"sourceId":"osm"},{"id":"osm:node:5202545061","latitude":41.4494491,"longitude":2.217464,"name":"Carrer del Bruc near Carrer de Massenet","properties":{"access":"unknown","bicycle_pa":"stands","capacity":24,"covered":"","fee":"","operator":"","nameSource":"junction"},"sourceId":"osm"},{"id":"osm:node:5293735321","latitude":41.4595514,"longitude":2.2670527,"name":"Carretera de Mataró near Passatge de Josep Pla i Casadevall","properties":{"access":"unknown","bicycle_pa":"stands","capacity":4,"covered":"no","fee":"","operator":"","nameSource":"junction"},"sourceId":"osm"},{"id":"osm:node:5415092020","latitude":41.4488676,"longitude":2.2104004,"name":"Plaça d'en Manelic by Milar","properties":{"access":"unknown","bicycle_pa":"anchors","capacity":6,"covered":"","fee":"","operator":"Ajuntament de Santa Coloma de Gramenet","nameSource":"landmark"},"sourceId":"osm"},{"id":"osm:node:6039804894","latitude":41.44399,"longitude":2.2101461,"name":"Jardí Balandrau by Biblioteca Can Peixauet","properties":{"access":"unknown","bicycle_pa":"anchors","capacity":5,"covered":"no","fee":"","operator":"","nameSource":"landmark"},"sourceId":"osm"},{"id":"osm:node:6242753266","latitude":41.450723,"longitude":2.2485534,"name":"Carrer de Sant Francesc d'Assís near Carrer de Francesc Layret","properties":{"access":"unknown","bicycle_pa":"stands","capacity":16,"covered":"no","fee":"no","operator":"","nameSource":"junction"},"sourceId":"osm"},{"id":"osm:node:6561725422","latitude":41.4572635,"longitude":2.2551984,"name":"Carrer de la Riera de Canyadó near Carrer de Pau Vila","properties":{"access":"unknown","bicycle_pa":"stands","capacity":8,"covered":"no","fee":"no","operator":"","nameSource":"junction"},"sourceId":"osm"},{"id":"osm:node:6561725456","latitude":41.4585093,"longitude":2.2482858,"name":"Avinguda de Prat de la Riba near Carrer de Rubén Darío","properties":{"access":"unknown","bicycle_pa":"stands","capacity":16,"covered":"","fee":"no","operator":"","nameSource":"junction"},"sourceId":"osm"},{"id":"osm:node:6933375105","latitude":41.44663,"longitude":2.20143,"name":"Carrer de Caracas near Carrer de Quito","properties":{"access":"unknown","bicycle_pa":"","capacity":0,"covered":"","fee":"","operator":"http://ajuntament.barcelona.cat/bicicleta/ca","nameSource":"junction"},"sourceId":"osm"},{"id":"osm:node:6933376189","latitude":41.44794,"longitude":2.20014,"name":"Plaça del Baró de Viver near Carrer de Tiana","properties":{"access":"unknown","bicycle_pa":"","capacity":0,"covered":"","fee":"","operator":"http://ajuntament.barcelona.cat/bicicleta/ca","nameSource":"junction"},"sourceId":"osm"},{"id":"osm:node:6933494054","latitude":41.44732,"longitude":2.20227,"name":"Carrer de Quito near Passeig de Guayaquil","properties":{"access":"unknown","bicycle_pa":"","capacity":0,"covered":"","fee":"","operator":"http://ajuntament.barcelona.cat/bicicleta/ca","nameSource":"junction"},"sourceId":"osm"},{"id":"osm:node:6933501132","latitude":41.44634,"longitude":2.19987,"name":"Carrer de Quito near Carrer de Clarà","properties":{"access":"unknown","bicycle_pa":"","capacity":0,"covered":"","fee":"","operator":"http://ajuntament.barcelona.cat/bicicleta/ca","nameSource":"junction"},"sourceId":"osm"},{"id":"osm:node:7849730331","latitude":41.4485128,"longitude":2.2523445,"name":"Passeig Marítim by Aqu Beach Club","properties":{"access":"unknown","bicycle_pa":"stands","capacity":12,"covered":"no","fee":"","operator":"","nameSource":"landmark"},"sourceId":"osm"},{"id":"osm:node:7849730333","latitude":41.4479601,"longitude":2.2517098,"name":"Passeig Marítim cycle parking","properties":{"access":"unknown","bicycle_pa":"stands","capacity":12,"covered":"no","fee":"","operator":"","nameSource":"street"},"sourceId":"osm"},{"id":"osm:node:9557284929","latitude":41.449578,"longitude":2.2452897,"name":"243 Badalona Pompeu Fabra","properties":{"access":"customers","bicycle_pa":"lockers","capacity":37,"covered":"","fee":"yes","operator":"Movement","nameSource":"source"},"sourceId":"osm"},{"id":"osm:node:9693345617","latitude":41.4664435,"longitude":2.2789183,"name":"Camí Ral near Carrer del Mar","properties":{"access":"unknown","bicycle_pa":"stands","capacity":10,"covered":"no","fee":"","operator":"","nameSource":"junction"},"sourceId":"osm"},{"id":"osm:way:639997925","latitude":41.445802699999994,"longitude":2.2486030333333336,"name":"Bicibox","properties":{"access":"unknown","bicycle_pa":"shed","capacity":92,"covered":"yes","fee":"","operator":"Bicibox","nameSource":"source"},"sourceId":"osm"}],"schemaVersion":2}
