{"key":"12/2001/1278","points":[{"id":"osm:node:1079400277","latitude":55.8475708,"longitude":-4.0646863,"name":"Barrbridge Road by The Pictures","properties":{"access":"unknown","bicycle_pa":"","capacity":8,"covered":"","fee":"","operator":"","nameSource":"landmark"},"sourceId":"osm"},{"id":"osm:node:1183648361","latitude":55.8738046,"longitude":-4.0723785,"name":"Townhead Road by Top Up Tap","properties":{"access":"unknown","bicycle_pa":"","capacity":0,"covered":"","fee":"","operator":"","nameSource":"landmark"},"sourceId":"osm"},{"id":"osm:node:1191837449","latitude":55.8685627,"longitude":-4.1291938,"name":"Auchinlea Way cycle parking","properties":{"access":"unknown","bicycle_pa":"","capacity":16,"covered":"yes","fee":"","operator":"","nameSource":"street"},"sourceId":"osm"},{"id":"osm:node:1191837455","latitude":55.8683897,"longitude":-4.1287834,"name":"Auchinlea Way cycle parking","properties":{"access":"unknown","bicycle_pa":"","capacity":14,"covered":"yes","fee":"","operator":"","nameSource":"street"},"sourceId":"osm"},{"id":"osm:node:1365649798","latitude":55.8312084,"longitude":-4.0762176,"name":"Old Edinburgh Road cycle parking","properties":{"access":"yes","bicycle_pa":"stands","capacity":4,"covered":"no","fee":"no","operator":"","nameSource":"street"},"sourceId":"osm"},{"id":"osm:node:13930505100","latitude":55.8603279,"longitude":-4.1127822,"name":"Parkway Court near Springhill Parkway","properties":{"access":"unknown","bicycle_pa":"stands","capacity":2,"covered":"no","fee":"","operator":"","nameSource":"junction"},"sourceId":"osm"},{"id":"osm:node:1433892891","latitude":55.8512755,"longitude":-4.0735648,"name":"Monkland view Crescent near Rosebank Terrace","properties":{"access":"unknown","bicycle_pa":"stands","capacity":6,"covered":"no","fee":"","operator":"","nameSource":"junction"},"sourceId":"osm"},{"id":"osm:node:1842917492","latitude":55.8493277,"longitude":-4.1285676,"name":"Glasgow Road near Garforth Road","properties":{"access":"unknown","bicycle_pa":"","capacity":4,"covered":"no","fee":"","operator":"","nameSource":"junction"},"sourceId":"osm"},{"id":"osm:node:1985085819","latitude":55.8367307,"longitude":-4.0894935,"name":"Rannoch Road by Tapi Carpets","properties":{"access":"unknown","bicycle_pa":"stands","capacity":6,"covered":"no","fee":"","operator":"","nameSource":"landmark"},"sourceId":"osm"},{"id":"osm:node:2009292767","latitude":55.8681533,"longitude":-4.0519221,"name":"Pentland School cycle parking","properties":{"access":"unknown","bicycle_pa":"shed","capacity":140,"covered":"no","fee":"","operator":"","nameSource":"landmark"},"sourceId":"osm"},{"id":"osm:node:2085243776","latitude":55.8597528,"longitude":-4.1073477,"name":"Access path to Easterhouse train station by Easterhouse","properties":{"access":"unknown","bicycle_pa":"stands","capacity":6,"covered":"no","fee":"","operator":"","nameSource":"landmark"},"sourceId":"osm"},{"id":"osm:node:2085245069","latitude":55.8550808,"longitude":-4.1300171,"name":"Glenduffhill Road by Garrowhill","properties":{"access":"unknown","bicycle_pa":"stands","capacity":10,"covered":"no","fee":"","operator":"","nameSource":"landmark"},"sourceId":"osm"},{"id":"osm:node:2092269446","latitude":55.8445221,"longitude":-4.1140903,"name":"Caledonia Drive near Caledonia Road","properties":{"access":"unknown","bicycle_pa":"stands","capacity":10,"covered":"no","fee":"","operator":"","nameSource":"junction"},"sourceId":"osm"},{"id":"osm:node:2356340460","latitude":55.8681002,"longitude":-4.1185021,"name":"Wardie Road by Library @ The Bridge","properties":{"access":"unknown","bicycle_pa":"stands","capacity":20,"covered":"no","fee":"","operator":"","nameSource":"landmark"},"sourceId":"osm"},{"id":"osm:node:2441403214","latitude":55.8533198,"longitude":-4.0742387,"name":"Langmuir Road by St Kevin's Primary School and Nursery","properties":{"access":"private","bicycle_pa":"stands","capacity":40,"covered":"no","fee":"","operator":"","nameSource":"landmark"},"sourceId":"osm"},{"id":"osm:node:328932790","latitude":55.8662558,"longitude":-4.0433222,"name":"Blair Road near Espieside Crescent","properties":{"access":"unknown","bicycle_pa":"","capacity":6,"covered":"","fee":"","operator":"","nameSource":"junction"},"sourceId":"osm"},{"id":"osm:node:576385312","latitude":55.8689298,"longitude":-4.1290808,"name":"Morrisons cycle parking","properties":{"access":"unknown","bicycle_pa":"","capacity":0,"covered":"","fee":"","operator":"","nameSource":"landmark"},"sourceId":"osm"},{"id":"osm:node:5928564486","latitude":55.8704044,"longitude":-4.0955622,"name":"Glenelg Quadrant cycle parking","properties":{"access":"unknown","bicycle_pa":"","capacity":0,"covered":"","fee":"","operator":"","nameSource":"street"},"sourceId":"osm"}],"schemaVersion":1}
