{"key":"12/1953/1354","points":[{"id":"osm:node:10934814253","latitude":51.8908772,"longitude":-8.3395909,"name":"Clash Road cycle parking","properties":{"access":"yes","bicycle_pa":"stands","capacity":12,"covered":"no","fee":"no","operator":"Cork County Council","nameSource":"street"},"sourceId":"osm"},{"id":"osm:node:11132176661","latitude":51.9118399,"longitude":-8.3306483,"name":"Ashbourne Walkway cycle parking","properties":{"access":"unknown","bicycle_pa":"stands","capacity":6,"covered":"","fee":"","operator":"","nameSource":"street"},"sourceId":"osm"},{"id":"osm:node:13998854013","latitude":51.9115362,"longitude":-8.3349081,"name":"L3004 by Acorn to Oak","properties":{"access":"yes","bicycle_pa":"stands","capacity":12,"covered":"no","fee":"no","operator":"","nameSource":"landmark"},"sourceId":"osm"},{"id":"osm:node:8913230954","latitude":51.9106312,"longitude":-8.3154563,"name":"L3004 cycle parking","properties":{"access":"unknown","bicycle_pa":"","capacity":0,"covered":"","fee":"","operator":"","nameSource":"street"},"sourceId":"osm"},{"id":"osm:node:8913230956","latitude":51.911076,"longitude":-8.3109402,"name":"L3004 by Inver","properties":{"access":"unknown","bicycle_pa":"","capacity":0,"covered":"","fee":"","operator":"","nameSource":"landmark"},"sourceId":"osm"},{"id":"osm:way:1329255479","latitude":51.91621768,"longitude":-8.26368782,"name":"Carrigtwohill cycle parking","properties":{"access":"yes","bicycle_pa":"","capacity":0,"covered":"yes","fee":"","operator":"","nameSource":"landmark"},"sourceId":"osm"}],"schemaVersion":2}
