{"key":"12/2004/1497","points":[{"categories":["repair"],"id":"osm:node:10895853073","latitude":43.4670585,"longitude":-3.8073133,"name":"Bicycle repair station","properties":{},"sourceId":"osm"},{"categories":["repair"],"id":"osm:node:11058161687","latitude":43.4756934,"longitude":-3.797937,"name":"Ayuntamiento de Santander","properties":{"fee":"no","operator":"Ayuntamiento de Santander","servicePump":"yes","serviceTools":"yes"},"sourceId":"osm"},{"categories":["repair"],"id":"osm:node:11102529228","latitude":43.4608735,"longitude":-3.80342,"name":"Ayuntamiento de Santander","properties":{"fee":"no","operator":"Ayuntamiento de Santander","servicePump":"yes"},"sourceId":"osm"},{"categories":["hire"],"id":"osm:node:11417930913","latitude":43.475668,"longitude":-3.8038388,"name":"Ernest Lluch","properties":{"fee":"yes","network":"TusBic"},"sourceId":"osm"},{"categories":["hire"],"id":"osm:node:11572195034","latitude":43.4724947,"longitude":-3.8148712,"name":"Ernest Lluch 27","properties":{"fee":"yes","network":"TusBic"},"sourceId":"osm"},{"categories":["hire"],"id":"osm:node:12485103713","latitude":43.4791553,"longitude":-3.8019151,"name":"Cycle hire","properties":{},"sourceId":"osm"},{"categories":["hire"],"id":"osm:node:12500293000","latitude":43.4588373,"longitude":-3.8183732,"name":"Calle Alta","properties":{"fee":"yes","network":"TusBic"},"sourceId":"osm"},{"categories":["hire"],"id":"osm:node:12574501503","latitude":43.4658872,"longitude":-3.7928306,"name":"Cycle hire","properties":{},"sourceId":"osm"},{"categories":["hire"],"id":"osm:node:12809377900","latitude":43.4586171,"longitude":-3.840408,"name":"Ayuntamiento de Santander","properties":{"fee":"yes","operator":"Ayuntamiento de Santander","website":"https://tuebici.es/"},"sourceId":"osm"},{"categories":["hire"],"id":"osm:node:13178543437","latitude":43.4573746,"longitude":-3.8134494,"name":"Cycle hire","properties":{},"sourceId":"osm"},{"categories":["hire"],"id":"osm:node:13622374962","latitude":43.4543584,"longitude":-3.8146066,"name":"Cycle hire","properties":{},"sourceId":"osm"},{"categories":["shop"],"id":"osm:node:2592645121","latitude":43.4665674,"longitude":-3.8164149,"name":"Abbike","properties":{"openingHours":"Mo-Fr 10:00-13:30,16:30-20:30; Sa 10:00-13:30"},"sourceId":"osm"},{"categories":["shop"],"id":"osm:node:2592646471","latitude":43.4590768,"longitude":-3.8168441,"name":"Bicicletas Patubici","properties":{"openingHours":"Mo-Fr 10:00-13:30,16:30-20:30"},"sourceId":"osm"},{"categories":["shop"],"id":"osm:node:2592647994","latitude":43.4637325,"longitude":-3.7997215,"name":"Ciclos Abad","properties":{"openingHours":"Mo-Fr 10:00-14:00,16:00-21:00; Sa 10:00-14:00"},"sourceId":"osm"},{"categories":["hire"],"id":"osm:node:3563077793","latitude":43.4651866,"longitude":-3.8263951,"name":"Avenida de los Castros","properties":{"network":"TusBic"},"sourceId":"osm"},{"categories":["hire"],"id":"osm:node:5532729309","latitude":43.4622055,"longitude":-3.7972196,"name":"Puerto Chico","properties":{"network":"Tusbic"},"sourceId":"osm"},{"categories":["hire"],"id":"osm:node:5532729310","latitude":43.4613612,"longitude":-3.8025339,"name":"Jardines de Pereda","properties":{"network":"Tusbic"},"sourceId":"osm"},{"categories":["hire"],"id":"osm:node:7777480389","latitude":43.4652893,"longitude":-3.8258572,"name":"Cycle hire","properties":{},"sourceId":"osm"},{"categories":["hire"],"id":"osm:node:842037720","latitude":43.4711753,"longitude":-3.8004343,"name":"Facultad de Ciencias","properties":{"network":"TusBic"},"sourceId":"osm"},{"categories":["hire"],"id":"osm:node:842037744","latitude":43.475746,"longitude":-3.798021,"name":"Parque de las Llamas","properties":{"network":"TusBic"},"sourceId":"osm"},{"categories":["hire"],"id":"osm:node:842037749","latitude":43.4579634,"longitude":-3.8248365,"name":"Calle Alta","properties":{"network":"TusBic"},"sourceId":"osm"},{"categories":["hire"],"id":"osm:node:842037763","latitude":43.470173,"longitude":-3.806529,"name":"Facultad de Derecho","properties":{"network":"TusBic"},"sourceId":"osm"},{"categories":["hire"],"id":"osm:node:842037782","latitude":43.471806,"longitude":-3.781345,"name":"Plaza de Italia","properties":{"network":"TusBic"},"sourceId":"osm"},{"categories":["hire"],"id":"osm:node:842037783","latitude":43.460732,"longitude":-3.817982,"name":"San Fernando","properties":{"network":"TusBic"},"sourceId":"osm"},{"categories":["hire"],"id":"osm:node:842037799","latitude":43.4584736,"longitude":-3.8105394,"name":"Atilano Rodríguez","properties":{"network":"TusBic","website":"https://www.tuebici.es/"},"sourceId":"osm"},{"categories":["hire"],"id":"osm:node:842037811","latitude":43.478519,"longitude":-3.788604,"name":"Cormorán","properties":{"network":"TusBic"},"sourceId":"osm"},{"categories":["repair","hire"],"id":"osm:way:438266257","latitude":43.463857825,"longitude":-3.8370189000000003,"name":"Revalora","properties":{"openingHours":"Mo-Sa 10:00-13:30,16:30-21:00","servicePump":"no","serviceRental":"yes","serviceRepair":"yes"},"sourceId":"osm"},{"categories":["shop"],"id":"osm:way:469652959","latitude":43.4702552923077,"longitude":-3.8245014076923076,"name":"Bicius","properties":{"website":"http://biciusbikes.es/"},"sourceId":"osm"}],"schemaVersion":2}
