{"key":"12/2072/1530","points":[{"categories":["hire"],"id":"osm:node:10130905487","latitude":41.3466234,"longitude":2.1435486,"name":"10 - C/ Número 60, 25","properties":{"brand":"bicing","network":"bicing","operator":"Pedalem Barcelona"},"sourceId":"osm"},{"categories":["hire"],"id":"osm:node:1043786356","latitude":41.376807,"longitude":2.1697812,"name":"187 - Sant Pau 89","properties":{"brand":"bicing","network":"bicing","operator":"Pedalem Barcelona"},"sourceId":"osm"},{"categories":["shop"],"id":"osm:node:10597229295","latitude":41.3542864,"longitude":2.1132825,"name":"Ciclos Bellvitge","properties":{"openingHours":"Mo-Fr 10:00-13:30, 17:00-20:30; Sa 10:30-14:00"},"sourceId":"osm"},{"categories":["shop","repair"],"id":"osm:node:10634822326","latitude":41.3563851,"longitude":2.1147631,"name":"L'Henbici - Taller Obert - Ciclologística","properties":{"openingHours":"Mo-Su 10:00-20:00","serviceRepair":"yes"},"sourceId":"osm"},{"categories":["hire"],"id":"osm:node:11032312991","latitude":41.3751685,"longitude":2.1660725,"name":"Rent a bike","properties":{},"sourceId":"osm"},{"categories":["hire"],"id":"osm:node:11306277559","latitude":41.3509984,"longitude":2.1450361,"name":"437 - Pg. Zona Franca 9","properties":{"brand":"bicing","network":"bicing","operator":"Pedalem Barcelona"},"sourceId":"osm"},{"categories":["hire"],"id":"osm:node:11306326521","latitude":41.3539658,"longitude":2.1436446,"name":"436 - Pg. Zona Franca 54","properties":{"brand":"bicing","network":"bicing","operator":"Pedalem Barcelona"},"sourceId":"osm"},{"categories":["hire"],"id":"osm:node:11330146031","latitude":41.368679,"longitude":2.1328963,"name":"439 - Rambla Badal 73","properties":{"brand":"bicing","network":"bicing","operator":"Pedalem Barcelona"},"sourceId":"osm"},{"categories":["hire"],"id":"osm:node:11330184078","latitude":41.372435,"longitude":2.1419689,"name":"183 - Gavà 1","properties":{"brand":"bicing","network":"bicing","operator":"Pedalem Barcelona"},"sourceId":"osm"},{"categories":["shop"],"id":"osm:node:11821408638","latitude":41.3757265,"longitude":2.1528806,"name":"The Bike Club Barcelona","properties":{},"sourceId":"osm"},{"categories":["shop"],"id":"osm:node:11917820270","latitude":41.3755991,"longitude":2.1539101,"name":"El Cordobes","properties":{},"sourceId":"osm"},{"categories":["shop"],"id":"osm:node:11917821271","latitude":41.3768024,"longitude":2.1509806,"name":"Rider's Boutique","properties":{},"sourceId":"osm"},{"categories":["shop"],"id":"osm:node:11917823369","latitude":41.3757286,"longitude":2.1528268,"name":"Bike club barcelona","properties":{},"sourceId":"osm"},{"categories":["hire"],"id":"osm:node:11920612356","latitude":41.3716382,"longitude":2.1272148,"name":"AMB - Riera Blanca Nord","properties":{"brand":"AMBici","fee":"yes","network":"AMBici","operator":"Transports Metropolitans de Barcelona","website":"https://www.ambici.cat/ca/"},"sourceId":"osm"},{"categories":["hire"],"id":"osm:node:11920612362","latitude":41.368451,"longitude":2.110676,"name":"METRO Florida","properties":{"brand":"AMBici","fee":"yes","network":"AMBici","operator":"Transports Metropolitans de Barcelona","website":"https://www.ambici.cat/ca/"},"sourceId":"osm"},{"categories":["hire"],"id":"osm:node:11920612363","latitude":41.370898,"longitude":2.115122,"name":"Parc dels Ocellets","properties":{"brand":"AMBici","fee":"yes","network":"AMBici","operator":"Transports Metropolitans de Barcelona","website":"https://www.ambici.cat/ca/"},"sourceId":"osm"},{"categories":["hire"],"id":"osm:node:11920612365","latitude":41.375715,"longitude":2.118749,"name":"METRO Collblanc","properties":{"brand":"AMBici","fee":"yes","network":"AMBici","operator":"Transports Metropolitans de Barcelona","website":"https://www.ambici.cat/ca/"},"sourceId":"osm"},{"categories":["hire"],"id":"osm:node:11920612366","latitude":41.371052,"longitude":2.121407,"name":"Plaça Espanyola","properties":{"brand":"AMBici","fee":"yes","network":"AMBici","operator":"Transports Metropolitans de Barcelona","website":"https://www.ambici.cat/ca/"},"sourceId":"osm"},{"categories":["hire"],"id":"osm:node:11920612367","latitude":41.368089,"longitude":2.127383,"name":"METRO Santa Eulàlia","properties":{"brand":"AMBici","fee":"yes","network":"AMBici","operator":"Transports Metropolitans de Barcelona","website":"https://www.ambici.cat/ca/"},"sourceId":"osm"},{"categories":["hire"],"id":"osm:node:11920612368","latitude":41.367629,"longitude":2.131709,"name":"Riera Blanca Sud","properties":{"brand":"AMBici","fee":"yes","network":"AMBici","operator":"Transports Metropolitans de Barcelona","website":"https://www.ambici.cat/ca/"},"sourceId":"osm"},{"categories":["hire"],"id":"osm:node:11920722369","latitude":41.36471,"longitude":2.12083,"name":"Plaça de l'UNICEF","properties":{"brand":"AMBici","fee":"yes","network":"AMBici","operator":"Transports Metropolitans de Barcelona","website":"https://www.ambici.cat/ca/"},"sourceId":"osm"},{"categories":["hire"],"id":"osm:node:11920722370","latitude":41.3635148,"longitude":2.133679,"name":"Ciutat de la Justícia Sud","properties":{"brand":"AMBici","fee":"yes","network":"AMBici","operator":"Transports Metropolitans de Barcelona","website":"https://www.ambici.cat/ca/"},"sourceId":"osm"},{"categories":["hire"],"id":"osm:node:11920722371","latitude":41.364776,"longitude":2.13102,"name":"Ciutat de la Justícia Nord","properties":{"brand":"AMBici","fee":"yes","network":"AMBici","operator":"Transports Metropolitans de Barcelona","website":"https://www.ambici.cat/ca/"},"sourceId":"osm"},{"categories":["hire"],"id":"osm:node:11920722372","latitude":41.357077,"longitude":2.126386,"name":"METRO Europa | Fira","properties":{"brand":"AMBici","fee":"yes","network":"AMBici","operator":"Transports Metropolitans de Barcelona","website":"https://www.ambici.cat/ca/"},"sourceId":"osm"},{"categories":["hire"],"id":"osm:node:11920722373","latitude":41.36025,"longitude":2.1291,"name":"FGC Ildelfons Cerdà","properties":{"brand":"AMBici","fee":"yes","network":"AMBici","operator":"Transports Metropolitans de Barcelona","website":"https://www.ambici.cat/ca/"},"sourceId":"osm"},{"categories":["hire"],"id":"osm:node:11920722374","latitude":41.36053,"longitude":2.118007,"name":"METRO Can Tries | Gornal","properties":{"brand":"AMBici","fee":"yes","network":"AMBici","operator":"Transports Metropolitans de Barcelona","website":"https://www.ambici.cat/ca/"},"sourceId":"osm"},{"categories":["hire"],"id":"osm:node:11920722375","latitude":41.355165,"longitude":2.115902,"name":"RENFE - FGC Gornal","properties":{"brand":"AMBici","fee":"yes","network":"AMBici","operator":"Transports Metropolitans de Barcelona","website":"https://www.ambici.cat/ca/"},"sourceId":"osm"},{"categories":["hire"],"id":"osm:node:11920722376","latitude":41.361777,"longitude":2.124258,"name":"METRO Provençana","properties":{"brand":"AMBici","fee":"yes","network":"AMBici","operator":"Transports Metropolitans de Barcelona","website":"https://www.ambici.cat/ca/"},"sourceId":"osm"},{"categories":["hire"],"id":"osm:node:11920722379","latitude":41.360898,"longitude":2.110582,"name":"FGC Sant Josep","properties":{"brand":"AMBici","fee":"yes","network":"AMBici","operator":"Transports Metropolitans de Barcelona","website":"https://www.ambici.cat/ca/"},"sourceId":"osm"},{"categories":["hire"],"id":"osm:node:12047241169","latitude":41.3761083,"longitude":2.177107,"name":"57 - La Rambla 1","properties":{"brand":"bicing","network":"bicing","operator":"Pedalem Barcelona"},"sourceId":"osm"},{"categories":["shop","repair"],"id":"osm:node:12338064580","latitude":41.3706186,"longitude":2.1414279,"name":"Taller d'autoreparació i mobilitat de Can Batlló","properties":{"fee":"no","openingHours":"We-Th 17:30-20:30","operator":"Can Batlló","servicePump":"yes","serviceRepair":"yes","serviceTools":"yes","website":"https://canbatllo.org/cb/mobilitat/"},"sourceId":"osm"},{"categories":["shop","repair"],"id":"osm:node:12677954776","latitude":41.3741002,"longitude":2.1345527,"name":"Taller de bicis de Can Vies","properties":{"fee":"no","servicePump":"yes","serviceRepair":"yes"},"sourceId":"osm"},{"categories":["hire"],"id":"osm:node:13104830224","latitude":41.3655556,"longitude":2.1476555,"name":"523 - Av. Estadi 12","properties":{"brand":"bicing","network":"bicing","operator":"Pedalem Barcelona"},"sourceId":"osm"},{"categories":["hire"],"id":"osm:node:13104830225","latitude":41.3663555,"longitude":2.1521855,"name":"522 - Av. Estadi 38","properties":{"brand":"bicing","network":"bicing","operator":"Pedalem Barcelona"},"sourceId":"osm"},{"categories":["hire"],"id":"osm:node:13104830226","latitude":41.3619937,"longitude":2.1544158,"name":"527 - Pg. Olímpic 8","properties":{"brand":"bicing","network":"bicing","operator":"Pedalem Barcelona"},"sourceId":"osm"},{"categories":["hire"],"id":"osm:node:13104830227","latitude":41.361462,"longitude":2.1475741,"name":"524 - Marbre 2","properties":{"brand":"bicing","network":"bicing","operator":"Pedalem Barcelona"},"sourceId":"osm"},{"categories":["hire"],"id":"osm:node:13105056625","latitude":41.3743521,"longitude":2.1748638,"name":"564 - Carrera 1","properties":{"brand":"bicing","network":"bicing","operator":"Pedalem Barcelona"},"sourceId":"osm"},{"categories":["hire"],"id":"osm:node:13105095393","latitude":41.3722527,"longitude":2.1602616,"name":"525 - França Xica 4","properties":{"brand":"bicing","network":"bicing","operator":"Pedalem Barcelona"},"sourceId":"osm"},{"categories":["hire"],"id":"osm:node:13105151053","latitude":41.3694068,"longitude":2.1425584,"name":"521 - Mandoni 6","properties":{"brand":"bicing","network":"bicing","operator":"Pedalem Barcelona"},"sourceId":"osm"},{"categories":["hire"],"id":"osm:node:13105151054","latitude":41.3705051,"longitude":2.1487049,"name":"520 - Montfar 1","properties":{"brand":"bicing","network":"bicing","operator":"Pedalem Barcelona"},"sourceId":"osm"},{"categories":["hire"],"id":"osm:node:13172070442","latitude":41.3751184,"longitude":2.1523681,"name":"236 - Paral·lel 194","properties":{"brand":"bicing","network":"bicing","operator":"Pedalem Barcelona"},"sourceId":"osm"},{"categories":["hire"],"id":"osm:node:13172274786","latitude":41.3750827,"longitude":2.165814,"name":"235 - Paral·lel 98","properties":{"brand":"bicing","network":"bicing","operator":"Pedalem Barcelona"},"sourceId":"osm"},{"categories":["hire"],"id":"osm:node:13189761861","latitude":41.375504,"longitude":2.1397792,"name":"441 - Watt 2","properties":{"brand":"bicing","network":"bicing","operator":"Pedalem Barcelona"},"sourceId":"osm"},{"categories":["hire"],"id":"osm:node:13250787526","latitude":41.3738304,"longitude":2.1661306,"name":"City Bike Rental","properties":{},"sourceId":"osm"},{"categories":["hire"],"id":"osm:node:13674862838","latitude":41.3751,"longitude":2.1590773,"name":"85 - Paral·lel 146","properties":{"brand":"bicing","network":"bicing","operator":"Pedalem Barcelona"},"sourceId":"osm"},{"categories":["shop"],"id":"osm:node:13965791401","latitude":41.3760985,"longitude":2.1510879,"name":"Mattia46 Motos y Bikes","properties":{},"sourceId":"osm"},{"categories":["hire"],"id":"osm:node:13971231559","latitude":41.3753801,"longitude":2.1541619,"name":"445 - Vilamarí 2","properties":{"brand":"bicing","network":"bicing","operator":"Pedalem Barcelona"},"sourceId":"osm"},{"categories":["hire"],"id":"osm:node:1719727394","latitude":41.3764578,"longitude":2.1475395,"name":"95 - Tarragona 103","properties":{"brand":"bicing","network":"bicing","operator":"Pedalem Barcelona"},"sourceId":"osm"},{"categories":["hire"],"id":"osm:node:1720689746","latitude":41.3750313,"longitude":2.1705038,"name":"50 - Av. Paral·lel 54","properties":{"brand":"bicing","network":"bicing","operator":"Pedalem Barcelona"},"sourceId":"osm"},{"categories":["hire"],"id":"osm:node:2281830762","latitude":41.3755087,"longitude":2.1232255,"name":"353 - Munné 6","properties":{"brand":"bicing","network":"bicing","operator":"Pedalem Barcelona"},"sourceId":"osm"},{"categories":["hire"],"id":"osm:node:2281906702","latitude":41.3758108,"longitude":2.1301728,"name":"354 - Rambla del Brasil 5","properties":{"brand":"bicing","network":"bicing","operator":"Pedalem Barcelona"},"sourceId":"osm"},{"categories":["hire"],"id":"osm:node:2281906704","latitude":41.375338,"longitude":2.1298247,"name":"313 - Feliu de Casanova 1","properties":{"brand":"bicing","network":"bicing","operator":"Pedalem Barcelona"},"sourceId":"osm"},{"categories":["hire"],"id":"osm:node:2281906710","latitude":41.3715248,"longitude":2.1275839,"name":"355 - Riera Blanca 123","properties":{"brand":"bicing","network":"bicing","operator":"Pedalem Barcelona"},"sourceId":"osm"},{"categories":["hire"],"id":"osm:node:2827630926","latitude":41.3741404,"longitude":2.1481424,"name":"96 - Gran Via 361","properties":{"brand":"bicing","network":"bicing","operator":"Pedalem Barcelona"},"sourceId":"osm"},{"categories":["hire"],"id":"osm:node:2827630927","latitude":41.3742051,"longitude":2.148059,"name":"420 - Gran Via 361","properties":{"brand":"bicing","network":"bicing","operator":"Pedalem Barcelona"},"sourceId":"osm"},{"categories":["hire"],"id":"osm:node:3230100316","latitude":41.3745667,"longitude":2.1424471,"name":"210 - Vilardell 18","properties":{"brand":"bicing","network":"bicing","operator":"Pedalem Barcelona"},"sourceId":"osm"},{"categories":["hire"],"id":"osm:node:3797124854","latitude":41.3716197,"longitude":2.1664213,"name":"The Brummell Shop","properties":{"openingHours":"10-18h (consultar)"},"sourceId":"osm"},{"categories":["hire"],"id":"osm:node:3859729679","latitude":41.3631914,"longitude":2.1343139,"name":"352 - Radi 10","properties":{"brand":"bicing","network":"bicing","operator":"Pedalem Barcelona"},"sourceId":"osm"},{"categories":["hire"],"id":"osm:node:3859729745","latitude":41.3631173,"longitude":2.1397729,"name":"345 - Pl. Teresa de Claramunt","properties":{"brand":"bicing","network":"bicing","operator":"Pedalem Barcelona"},"sourceId":"osm"},{"categories":["hire"],"id":"osm:node:3859730269","latitude":41.3622119,"longitude":2.1355835,"name":"351 - Jane Addams 26","properties":{"brand":"bicing","network":"bicing","operator":"Pedalem Barcelona"},"sourceId":"osm"},{"categories":["hire"],"id":"osm:node:3859732557","latitude":41.3573496,"longitude":2.1371604,"name":"349 - Energia 2","properties":{"brand":"bicing","network":"bicing","operator":"Pedalem Barcelona"},"sourceId":"osm"},{"categories":["hire"],"id":"osm:node:3859760369","latitude":41.3675587,"longitude":2.1342148,"name":"184 - Quetzal 22","properties":{"brand":"bicing","network":"bicing","operator":"Pedalem Barcelona"},"sourceId":"osm"},{"categories":["shop","repair","hire"],"id":"osm:node:4109418522","latitude":41.3732529,"longitude":2.1651252,"name":"Bikesec","properties":{"serviceRental":"yes","serviceRepair":"yes","website":"http://www.bikesec.cat/"},"sourceId":"osm"},{"categories":["hire"],"id":"osm:node:4297576789","latitude":41.3571545,"longitude":2.1416553,"name":"348 - Jardins de Can Ferrero","properties":{"brand":"bicing","network":"bicing","operator":"Pedalem Barcelona"},"sourceId":"osm"},{"categories":["hire"],"id":"osm:node:430848847","latitude":41.3745743,"longitude":2.1730512,"name":"232 - Palaudàries 2","properties":{"brand":"bicing","network":"bicing","operator":"Pedalem Barcelona"},"sourceId":"osm"},{"categories":["hire"],"id":"osm:node:430848848","latitude":41.3718855,"longitude":2.1667336,"name":"233 - Nou de la Rambla 164","properties":{"brand":"bicing","network":"bicing","operator":"Pedalem Barcelona"},"sourceId":"osm"},{"categories":["hire"],"id":"osm:node:430848849","latitude":41.3714927,"longitude":2.1622853,"name":"234 - Pg. de l'Exposició 34","properties":{"brand":"bicing","network":"bicing","operator":"Pedalem Barcelona"},"sourceId":"osm"},{"categories":["hire"],"id":"osm:node:430848850","latitude":41.3715459,"longitude":2.1557961,"name":"444 - Lleida 40","properties":{"brand":"bicing","network":"bicing","operator":"Pedalem Barcelona"},"sourceId":"osm"},{"categories":["hire"],"id":"osm:node:430848852","latitude":41.3754833,"longitude":2.1629415,"name":"86 - Viladomat 2","properties":{"brand":"bicing","network":"bicing","operator":"Pedalem Barcelona"},"sourceId":"osm"},{"categories":["hire"],"id":"osm:node:430848853","latitude":41.3750908,"longitude":2.1613157,"name":"373 - Paral·lel 132","properties":{"brand":"bicing","network":"bicing","operator":"Pedalem Barcelona"},"sourceId":"osm"},{"categories":["hire"],"id":"osm:node:430848855","latitude":41.3751031,"longitude":2.156824,"name":"386 - Paral·lel 164","properties":{"brand":"bicing","network":"bicing","operator":"Pedalem Barcelona"},"sourceId":"osm"},{"categories":["hire"],"id":"osm:node:4311638393","latitude":41.3758231,"longitude":2.1510172,"name":"Rent a Bike BCN - Shop Placa Espanya","properties":{"fee":"yes","network":"Rent a Bike BCN","openingHours":"Mo-Su 09:30-20:00","operator":"Rent a Bike BCN","website":"https://www.rentabikebcn.com/"},"sourceId":"osm"},{"categories":["hire"],"id":"osm:node:4355890715","latitude":41.3747701,"longitude":2.1888534,"name":"31 - Pl. del Mar","properties":{"brand":"bicing","network":"bicing","operator":"Pedalem Barcelona"},"sourceId":"osm"},{"categories":["hire"],"id":"osm:node:4374272505","latitude":41.3702471,"longitude":2.1878283,"name":"124 - Nova Bocana","properties":{"brand":"bicing","network":"bicing","operator":"Pedalem Barcelona"},"sourceId":"osm"},{"categories":["hire"],"id":"osm:node:4785961957","latitude":41.373649,"longitude":2.1886237,"name":"32 - La Barceloneta (CN Barceloneta)","properties":{"brand":"bicing","network":"bicing","operator":"Pedalem Barcelona"},"sourceId":"osm"},{"categories":["hire"],"id":"osm:node:5060672224","latitude":41.3752726,"longitude":2.1734321,"name":"+34 680804048","properties":{"openingHours":"Mo-Su 10:00-20:00","operator":"+34 680804048","website":"https://www.movendoo.com/"},"sourceId":"osm"},{"categories":["hire"],"id":"osm:node:5173975513","latitude":41.3763505,"longitude":2.1786436,"name":"361 - Pg. Colom - Les Rambles","properties":{"brand":"bicing","network":"bicing","operator":"Pedalem Barcelona"},"sourceId":"osm"},{"categories":["hire"],"id":"osm:node:5262548930","latitude":41.3753509,"longitude":2.16799,"name":"427 - Sant Pau 119","properties":{"brand":"bicing","network":"bicing","operator":"Pedalem Barcelona"},"sourceId":"osm"},{"categories":["hire"],"id":"osm:node:5262548932","latitude":41.37652,"longitude":2.1749,"name":"425 - Cervelló 5","properties":{"brand":"bicing","network":"bicing","operator":"Pedalem Barcelona"},"sourceId":"osm"},{"categories":["hire"],"id":"osm:node:5262548935","latitude":41.376433,"longitude":2.17871,"name":"410 - Pg. Colom - Les Rambles","properties":{"brand":"bicing","network":"bicing","operator":"Pedalem Barcelona"},"sourceId":"osm"},{"categories":["hire"],"id":"osm:node:5262548938","latitude":41.365374,"longitude":2.133087,"name":"404 - Juan Gris 28","properties":{"brand":"bicing","network":"bicing","operator":"Pedalem Barcelona"},"sourceId":"osm"},{"categories":["hire"],"id":"osm:node:5262548940","latitude":41.3694497,"longitude":2.187958,"name":"400 - Moll Oriental","properties":{"brand":"bicing","network":"bicing","operator":"Pedalem Barcelona"},"sourceId":"osm"},{"categories":["hire"],"id":"osm:node:5262548948","latitude":41.3720253,"longitude":2.1804147,"name":"376 - World Trade Center","properties":{"brand":"bicing","network":"bicing","operator":"Pedalem Barcelona"},"sourceId":"osm"},{"categories":["hire"],"id":"osm:node:5262548949","latitude":41.3720423,"longitude":2.1804314,"name":"375 - World Trade Center","properties":{"brand":"bicing","network":"bicing","operator":"Pedalem Barcelona"},"sourceId":"osm"},{"categories":["hire"],"id":"osm:node:5262548960","latitude":41.359496,"longitude":2.14182,"name":"347 - Alts Forns 77","properties":{"brand":"bicing","network":"bicing","operator":"Pedalem Barcelona"},"sourceId":"osm"},{"categories":["hire"],"id":"osm:node:5262549016","latitude":41.3727582,"longitude":2.153929,"name":"237 - Rius i Taulet 4","properties":{"brand":"bicing","network":"bicing","operator":"Pedalem Barcelona"},"sourceId":"osm"},{"categories":["hire"],"id":"osm:node:5262549934","latitude":41.3756611,"longitude":2.143981,"name":"186 - Consell de Cent 6","properties":{"brand":"bicing","network":"bicing","operator":"Pedalem Barcelona"},"sourceId":"osm"},{"categories":["hire"],"id":"osm:node:5262549935","latitude":41.3704165,"longitude":2.138856,"name":"185 - Gavà 81","properties":{"brand":"bicing","network":"bicing","operator":"Pedalem Barcelona"},"sourceId":"osm"},{"categories":["hire"],"id":"osm:node:5262549936","latitude":41.3713448,"longitude":2.143994,"name":"182 - Gran Via 273","properties":{"brand":"bicing","network":"bicing","operator":"Pedalem Barcelona"},"sourceId":"osm"},{"categories":["hire"],"id":"osm:node:5262549938","latitude":41.3675738,"longitude":2.1389422,"name":"180 - Gran Via 181","properties":{"brand":"bicing","network":"bicing","operator":"Pedalem Barcelona"},"sourceId":"osm"},{"categories":["hire"],"id":"osm:node:5262549939","latitude":41.363511,"longitude":2.13677,"name":"179 - Pg. Zona Franca 244","properties":{"brand":"bicing","network":"bicing","operator":"Pedalem Barcelona"},"sourceId":"osm"},{"categories":["hire"],"id":"osm:node:5262549967","latitude":41.3767784,"longitude":2.1738711,"name":"114 - Pl. Jean Genet 1","properties":{"brand":"bicing","network":"bicing","operator":"Pedalem Barcelona"},"sourceId":"osm"},{"categories":["hire"],"id":"osm:node:5262549974","latitude":41.3758816,"longitude":2.1500976,"name":"94 - Gran Via 375","properties":{"brand":"bicing","network":"bicing","operator":"Pedalem Barcelona"},"sourceId":"osm"},{"categories":["hire"],"id":"osm:node:5282964480","latitude":41.3606788,"longitude":2.1388488,"name":"346 - Plaça de la Marina - Foneria","properties":{"brand":"bicing","network":"bicing","operator":"Pedalem Barcelona"},"sourceId":"osm"},{"categories":["hire"],"id":"osm:node:530969566","latitude":41.3757562,"longitude":2.1359201,"name":"188 - Plaça de Sants","properties":{"brand":"bicing","network":"bicing","operator":"Pedalem Barcelona"},"sourceId":"osm"},{"categories":["repair"],"id":"osm:node:5588884548","latitude":41.3746422,"longitude":2.1485746,"name":"Punt de reparació de bicicletes","properties":{"brand":"HolaBici","fee":"no","operator":"RACC","website":"https://holabici.racc.es/punts-bici/"},"sourceId":"osm"},{"categories":["shop","repair"],"id":"osm:node:5600135217","latitude":41.3735903,"longitude":2.1319704,"name":"MOT","properties":{"serviceRepair":"yes"},"sourceId":"osm"},{"categories":["shop","repair"],"id":"osm:node:7383792953","latitude":41.3671021,"longitude":2.1285867,"name":"Biking Point","properties":{"openingHours":"Mo-Fr 09:45-13:30, 17:00-20:30; Sa 09:45-13:30","serviceRepair":"yes","website":"https://www.bikingpoint.es/"},"sourceId":"osm"},{"categories":["shop","repair"],"id":"osm:node:7516980646","latitude":41.3758282,"longitude":2.1625781,"name":"VA de BICI","properties":{"openingHours":"Mo-Fr 10:00-13:00, 17:00-19:00; Sa 11:00-14:00","serviceRepair":"yes","website":"http://www.velociutat.com/"},"sourceId":"osm"},{"categories":["shop"],"id":"osm:node:7678023398","latitude":41.3669173,"longitude":2.1227128,"name":"Mycrosport","properties":{"website":"https://www.myrcosport.com/"},"sourceId":"osm"},{"categories":["repair"],"id":"osm:node:7678097946","latitude":41.3719035,"longitude":2.137711,"name":"Fantastik Bikes","properties":{"openingHours":"Mo-Tu 16:00-20:00; Th-Fr 16:00-20:00","serviceRepair":"yes","website":"http://www.fantastikbikes.com/"},"sourceId":"osm"},{"categories":["repair"],"id":"osm:node:7678151621","latitude":41.3758279,"longitude":2.1379089,"name":"Lakota Bikes","properties":{"openingHours":"Mo 10:00-14:00,16:00-20:00; Tu 14:00-20:00; We 10:00-14:00,16:00-20:00; Th 14:00-20:00; Fr 10:00-14:00,16:00-20:00","serviceRepair":"yes"},"sourceId":"osm"},{"categories":["shop","repair","hire"],"id":"osm:node:7680542564","latitude":41.3736029,"longitude":2.1659942,"name":"Cicles La Mundial","properties":{"openingHours":"Mo-Fr 10:00-14:00,17:00-20:30; Sa 10:00-14:00","serviceRental":"yes","serviceRepair":"yes"},"sourceId":"osm"},{"categories":["shop"],"id":"osm:node:7680543293","latitude":41.3743204,"longitude":2.1598178,"name":"Clase","properties":{"openingHours":"Mo-Fr 10:30-13:30,16:30-19:30; Sa 11:00-14:00"},"sourceId":"osm"},{"categories":["repair"],"id":"osm:node:7680916766","latitude":41.373641,"longitude":2.1455642,"name":"Wattz Mobility","properties":{"serviceRepair":"yes","website":"https://wattzmobility.weebly.com/"},"sourceId":"osm"},{"categories":["hire"],"id":"osm:node:8145832553","latitude":41.3733908,"longitude":2.1331925,"name":"399 - Pavia 3","properties":{"brand":"bicing","network":"bicing","operator":"Pedalem Barcelona"},"sourceId":"osm"},{"categories":["hire"],"id":"osm:node:9557199914","latitude":41.3630776,"longitude":2.1327463,"name":"748 Ciutat de la Justicía - Granvia","properties":{"fee":"yes","network":"e-BiciBox","openingHours":"Mo-Su 07:00-24:00","operator":"Movement","website":"https://www.bicibox.cat/"},"sourceId":"osm"},{"categories":["hire"],"id":"osm:node:9557199916","latitude":41.368519,"longitude":2.1170908,"name":"706 METRO L1 La Torrassa","properties":{"fee":"yes","network":"e-BiciBox","openingHours":"Mo-Su 07:00-24:00","operator":"Movement","website":"https://www.bicibox.cat/"},"sourceId":"osm"},{"categories":["hire"],"id":"osm:node:9557284919","latitude":41.3574461,"longitude":2.124398,"name":"718 FGC - Europa / Fira","properties":{"fee":"yes","network":"e-BiciBox","openingHours":"Mo-Su 07:00-24:00","operator":"Movement","website":"https://www.bicibox.cat/"},"sourceId":"osm"},{"categories":["hire"],"id":"osm:node:9558884117","latitude":41.367923,"longitude":2.1305323,"name":"727 Santa Eulàlia","properties":{"fee":"yes","network":"e-BiciBox","openingHours":"Mo-Su 07:00-24:00","operator":"Movement","website":"https://www.bicibox.cat/"},"sourceId":"osm"},{"categories":["hire"],"id":"osm:node:9558884119","latitude":41.3660816,"longitude":2.1160725,"name":"705 Poliesportiu Piscines L'H","properties":{"fee":"yes","network":"e-BiciBox","openingHours":"Mo-Su 07:00-24:00","operator":"Movement","website":"https://www.bicibox.cat/"},"sourceId":"osm"},{"categories":["shop","repair"],"id":"osm:node:9682201532","latitude":41.3623765,"longitude":2.1114047,"name":"Bike World","properties":{"openingHours":"Mo-Fr 08:30-19:30","serviceRepair":"yes","serviceTools":"yes","website":"https://www.bikeworldbcn.com/"},"sourceId":"osm"},{"categories":["hire"],"id":"osm:node:9806873017","latitude":41.3633977,"longitude":2.1336013,"name":"704 Ciutat de la Justícia - Granvia","properties":{"fee":"yes","network":"e-BiciBox","openingHours":"Mo-Su 07:00-24:00","operator":"Movement","website":"https://www.bicibox.cat/"},"sourceId":"osm"},{"categories":["hire"],"id":"osm:node:9831427684","latitude":41.3650055,"longitude":2.1384149,"name":"442 - Mineria 30","properties":{"brand":"bicing","network":"bicing","operator":"Pedalem Barcelona"},"sourceId":"osm"},{"categories":["hire"],"id":"osm:way:1315310671","latitude":41.37358856,"longitude":2.1164028200000002,"name":"Plaça Sènia","properties":{"brand":"AMBici","fee":"yes","network":"AMBici","operator":"Transports Metropolitans de Barcelona","website":"https://www.ambici.cat/ca/"},"sourceId":"osm"}],"schemaVersion":2}
