{"key":"12/2013/1266","points":[{"id":"osm:node:11134888386","latitude":56.4565814,"longitude":-2.996238,"name":"books","properties":{"access":"unknown","bicycle_pa":"","capacity":8,"covered":"","fee":"","operator":"","nameSource":"source"},"sourceId":"osm"},{"id":"osm:node:12218398582","latitude":56.4564699,"longitude":-2.9951587,"name":"Sinderins by The Rosebud","properties":{"access":"unknown","bicycle_pa":"stands","capacity":2,"covered":"no","fee":"","operator":"","nameSource":"landmark"},"sourceId":"osm"},{"id":"osm:node:12222253997","latitude":56.4554858,"longitude":-2.9923783,"name":"Union Place cycle parking","properties":{"access":"unknown","bicycle_pa":"stands","capacity":8,"covered":"","fee":"","operator":"","nameSource":"street"},"sourceId":"osm"},{"id":"osm:node:12222254031","latitude":56.4560027,"longitude":-2.9927471,"name":"Carrot","properties":{"access":"unknown","bicycle_pa":"stands","capacity":1,"covered":"","fee":"","operator":"","nameSource":"source"},"sourceId":"osm"},{"id":"osm:node:12307443584","latitude":56.4560916,"longitude":-2.9925446,"name":"Perth Road near Ford's Lane","properties":{"access":"unknown","bicycle_pa":"","capacity":6,"covered":"","fee":"","operator":"","nameSource":"junction"},"sourceId":"osm"},{"id":"osm:node:2211105068","latitude":56.4567423,"longitude":-3.0575734,"name":"Noble Avenue near Station Road","properties":{"access":"unknown","bicycle_pa":"stands","capacity":6,"covered":"no","fee":"","operator":"","nameSource":"junction"},"sourceId":"osm"},{"id":"osm:node:3990143634","latitude":56.4538074,"longitude":-3.0213058,"name":"Riverside Drive by Riverside Inn","properties":{"access":"unknown","bicycle_pa":"wall_loops","capacity":2,"covered":"","fee":"","operator":"","nameSource":"landmark"},"sourceId":"osm"},{"id":"osm:node:3990143638","latitude":56.4555315,"longitude":-3.0237098,"name":"Vernonholme by The University of Dundee Botanic Garden","properties":{"access":"unknown","bicycle_pa":"","capacity":0,"covered":"","fee":"","operator":"","nameSource":"landmark"},"sourceId":"osm"},{"id":"osm:node:3990143639","latitude":56.4564874,"longitude":-2.9922426,"name":"Pennycook Lane near Pennycook Court","properties":{"access":"unknown","bicycle_pa":"stands","capacity":8,"covered":"no","fee":"","operator":"","nameSource":"junction"},"sourceId":"osm"},{"id":"osm:node:3990143640","latitude":56.456587,"longitude":-3.0575278,"name":"Noble Avenue near Station Road","properties":{"access":"unknown","bicycle_pa":"stands","capacity":0,"covered":"no","fee":"","operator":"","nameSource":"junction"},"sourceId":"osm"},{"id":"osm:node:6398698699","latitude":56.4617454,"longitude":-3.0354546,"name":"George Pirie Way cycle parking","properties":{"access":"unknown","bicycle_pa":"rack","capacity":20,"covered":"yes","fee":"","operator":"","nameSource":"street"},"sourceId":"osm"},{"id":"osm:node:6414031637","latitude":56.4624415,"longitude":-3.0325081,"name":"George Pirie Way near Simpson Avenue","properties":{"access":"unknown","bicycle_pa":"stands","capacity":20,"covered":"yes","fee":"","operator":"","nameSource":"junction"},"sourceId":"osm"},{"id":"osm:node:9502771926","latitude":56.4514696,"longitude":-3.0736476,"name":"The Shore near Falkland Place","properties":{"access":"unknown","bicycle_pa":"lockers","capacity":5,"covered":"","fee":"","operator":"","nameSource":"junction"},"sourceId":"osm"},{"id":"osm:node:9992795000","latitude":56.451399,"longitude":-2.998463,"name":"Riverside Drive by Bridgeview Station","properties":{"access":"unknown","bicycle_pa":"stands","capacity":10,"covered":"no","fee":"","operator":"","nameSource":"landmark"},"sourceId":"osm"}],"schemaVersion":1}
