{"key":"12/2005/1543","points":[{"id":"osm:node:10599939260","latitude":40.4569521,"longitude":-3.7085065,"name":"Calle Lorenzana near Calle de Francos Rodríguez","properties":{"access":"unknown","bicycle_pa":"stands","capacity":10,"covered":"no","fee":"","operator":"","nameSource":"junction"},"sourceId":"osm"},{"id":"osm:node:10657125163","latitude":40.4534579,"longitude":-3.7038981,"name":"Calle de Goiri near Calle Navarra","properties":{"access":"unknown","bicycle_pa":"stands","capacity":16,"covered":"no","fee":"","operator":"","nameSource":"junction"},"sourceId":"osm"},{"id":"osm:node:10816896986","latitude":40.4564055,"longitude":-3.7047886,"name":"Calle de Francos Rodríguez near Calle de Jerónima Llorente","properties":{"access":"unknown","bicycle_pa":"stands","capacity":8,"covered":"no","fee":"","operator":"Ayuntamiento de Madrid","nameSource":"junction"},"sourceId":"osm"},{"id":"osm:node:10951989137","latitude":40.45851,"longitude":-3.7162752,"name":"Calle de los Pirineos near Calle de Francos Rodríguez","properties":{"access":"unknown","bicycle_pa":"stands","capacity":10,"covered":"no","fee":"","operator":"","nameSource":"junction"},"sourceId":"osm"},{"id":"osm:node:10952307255","latitude":40.4585458,"longitude":-3.7162517,"name":"Calle de los Pirineos near Calle de Francos Rodríguez","properties":{"access":"unknown","bicycle_pa":"stands","capacity":10,"covered":"no","fee":"","operator":"","nameSource":"junction"},"sourceId":"osm"},{"id":"osm:node:11159338758","latitude":40.4584725,"longitude":-3.7161225,"name":"Calle de los Pirineos near Calle de Francos Rodríguez","properties":{"access":"unknown","bicycle_pa":"stands","capacity":12,"covered":"no","fee":"","operator":"","nameSource":"junction"},"sourceId":"osm"},{"id":"osm:node:11159350747","latitude":40.4584349,"longitude":-3.7161604,"name":"Calle de los Pirineos near Calle de Francos Rodríguez","properties":{"access":"unknown","bicycle_pa":"stands","capacity":8,"covered":"no","fee":"","operator":"","nameSource":"junction"},"sourceId":"osm"},{"id":"osm:node:11162484287","latitude":40.4635921,"longitude":-3.6982045,"name":"Calle de Ceuta near Plaza de la Remonta","properties":{"access":"unknown","bicycle_pa":"stands","capacity":6,"covered":"no","fee":"","operator":"","nameSource":"junction"},"sourceId":"osm"},{"id":"osm:node:11346785553","latitude":40.4641296,"longitude":-3.697798,"name":"Plaza de la Remonta near Pasaje de Maestros Ladrilleros","properties":{"access":"unknown","bicycle_pa":"","capacity":10,"covered":"","fee":"","operator":"","nameSource":"junction"},"sourceId":"osm"},{"id":"osm:node:11895503542","latitude":40.4524652,"longitude":-3.6954938,"name":"Avenida del General Perón near Calle de Julián Besteiro","properties":{"access":"yes","bicycle_pa":"stands","capacity":10,"covered":"no","fee":"no","operator":"Ayuntamiento de Madrid","nameSource":"junction"},"sourceId":"osm"},{"id":"osm:node:11895521118","latitude":40.4524558,"longitude":-3.6953534,"name":"Avenida del General Perón near Calle de Julián Besteiro","properties":{"access":"yes","bicycle_pa":"stands","capacity":12,"covered":"no","fee":"no","operator":"Ayuntamiento de Madrid","nameSource":"junction"},"sourceId":"osm"},{"id":"osm:node:12025438273","latitude":40.4775114,"longitude":-3.7010548,"name":"Calle de Melchor Fernández Almagro near Calle de Finisterre","properties":{"access":"unknown","bicycle_pa":"","capacity":0,"covered":"","fee":"","operator":"","nameSource":"junction"},"sourceId":"osm"},{"id":"osm:node:12066266488","latitude":40.4790952,"longitude":-3.6947311,"name":"Avenida de Monforte de Lemos cycle parking","properties":{"access":"yes","bicycle_pa":"stands","capacity":10,"covered":"no","fee":"no","operator":"Ayuntamiento de Madrid","nameSource":"street"},"sourceId":"osm"},{"id":"osm:node:12066266489","latitude":40.4750222,"longitude":-3.7114333,"name":"Avenida de Betanzos near Calle de Melchor Fernández Almagro","properties":{"access":"yes","bicycle_pa":"wall_loops","capacity":10,"covered":"no","fee":"no","operator":"","nameSource":"junction"},"sourceId":"osm"},{"id":"osm:node:12574430510","latitude":40.4609802,"longitude":-3.712144,"name":"Avenida Santo Ángel de la Guarda near Travesía General Hierro Martínez","properties":{"access":"unknown","bicycle_pa":"wall_loops","capacity":30,"covered":"no","fee":"no","operator":"","nameSource":"junction"},"sourceId":"osm"},{"id":"osm:node:12749895560","latitude":40.4520836,"longitude":-3.691589,"name":"Carril bici Avenida del General Perón near Carril bici del Paseo de la Castellana","properties":{"access":"yes","bicycle_pa":"stands","capacity":10,"covered":"no","fee":"no","operator":"Ayuntamiento de Madrid","nameSource":"junction"},"sourceId":"osm"},{"id":"osm:node:12994455223","latitude":40.4710344,"longitude":-3.6955721,"name":"Calle de Joaquín Dicenta near Calle de Montoya","properties":{"access":"yes","bicycle_pa":"stands","capacity":8,"covered":"no","fee":"no","operator":"Ayuntamiento de Madrid","nameSource":"junction"},"sourceId":"osm"},{"id":"osm:node:13340455764","latitude":40.506804,"longitude":-3.7038458,"name":"Calle del Monasterio de Guadalupe near Calle del Monasterio de las Batuecas","properties":{"access":"private","bicycle_pa":"","capacity":0,"covered":"no","fee":"","operator":"","nameSource":"junction"},"sourceId":"osm"},{"id":"osm:node:13429276656","latitude":40.4665818,"longitude":-3.7196794,"name":"Calle de Antonio Machado near Calle San Gerardo","properties":{"access":"unknown","bicycle_pa":"stands","capacity":6,"covered":"no","fee":"","operator":"","nameSource":"junction"},"sourceId":"osm"},{"id":"osm:node:13433147985","latitude":40.4529627,"longitude":-3.7040378,"name":"Calle de Castilla near Calle de Goiri","properties":{"access":"unknown","bicycle_pa":"stands","capacity":16,"covered":"no","fee":"","operator":"","nameSource":"junction"},"sourceId":"osm"},{"id":"osm:node:13627029162","latitude":40.4579805,"longitude":-3.7018612,"name":"Calle de Nuestra Señora del Carmen near Calle de los Molinos","properties":{"access":"unknown","bicycle_pa":"stands","capacity":10,"covered":"no","fee":"","operator":"","nameSource":"junction"},"sourceId":"osm"},{"id":"osm:node:13653017114","latitude":40.4561666,"longitude":-3.7030274,"name":"Calle de Mariano Fernández near Calle de Berruguete","properties":{"access":"unknown","bicycle_pa":"wall_loops","capacity":20,"covered":"yes","fee":"","operator":"","nameSource":"junction"},"sourceId":"osm"},{"id":"osm:node:13921398558","latitude":40.4714191,"longitude":-3.7059449,"name":"Calle de Sinesio Delgado cycle parking","properties":{"access":"unknown","bicycle_pa":"wall_loops","capacity":5,"covered":"","fee":"","operator":"Ayuntamiento de Madrid","nameSource":"street"},"sourceId":"osm"},{"id":"osm:node:13968554701","latitude":40.4699638,"longitude":-3.7084764,"name":"Valdeacederas cycle parking","properties":{"access":"unknown","bicycle_pa":"","capacity":0,"covered":"","fee":"","operator":"","nameSource":"place"},"sourceId":"osm"},{"id":"osm:node:1443176853","latitude":40.4504527,"longitude":-3.7254537,"name":"bicicum","properties":{"access":"unknown","bicycle_pa":"","capacity":0,"covered":"","fee":"","operator":"","nameSource":"source"},"sourceId":"osm"},{"id":"osm:node:158849485","latitude":40.4871119,"longitude":-3.6983236,"name":"Calle de Fermín Caballero near Calle de Sangenjo","properties":{"access":"unknown","bicycle_pa":"wall_loops","capacity":9,"covered":"","fee":"","operator":"","nameSource":"junction"},"sourceId":"osm"},{"id":"osm:node:3108256685","latitude":40.4507838,"longitude":-3.7261499,"name":"Plaza de las Ciencias near Calle de Leonardo Prieto Castro","properties":{"access":"unknown","bicycle_pa":"wall_loops","capacity":6,"covered":"no","fee":"","operator":"","nameSource":"junction"},"sourceId":"osm"},{"id":"osm:node:3208756144","latitude":40.4712767,"longitude":-3.7049944,"name":"Calle de Sinesio Delgado cycle parking","properties":{"access":"unknown","bicycle_pa":"wall_loops","capacity":5,"covered":"no","fee":"","operator":"Ayuntamiento de Madrid","nameSource":"street"},"sourceId":"osm"},{"id":"osm:node:3384407465","latitude":40.4590131,"longitude":-3.7185281,"name":"Senda Real (GR-124) cycle parking","properties":{"access":"unknown","bicycle_pa":"stands","capacity":10,"covered":"no","fee":"no","operator":"","nameSource":"street"},"sourceId":"osm"},{"id":"osm:node:3384407466","latitude":40.4596,"longitude":-3.7195418,"name":"Antigua Carretera de la Dehesa de la Villa near Calle de Francos Rodríguez","properties":{"access":"unknown","bicycle_pa":"stands","capacity":6,"covered":"no","fee":"no","operator":"","nameSource":"junction"},"sourceId":"osm"},{"id":"osm:node:3411088202","latitude":40.4593801,"longitude":-3.7020991,"name":"Calle de la Hierbabuena near Calle de Nuestra Señora del Carmen","properties":{"access":"unknown","bicycle_pa":"stands","capacity":10,"covered":"no","fee":"","operator":"Ayuntamiento de Madrid","nameSource":"junction"},"sourceId":"osm"},{"id":"osm:node:3475282513","latitude":40.4621007,"longitude":-3.701508,"name":"Calle del Marqués de Viana near Calle de Fereluz","properties":{"access":"unknown","bicycle_pa":"stands","capacity":4,"covered":"no","fee":"","operator":"","nameSource":"junction"},"sourceId":"osm"},{"id":"osm:node:3888952154","latitude":40.479866,"longitude":-3.7026387,"name":"Calle de Finisterre near Avenida de Monforte de Lemos","properties":{"access":"unknown","bicycle_pa":"stands","capacity":10,"covered":"no","fee":"","operator":"Ayuntamiento de Madrid","nameSource":"junction"},"sourceId":"osm"},{"id":"osm:node:3889026624","latitude":40.4795225,"longitude":-3.7051104,"name":"Avenida de Monforte de Lemos near Plaza de Mondariz","properties":{"access":"unknown","bicycle_pa":"wall_loops","capacity":12,"covered":"yes","fee":"","operator":"","nameSource":"junction"},"sourceId":"osm"},{"id":"osm:node:3958550265","latitude":40.4745335,"longitude":-3.7144362,"name":"Calle de Sarria near Calle de Ponferrada","properties":{"access":"unknown","bicycle_pa":"stands","capacity":10,"covered":"","fee":"","operator":"Ayuntamiento de Madrid","nameSource":"junction"},"sourceId":"osm"},{"id":"osm:node:3961357664","latitude":40.4727671,"longitude":-3.6998615,"name":"Avenida de Asturias near Paseo de la Dirección","properties":{"access":"unknown","bicycle_pa":"stands","capacity":10,"covered":"","fee":"","operator":"Ayuntamiento de Madrid","nameSource":"junction"},"sourceId":"osm"},{"id":"osm:node:3982433653","latitude":40.4823152,"longitude":-3.7273914,"name":"Calle de Ramón Gómez de la Serna near Calle de Sandalia Navas","properties":{"access":"unknown","bicycle_pa":"stands","capacity":10,"covered":"no","fee":"","operator":"Ayuntamiento de Madrid","nameSource":"junction"},"sourceId":"osm"},{"id":"osm:node:3982449106","latitude":40.4801838,"longitude":-3.7172387,"name":"Calle de Fermín Caballero near Calle de la Isla de Arosa","properties":{"access":"unknown","bicycle_pa":"stands","capacity":10,"covered":"","fee":"","operator":"Ayuntamiento de Madrid","nameSource":"junction"},"sourceId":"osm"},{"id":"osm:node:3982449107","latitude":40.4906994,"longitude":-3.7215634,"name":"Glorieta de la Pradera de Vaquerizas near Calle del Mirador de la Reina","properties":{"access":"unknown","bicycle_pa":"stands","capacity":10,"covered":"","fee":"","operator":"Ayuntamiento de Madrid","nameSource":"junction"},"sourceId":"osm"},{"id":"osm:node:3982449108","latitude":40.4869624,"longitude":-3.7258007,"name":"Calle de Peña del Águila near Calle del Cerro Minguete","properties":{"access":"unknown","bicycle_pa":"stands","capacity":10,"covered":"","fee":"","operator":"Ayuntamiento de Madrid","nameSource":"junction"},"sourceId":"osm"},{"id":"osm:node:3982449109","latitude":40.4821892,"longitude":-3.7177511,"name":"Avenida del Cardenal Herrera Oria near Calle de la Isla de Arosa","properties":{"access":"unknown","bicycle_pa":"stands","capacity":10,"covered":"","fee":"","operator":"Ayuntamiento de Madrid","nameSource":"junction"},"sourceId":"osm"},{"id":"osm:node:3982449110","latitude":40.5011455,"longitude":-3.7003042,"name":"Calle del Monasterio de El Paular near Calle Colegiata de Sar","properties":{"access":"unknown","bicycle_pa":"stands","capacity":10,"covered":"","fee":"","operator":"Ayuntamiento de Madrid","nameSource":"junction"},"sourceId":"osm"},{"id":"osm:node:3982449637","latitude":40.4850721,"longitude":-3.722851,"name":"Calle de los Riscos de Polanco near Plaza de Peña Horcajo","properties":{"access":"unknown","bicycle_pa":"stands","capacity":10,"covered":"","fee":"","operator":"Ayuntamiento de Madrid","nameSource":"junction"},"sourceId":"osm"},{"id":"osm:node:3982449638","latitude":40.4834773,"longitude":-3.7147764,"name":"Avenida del Ventisquero de la Condesa near Avenida del Cardenal Herrera Oria","properties":{"access":"unknown","bicycle_pa":"stands","capacity":10,"covered":"","fee":"","operator":"Ayuntamiento de Madrid","nameSource":"junction"},"sourceId":"osm"},{"id":"osm:node:3982458959","latitude":40.4789848,"longitude":-3.7395982,"name":"Anillo Verde Ciclista near Calle de los Gavilanes","properties":{"access":"unknown","bicycle_pa":"anchors","capacity":8,"covered":"","fee":"","operator":"Ayuntamiento de Madrid","nameSource":"junction"},"sourceId":"osm"},{"id":"osm:node:3982458960","latitude":40.4919118,"longitude":-3.7229531,"name":"Anillo Verde Ciclista near Avenida de Arroyo del Monte","properties":{"access":"unknown","bicycle_pa":"anchors","capacity":8,"covered":"","fee":"","operator":"Ayuntamiento de Madrid","nameSource":"junction"},"sourceId":"osm"},{"id":"osm:node:3982458961","latitude":40.5087963,"longitude":-3.7033096,"name":"Anillo Verde Ciclista by Las campanas","properties":{"access":"unknown","bicycle_pa":"anchors","capacity":4,"covered":"","fee":"","operator":"Ayuntamiento de Madrid","nameSource":"landmark"},"sourceId":"osm"},{"id":"osm:node:3982458963","latitude":40.4967082,"longitude":-3.7194158,"name":"Anillo Verde Ciclista near Avenida del Monasterio de Silos","properties":{"access":"unknown","bicycle_pa":"anchors","capacity":16,"covered":"","fee":"","operator":"Ayuntamiento de Madrid","nameSource":"junction"},"sourceId":"osm"},{"id":"osm:node:3999054545","latitude":40.4844965,"longitude":-3.7343575,"name":"Anillo Verde Ciclista cycle parking","properties":{"access":"unknown","bicycle_pa":"wall_loops","capacity":20,"covered":"","fee":"","operator":"","nameSource":"street"},"sourceId":"osm"},{"id":"osm:node:3999054546","latitude":40.4830183,"longitude":-3.7204425,"name":"Plaza Pico Salvaguardia by Escuela Infantil-casa de Niños Bravo Murillo","properties":{"access":"unknown","bicycle_pa":"stands","capacity":10,"covered":"","fee":"","operator":"Ayuntamiento de Madrid","nameSource":"landmark"},"sourceId":"osm"},{"id":"osm:node:3999054547","latitude":40.487709,"longitude":-3.7139366,"name":"Calle de La Masó near Calle Pico Milano","properties":{"access":"unknown","bicycle_pa":"stands","capacity":10,"covered":"","fee":"","operator":"Ayuntamiento de Madrid","nameSource":"junction"},"sourceId":"osm"},{"id":"osm:node:3999054548","latitude":40.4912678,"longitude":-3.7137055,"name":"Calle de La Masó near Calle Cerro del Castañar","properties":{"access":"unknown","bicycle_pa":"stands","capacity":10,"covered":"","fee":"","operator":"Ayuntamiento de Madrid","nameSource":"junction"},"sourceId":"osm"},{"id":"osm:node:3999054549","latitude":40.5004512,"longitude":-3.7142384,"name":"Calle del Monasterio de El Paular near Avenida del Monasterio de Silos","properties":{"access":"unknown","bicycle_pa":"stands","capacity":10,"covered":"","fee":"","operator":"Ayuntamiento de Madrid","nameSource":"junction"},"sourceId":"osm"},{"id":"osm:node:3999054550","latitude":40.4995329,"longitude":-3.7003257,"name":"Paseo de las Alamedillas cycle parking","properties":{"access":"unknown","bicycle_pa":"stands","capacity":10,"covered":"","fee":"","operator":"Ayuntamiento de Madrid","nameSource":"street"},"sourceId":"osm"},{"id":"osm:node:3999054551","latitude":40.5056009,"longitude":-3.7101372,"name":"Anillo Verde Ciclista cycle parking","properties":{"access":"unknown","bicycle_pa":"anchors","capacity":8,"covered":"no","fee":"","operator":"Ayuntamiento de Madrid","nameSource":"street"},"sourceId":"osm"},{"id":"osm:node:3999054552","latitude":40.5052472,"longitude":-3.6958173,"name":"Avenida del Monasterio de Silos by Montecarmelo","properties":{"access":"unknown","bicycle_pa":"stands","capacity":10,"covered":"no","fee":"","operator":"Ayuntamiento de Madrid","nameSource":"landmark"},"sourceId":"osm"},{"id":"osm:node:3999057358","latitude":40.5018692,"longitude":-3.6937619,"name":"Calle de Alonso Quijano cycle parking","properties":{"access":"unknown","bicycle_pa":"stands","capacity":10,"covered":"no","fee":"","operator":"","nameSource":"street"},"sourceId":"osm"},{"id":"osm:node:3999057362","latitude":40.4981327,"longitude":-3.6964102,"name":"Paseo de las Alamedillas by Parque de Santa Ana","properties":{"access":"unknown","bicycle_pa":"wall_loops;stands","capacity":5,"covered":"no","fee":"","operator":"","nameSource":"landmark"},"sourceId":"osm"},{"id":"osm:node:3999057363","latitude":40.4955447,"longitude":-3.6969165,"name":"Calle de Braille near Calle de Caldas de Estrach","properties":{"access":"unknown","bicycle_pa":"","capacity":10,"covered":"","fee":"","operator":"","nameSource":"junction"},"sourceId":"osm"},{"id":"osm:node:3999057364","latitude":40.4949327,"longitude":-3.6946144,"name":"Calle de Hospitalet de Llobregat cycle parking","properties":{"access":"unknown","bicycle_pa":"stands","capacity":10,"covered":"","fee":"","operator":"Ayuntamiento de Madrid","nameSource":"street"},"sourceId":"osm"},{"id":"osm:node:3999057373","latitude":40.4768837,"longitude":-3.7206075,"name":"Calle de Santiago de Compostela cycle parking","properties":{"access":"unknown","bicycle_pa":"stands","capacity":10,"covered":"","fee":"","operator":"Ayuntamiento de Madrid","nameSource":"street"},"sourceId":"osm"},{"id":"osm:node:3999057374","latitude":40.480238,"longitude":-3.7214463,"name":"Calle Isla de Ons cycle parking","properties":{"access":"unknown","bicycle_pa":"stands","capacity":10,"covered":"","fee":"","operator":"Ayuntamiento de Madrid","nameSource":"street"},"sourceId":"osm"},{"id":"osm:node:3999057375","latitude":40.4837059,"longitude":-3.7069502,"name":"Calle de Ginzo de Limia near Calle de Fermín Caballero","properties":{"access":"unknown","bicycle_pa":"","capacity":10,"covered":"","fee":"","operator":"","nameSource":"junction"},"sourceId":"osm"},{"id":"osm:node:3999057376","latitude":40.4825081,"longitude":-3.7110902,"name":"Calle de Fermín Caballero by Elite Master","properties":{"access":"unknown","bicycle_pa":"stands","capacity":4,"covered":"no","fee":"","operator":"Ayuntamiento de Madrid","nameSource":"landmark"},"sourceId":"osm"},{"id":"osm:node:3999057377","latitude":40.4853609,"longitude":-3.705573,"name":"Calle Valencia de Don Juan by Colegio Público Lorenzo Luzuriaga","properties":{"access":"unknown","bicycle_pa":"","capacity":10,"covered":"","fee":"","operator":"","nameSource":"landmark"},"sourceId":"osm"},{"id":"osm:node:3999057378","latitude":40.4873662,"longitude":-3.7008194,"name":"Calle de Alfredo Marqueríe near Calle de Valencia de Don Juan","properties":{"access":"unknown","bicycle_pa":"stands","capacity":5,"covered":"no","fee":"","operator":"Ayuntamiento de Madrid","nameSource":"junction"},"sourceId":"osm"},{"id":"osm:node:3999057381","latitude":40.4791073,"longitude":-3.6934234,"name":"Avenida de Monforte de Lemos cycle parking","properties":{"access":"unknown","bicycle_pa":"stands","capacity":10,"covered":"no","fee":"","operator":"Ayuntamiento de Madrid","nameSource":"street"},"sourceId":"osm"},{"id":"osm:node:3999057382","latitude":40.4789674,"longitude":-3.6935367,"name":"Avenida de Monforte de Lemos cycle parking","properties":{"access":"unknown","bicycle_pa":"wall_loops","capacity":12,"covered":"no","fee":"","operator":"","nameSource":"street"},"sourceId":"osm"},{"id":"osm:node:3999057384","latitude":40.4754898,"longitude":-3.7026668,"name":"Calle de Ginzo de Limia by Colegio de Educación Infantil y Primaria Breogán","properties":{"access":"unknown","bicycle_pa":"stands","capacity":10,"covered":"no","fee":"","operator":"Ayuntamiento de Madrid","nameSource":"landmark"},"sourceId":"osm"},{"id":"osm:node:3999057385","latitude":40.472446,"longitude":-3.7051268,"name":"Calle de Ribadavia by Colegio Público Federico García Lorca","properties":{"access":"unknown","bicycle_pa":"stands","capacity":10,"covered":"","fee":"","operator":"Ayuntamiento de Madrid","nameSource":"landmark"},"sourceId":"osm"},{"id":"osm:node:3999057386","latitude":40.4743375,"longitude":-3.7099122,"name":"Avenida de El Ferrol cycle parking","properties":{"access":"unknown","bicycle_pa":"stands","capacity":10,"covered":"","fee":"","operator":"Ayuntamiento de Madrid","nameSource":"street"},"sourceId":"osm"},{"id":"osm:node:3999057387","latitude":40.4713977,"longitude":-3.7130093,"name":"Calle de Becerrea near Glorieta de Piedrafita del Cebrero","properties":{"access":"unknown","bicycle_pa":"stands","capacity":10,"covered":"","fee":"","operator":"Ayuntamiento de Madrid","nameSource":"junction"},"sourceId":"osm"},{"id":"osm:node:3999057388","latitude":40.4718834,"longitude":-3.7141955,"name":"Calle Celanova by Tábata","properties":{"access":"unknown","bicycle_pa":"stands","capacity":10,"covered":"","fee":"","operator":"Ayuntamiento de Madrid","nameSource":"landmark"},"sourceId":"osm"},{"id":"osm:node:3999057389","latitude":40.4733658,"longitude":-3.7135472,"name":"Calle de Chantada near Calle de Sarria","properties":{"access":"unknown","bicycle_pa":"stands","capacity":10,"covered":"","fee":"","operator":"Ayuntamiento de Madrid","nameSource":"junction"},"sourceId":"osm"},{"id":"osm:node:3999057390","latitude":40.474693,"longitude":-3.7146254,"name":"Calle de Sarria near Calle de Ponferrada","properties":{"access":"unknown","bicycle_pa":"","capacity":10,"covered":"","fee":"","operator":"","nameSource":"junction"},"sourceId":"osm"},{"id":"osm:node:3999057391","latitude":40.4722175,"longitude":-3.7190645,"name":"Calle de La Cabrera near Calle La Hiruela","properties":{"access":"unknown","bicycle_pa":"stands","capacity":10,"covered":"","fee":"","operator":"Ayuntamiento de Madrid","nameSource":"junction"},"sourceId":"osm"},{"id":"osm:node:3999057392","latitude":40.4798165,"longitude":-3.7096711,"name":"Paseo de la Vaguada by Smart Lab Vaguada","properties":{"access":"unknown","bicycle_pa":"stands","capacity":10,"covered":"","fee":"","operator":"Ayuntamiento de Madrid","nameSource":"landmark"},"sourceId":"osm"},{"id":"osm:node:3999057393","latitude":40.4787198,"longitude":-3.7092429,"name":"Avenida de Monforte de Lemos near Plaza de Verín","properties":{"access":"unknown","bicycle_pa":"","capacity":6,"covered":"","fee":"","operator":"","nameSource":"junction"},"sourceId":"osm"},{"id":"osm:node:3999057394","latitude":40.4788443,"longitude":-3.7083926,"name":"Avenida de Monforte de Lemos near Plaza de Fonsagrada","properties":{"access":"unknown","bicycle_pa":"stands","capacity":5,"covered":"yes","fee":"","operator":"","nameSource":"junction"},"sourceId":"osm"},{"id":"osm:node:3999057395","latitude":40.4791475,"longitude":-3.7064759,"name":"Avenida de Monforte de Lemos near Plaza de Arteijo","properties":{"access":"unknown","bicycle_pa":"stands","capacity":6,"covered":"no","fee":"","operator":"","nameSource":"junction"},"sourceId":"osm"},{"id":"osm:node:3999057396","latitude":40.4811191,"longitude":-3.7059357,"name":"Paseo de la Vaguada near Glorieta de las Reales Academias","properties":{"access":"unknown","bicycle_pa":"","capacity":6,"covered":"no","fee":"","operator":"","nameSource":"junction"},"sourceId":"osm"},{"id":"osm:node:4030325689","latitude":40.478469,"longitude":-3.7096042,"name":"8","properties":{"access":"unknown","bicycle_pa":"stands","capacity":10,"covered":"no","fee":"","operator":"","nameSource":"source"},"sourceId":"osm"},{"id":"osm:node:4099763596","latitude":40.483524,"longitude":-3.7065896,"name":"Calle de Ginzo de Limia by Flores y Plantas","properties":{"access":"unknown","bicycle_pa":"stands","capacity":10,"covered":"","fee":"","operator":"Ayuntamiento de Madrid","nameSource":"landmark"},"sourceId":"osm"},{"id":"osm:node:4099763603","latitude":40.4507518,"longitude":-3.7292625,"name":"Avenida Complutense cycle parking","properties":{"access":"unknown","bicycle_pa":"stands","capacity":8,"covered":"no","fee":"","operator":"Ayuntamiento de Madrid","nameSource":"street"},"sourceId":"osm"},{"id":"osm:node:4100810211","latitude":40.4620908,"longitude":-3.6941535,"name":"Plaza de Ángel Carbajo near Calle de Orense","properties":{"access":"unknown","bicycle_pa":"stands","capacity":10,"covered":"no","fee":"","operator":"Ayuntamiento de Madrid","nameSource":"junction"},"sourceId":"osm"},{"id":"osm:node:4100810219","latitude":40.4515539,"longitude":-3.7726604,"name":"Calle del Arroyo de Pozuelo near Calle del Menta","properties":{"access":"unknown","bicycle_pa":"stands","capacity":10,"covered":"","fee":"","operator":"Ayuntamiento de Madrid","nameSource":"junction"},"sourceId":"osm"},{"id":"osm:node:4100810220","latitude":40.4515812,"longitude":-3.7705381,"name":"Calle del Arroyo de Pozuelo near Calle del Enebro","properties":{"access":"unknown","bicycle_pa":"stands","capacity":10,"covered":"","fee":"","operator":"Ayuntamiento de Madrid","nameSource":"junction"},"sourceId":"osm"},{"id":"osm:node:4100810230","latitude":40.4571772,"longitude":-3.7118895,"name":"Avenida de Pablo Iglesias near Calle de Francos Rodríguez","properties":{"access":"unknown","bicycle_pa":"stands","capacity":10,"covered":"no","fee":"","operator":"Ayuntamiento de Madrid","nameSource":"junction"},"sourceId":"osm"},{"id":"osm:node:4102460791","latitude":40.4695258,"longitude":-3.6954862,"name":"Avenida de Asturias near Calle de los Vizcaínos","properties":{"access":"unknown","bicycle_pa":"stands","capacity":10,"covered":"","fee":"","operator":"Ayuntamiento de Madrid","nameSource":"junction"},"sourceId":"osm"},{"id":"osm:node:4102460798","latitude":40.4470105,"longitude":-3.7000754,"name":"Calle Dulcinea near Calle de Raimundo Fernández Villaverde","properties":{"access":"unknown","bicycle_pa":"stands","capacity":10,"covered":"","fee":"","operator":"Ayuntamiento de Madrid","nameSource":"junction"},"sourceId":"osm"},{"id":"osm:node:4102938003","latitude":40.4507122,"longitude":-3.6923233,"name":"Plaza de Carlos Trías Bertrán cycle parking","properties":{"access":"unknown","bicycle_pa":"","capacity":15,"covered":"yes","fee":"","operator":"","nameSource":"street"},"sourceId":"osm"},{"id":"osm:node:4102938013","latitude":40.4494402,"longitude":-3.6954284,"name":"Calle de la Basílica near Calle de Orense","properties":{"access":"unknown","bicycle_pa":"stands","capacity":10,"covered":"no","fee":"","operator":"Ayuntamiento de Madrid","nameSource":"junction"},"sourceId":"osm"},{"id":"osm:node:4102938016","latitude":40.4551047,"longitude":-3.7062714,"name":"Calle de Pamplona near Calle de Jerónima Llorente","properties":{"access":"unknown","bicycle_pa":"stands","capacity":10,"covered":"no","fee":"","operator":"Ayuntamiento de Madrid","nameSource":"junction"},"sourceId":"osm"},{"id":"osm:node:4102938028","latitude":40.4570734,"longitude":-3.7115922,"name":"Avenida de Pablo Iglesias near Glorieta de Rocío Durcal","properties":{"access":"unknown","bicycle_pa":"stands","capacity":10,"covered":"no","fee":"","operator":"Ayuntamiento de Madrid","nameSource":"junction"},"sourceId":"osm"},{"id":"osm:node:4102938030","latitude":40.4596968,"longitude":-3.6990668,"name":"Calle Pensamiento near Calle de Bravo Murillo","properties":{"access":"unknown","bicycle_pa":"stands","capacity":10,"covered":"no","fee":"","operator":"Ayuntamiento de Madrid","nameSource":"junction"},"sourceId":"osm"},{"id":"osm:node:4102938031","latitude":40.4611783,"longitude":-3.697945,"name":"Calle de Bravo Murillo near Calle del General Margallo","properties":{"access":"unknown","bicycle_pa":"stands","capacity":6,"covered":"no","fee":"","operator":"Ayuntamiento de Madrid","nameSource":"junction"},"sourceId":"osm"},{"id":"osm:node:4102938042","latitude":40.465119,"longitude":-3.6925108,"name":"Calle de Bravo Murillo near Calle de Pedro Moreno","properties":{"access":"unknown","bicycle_pa":"wall_loops","capacity":5,"covered":"no","fee":"","operator":"","nameSource":"junction"},"sourceId":"osm"},{"id":"osm:node:4103639918","latitude":40.4681231,"longitude":-3.6982381,"name":"Calle de Gabriel Portadales near Calle de Pinos Alta","properties":{"access":"unknown","bicycle_pa":"stands","capacity":10,"covered":"","fee":"","operator":"Ayuntamiento de Madrid","nameSource":"junction"},"sourceId":"osm"},{"id":"osm:node:4103639923","latitude":40.4612341,"longitude":-3.6954967,"name":"Calle de Francisco Gervás near Calle de la Infanta Mercedes","properties":{"access":"unknown","bicycle_pa":"stands","capacity":10,"covered":"no","fee":"","operator":"Ayuntamiento de Madrid","nameSource":"junction"},"sourceId":"osm"},{"id":"osm:node:4103639929","latitude":40.4504082,"longitude":-3.7242724,"name":"Plaza de las Ciencias near Calle de Leonardo Prieto Castro","properties":{"access":"unknown","bicycle_pa":"wall_loops","capacity":6,"covered":"no","fee":"","operator":"","nameSource":"junction"},"sourceId":"osm"},{"id":"osm:node:4103639930","latitude":40.4569914,"longitude":-3.6980325,"name":"Calle de la Infanta Mercedes near Calle de San Germán","properties":{"access":"unknown","bicycle_pa":"stands","capacity":6,"covered":"no","fee":"","operator":"","nameSource":"junction"},"sourceId":"osm"},{"id":"osm:node:4107301835","latitude":40.4579241,"longitude":-3.7157451,"name":"Calle de María Auxiliadora near Calle de los Pirineos","properties":{"access":"unknown","bicycle_pa":"stands","capacity":10,"covered":"no","fee":"","operator":"Ayuntamiento de Madrid","nameSource":"junction"},"sourceId":"osm"},{"id":"osm:node:4107301842","latitude":40.4508149,"longitude":-3.72772,"name":"Avenida Complutense near Plaza de las Ciencias","properties":{"access":"unknown","bicycle_pa":"stands","capacity":10,"covered":"","fee":"","operator":"Ayuntamiento de Madrid","nameSource":"junction"},"sourceId":"osm"},{"id":"osm:node:4107301857","latitude":40.4596001,"longitude":-3.7195417,"name":"Antigua Carretera de la Dehesa de la Villa near Calle de Francos Rodríguez","properties":{"access":"unknown","bicycle_pa":"stands","capacity":10,"covered":"no","fee":"","operator":"Ayuntamiento de Madrid","nameSource":"junction"},"sourceId":"osm"},{"id":"osm:node:4107301861","latitude":40.4663638,"longitude":-3.6918014,"name":"Calle del Conde de Serrallo near Calle Antonio González Echarte","properties":{"access":"unknown","bicycle_pa":"stands","capacity":10,"covered":"no","fee":"","operator":"Ayuntamiento de Madrid","nameSource":"junction"},"sourceId":"osm"},{"id":"osm:node:4108279146","latitude":40.4526722,"longitude":-3.7030514,"name":"Calle de Bravo Murillo near Calle de Ávila","properties":{"access":"unknown","bicycle_pa":"stands","capacity":10,"covered":"no","fee":"","operator":"Ayuntamiento de Madrid","nameSource":"junction"},"sourceId":"osm"},{"id":"osm:node:4108377378","latitude":40.4732083,"longitude":-3.6965367,"name":"Calle Vía Límite cycle parking","properties":{"access":"unknown","bicycle_pa":"stands","capacity":10,"covered":"no","fee":"","operator":"Ayuntamiento de Madrid","nameSource":"street"},"sourceId":"osm"},{"id":"osm:node:4108429757","latitude":40.4531874,"longitude":-3.7139198,"name":"Camino de Las Moreras near Avenida del Doctor Federico Rubio y Galí","properties":{"access":"unknown","bicycle_pa":"stands","capacity":10,"covered":"","fee":"","operator":"Ayuntamiento de Madrid","nameSource":"junction"},"sourceId":"osm"},{"id":"osm:node:4108429767","latitude":40.4660543,"longitude":-3.7189482,"name":"Calle de Antonio Machado near Calle de Sinesio Delgado","properties":{"access":"unknown","bicycle_pa":"stands","capacity":10,"covered":"","fee":"","operator":"Ayuntamiento de Madrid","nameSource":"junction"},"sourceId":"osm"},{"id":"osm:node:4108429769","latitude":40.4609853,"longitude":-3.7122126,"name":"Avenida Santo Ángel de la Guarda near Travesía General Hierro Martínez","properties":{"access":"yes","bicycle_pa":"stands","capacity":8,"covered":"no","fee":"no","operator":"Ayuntamiento de Madrid","nameSource":"junction"},"sourceId":"osm"},{"id":"osm:node:4108430789","latitude":40.450233,"longitude":-3.7466649,"name":"Anillo Verde Ciclista cycle parking","properties":{"access":"unknown","bicycle_pa":"anchors","capacity":8,"covered":"","fee":"","operator":"Ayuntamiento de Madrid","nameSource":"street"},"sourceId":"osm"},{"id":"osm:node:4108430790","latitude":40.4595592,"longitude":-3.7457045,"name":"Anillo Verde Ciclista near Puente de San Fernando","properties":{"access":"unknown","bicycle_pa":"anchors","capacity":8,"covered":"","fee":"","operator":"Ayuntamiento de Madrid","nameSource":"junction"},"sourceId":"osm"},{"id":"osm:node:4108430791","latitude":40.474106,"longitude":-3.7433689,"name":"Anillo Verde Ciclista by Santo Domingo de la Calzada","properties":{"access":"unknown","bicycle_pa":"anchors","capacity":8,"covered":"","fee":"","operator":"Ayuntamiento de Madrid","nameSource":"landmark"},"sourceId":"osm"},{"id":"osm:node:4109275189","latitude":40.4574953,"longitude":-3.705889,"name":"Calle de Ambrosio Vallejo near Calle de Cenicientos","properties":{"access":"unknown","bicycle_pa":"stands","capacity":10,"covered":"no","fee":"","operator":"Ayuntamiento de Madrid","nameSource":"junction"},"sourceId":"osm"},{"id":"osm:node:4109275198","latitude":40.463014,"longitude":-3.7027634,"name":"Calle del Marqués de Viana near Calle del Matadero","properties":{"access":"unknown","bicycle_pa":"stands","capacity":10,"covered":"no","fee":"","operator":"Ayuntamiento de Madrid","nameSource":"junction"},"sourceId":"osm"},{"id":"osm:node:4109275200","latitude":40.4522045,"longitude":-3.711441,"name":"Avenida de Pablo Iglesias near Avenida del Doctor Federico Rubio y Galí","properties":{"access":"yes","bicycle_pa":"stands","capacity":10,"covered":"no","fee":"","operator":"Ayuntamiento de Madrid","nameSource":"junction"},"sourceId":"osm"},{"id":"osm:node:4109275217","latitude":40.4526512,"longitude":-3.6983573,"name":"Avenida del General Perón near Calle del Aviador Zorita","properties":{"access":"unknown","bicycle_pa":"stands","capacity":10,"covered":"no","fee":"","operator":"Ayuntamiento de Madrid","nameSource":"junction"},"sourceId":"osm"},{"id":"osm:node:4109275232","latitude":40.5087248,"longitude":-3.703249,"name":"Anillo Verde Ciclista by Las campanas","properties":{"access":"unknown","bicycle_pa":"anchors","capacity":8,"covered":"","fee":"","operator":"Ayuntamiento de Madrid","nameSource":"landmark"},"sourceId":"osm"},{"id":"osm:node:4111605996","latitude":40.4498795,"longitude":-3.7221546,"name":"Sendero Arboreto Montes cycle parking","properties":{"access":"unknown","bicycle_pa":"anchors","capacity":6,"covered":"no","fee":"","operator":"","nameSource":"street"},"sourceId":"osm"},{"id":"osm:node:4111606003","latitude":40.4503662,"longitude":-3.7243207,"name":"Plaza de las Ciencias near Calle de Leonardo Prieto Castro","properties":{"access":"unknown","bicycle_pa":"anchors","capacity":24,"covered":"no","fee":"","operator":"","nameSource":"junction"},"sourceId":"osm"},{"id":"osm:node:4111680630","latitude":40.4562916,"longitude":-3.7118421,"name":"Calle Alejandro Rodríguez near Avenida de Pablo Iglesias","properties":{"access":"unknown","bicycle_pa":"stands","capacity":8,"covered":"no","fee":"","operator":"Ayuntamiento de Madrid","nameSource":"junction"},"sourceId":"osm"},{"id":"osm:node:4111680635","latitude":40.4689966,"longitude":-3.6977071,"name":"Plaza de Donoso near Calle de Marcelina","properties":{"access":"unknown","bicycle_pa":"stands","capacity":10,"covered":"","fee":"","operator":"Ayuntamiento de Madrid","nameSource":"junction"},"sourceId":"osm"},{"id":"osm:node:4111680645","latitude":40.4507927,"longitude":-3.7260217,"name":"Plaza de las Ciencias near Calle de Leonardo Prieto Castro","properties":{"access":"yes","bicycle_pa":"anchors","capacity":9,"covered":"no","fee":"","operator":"","nameSource":"junction"},"sourceId":"osm"},{"id":"osm:node:4111680646","latitude":40.449512,"longitude":-3.7257709,"name":"Plaza de las Ciencias by Museo de Astronomía y Geodesia","properties":{"access":"unknown","bicycle_pa":"","capacity":6,"covered":"","fee":"","operator":"","nameSource":"landmark"},"sourceId":"osm"},{"id":"osm:node:4111747778","latitude":40.4913925,"longitude":-3.693997,"name":"Calle Olesa de Montserrat near Calle de Manresa","properties":{"access":"unknown","bicycle_pa":"stands","capacity":10,"covered":"","fee":"","operator":"Ayuntamiento de Madrid","nameSource":"junction"},"sourceId":"osm"},{"id":"osm:node:4111749189","latitude":40.5017293,"longitude":-3.6932446,"name":"Calle de Alonso Quijano near Calle de Rocinante","properties":{"access":"unknown","bicycle_pa":"stands","capacity":10,"covered":"no","fee":"","operator":"Ayuntamiento de Madrid","nameSource":"junction"},"sourceId":"osm"},{"id":"osm:node:4112128783","latitude":40.4500782,"longitude":-3.7716256,"name":"Calle Bardegueral near Calle del Seis de Diciembre","properties":{"access":"unknown","bicycle_pa":"stands","capacity":10,"covered":"","fee":"","operator":"Ayuntamiento de Madrid","nameSource":"junction"},"sourceId":"osm"},{"id":"osm:node:4112128787","latitude":40.4578392,"longitude":-3.7122943,"name":"Calle de Francos Rodríguez near Glorieta de Rocío Durcal","properties":{"access":"unknown","bicycle_pa":"stands","capacity":10,"covered":"no","fee":"","operator":"Ayuntamiento de Madrid","nameSource":"junction"},"sourceId":"osm"},{"id":"osm:node:4112184922","latitude":40.4507416,"longitude":-3.7207873,"name":"Calle de Leonardo Prieto Castro by Biblioteca Bernardo de la Torre y Rojas","properties":{"access":"unknown","bicycle_pa":"anchors","capacity":6,"covered":"no","fee":"","operator":"","nameSource":"landmark"},"sourceId":"osm"},{"id":"osm:node:4112184923","latitude":40.4488377,"longitude":-3.7335456,"name":"Calle del Profesor Aranguren cycle parking","properties":{"access":"unknown","bicycle_pa":"wall_loops","capacity":20,"covered":"no","fee":"","operator":"","nameSource":"street"},"sourceId":"osm"},{"id":"osm:node:4112184935","latitude":40.451841,"longitude":-3.7228863,"name":"Calle de Leonardo Prieto Castro cycle parking","properties":{"access":"unknown","bicycle_pa":"wall_loops","capacity":6,"covered":"","fee":"","operator":"","nameSource":"street"},"sourceId":"osm"},{"id":"osm:node:4112206923","latitude":40.4792522,"longitude":-3.7065283,"name":"Avenida de Monforte de Lemos near Plaza de Arteijo","properties":{"access":"unknown","bicycle_pa":"anchors","capacity":10,"covered":"no","fee":"","operator":"","nameSource":"junction"},"sourceId":"osm"},{"id":"osm:node:4112206935","latitude":40.4509097,"longitude":-3.737896,"name":"Calle de Juan del Rosal cycle parking","properties":{"access":"unknown","bicycle_pa":"stands","capacity":6,"covered":"no","fee":"","operator":"","nameSource":"street"},"sourceId":"osm"},{"id":"osm:node:4112206936","latitude":40.4531925,"longitude":-3.7346269,"name":"Calle del Profesor José García Santesmases cycle parking","properties":{"access":"unknown","bicycle_pa":"wall_loops","capacity":12,"covered":"no","fee":"","operator":"","nameSource":"street"},"sourceId":"osm"},{"id":"osm:node:4112206937","latitude":40.4531966,"longitude":-3.7345773,"name":"Calle del Profesor José García Santesmases cycle parking","properties":{"access":"unknown","bicycle_pa":"wall_loops","capacity":12,"covered":"no","fee":"","operator":"","nameSource":"street"},"sourceId":"osm"},{"id":"osm:node:4112206938","latitude":40.4532099,"longitude":-3.7344438,"name":"Calle del Profesor José García Santesmases cycle parking","properties":{"access":"unknown","bicycle_pa":"wall_loops","capacity":12,"covered":"no","fee":"","operator":"","nameSource":"street"},"sourceId":"osm"},{"id":"osm:node:4112206939","latitude":40.453217,"longitude":-3.7343949,"name":"Calle del Profesor José García Santesmases cycle parking","properties":{"access":"unknown","bicycle_pa":"wall_loops","capacity":12,"covered":"no","fee":"","operator":"","nameSource":"street"},"sourceId":"osm"},{"id":"osm:node:4112206940","latitude":40.4517795,"longitude":-3.7366937,"name":"Calle de Juan del Rosal cycle parking","properties":{"access":"unknown","bicycle_pa":"stands","capacity":10,"covered":"","fee":"","operator":"","nameSource":"street"},"sourceId":"osm"},{"id":"osm:node:4112206943","latitude":40.4478748,"longitude":-3.7273566,"name":"Real Jardín Botánico Alfonso XIII cycle parking","properties":{"access":"unknown","bicycle_pa":"stands","capacity":12,"covered":"no","fee":"","operator":"Ayuntamiento de Madrid","nameSource":"street"},"sourceId":"osm"},{"id":"osm:node:4112206944","latitude":40.4479724,"longitude":-3.7272737,"name":"Real Jardín Botánico Alfonso XIII cycle parking","properties":{"access":"unknown","bicycle_pa":"stands","capacity":12,"covered":"no","fee":"","operator":"Ayuntamiento de Madrid","nameSource":"street"},"sourceId":"osm"},{"id":"osm:node:4112206952","latitude":40.4705329,"longitude":-3.705363,"name":"Paseo de la Dirección cycle parking","properties":{"access":"unknown","bicycle_pa":"wall_loops","capacity":5,"covered":"","fee":"","operator":"Ayuntamiento de Madrid","nameSource":"street"},"sourceId":"osm"},{"id":"osm:node:4112206953","latitude":40.470549,"longitude":-3.705112,"name":"Calle de Jaramagos cycle parking","properties":{"access":"unknown","bicycle_pa":"wall_loops","capacity":5,"covered":"","fee":"","operator":"Ayuntamiento de Madrid","nameSource":"street"},"sourceId":"osm"},{"id":"osm:node:4112206954","latitude":40.4712558,"longitude":-3.7079321,"name":"Calle de Sinesio Delgado cycle parking","properties":{"access":"unknown","bicycle_pa":"","capacity":10,"covered":"","fee":"","operator":"Ayuntamiento de Madrid","nameSource":"street"},"sourceId":"osm"},{"id":"osm:node:4112206955","latitude":40.4715676,"longitude":-3.7061989,"name":"Calle de Sinesio Delgado cycle parking","properties":{"access":"unknown","bicycle_pa":"wall_loops","capacity":5,"covered":"","fee":"","operator":"Ayuntamiento de Madrid","nameSource":"street"},"sourceId":"osm"},{"id":"osm:node:4112236529","latitude":40.5004439,"longitude":-3.6943697,"name":"Calle del Retablo de Melisendra cycle parking","properties":{"access":"unknown","bicycle_pa":"stands","capacity":10,"covered":"","fee":"","operator":"Ayuntamiento de Madrid","nameSource":"street"},"sourceId":"osm"},{"id":"osm:node:5830690790","latitude":40.4802157,"longitude":-3.7524296,"name":"Carretera de El Pardo cycle parking","properties":{"access":"unknown","bicycle_pa":"","capacity":0,"covered":"","fee":"","operator":"","nameSource":"street"},"sourceId":"osm"},{"id":"osm:node:6015881809","latitude":40.4507407,"longitude":-3.7262088,"name":"Plaza de las Ciencias near Calle de Leonardo Prieto Castro","properties":{"access":"yes","bicycle_pa":"stands","capacity":2,"covered":"no","fee":"","operator":"","nameSource":"junction"},"sourceId":"osm"},{"id":"osm:node:6015881810","latitude":40.4507693,"longitude":-3.7261468,"name":"Plaza de las Ciencias near Calle de Leonardo Prieto Castro","properties":{"access":"yes","bicycle_pa":"stands","capacity":2,"covered":"no","fee":"","operator":"","nameSource":"junction"},"sourceId":"osm"},{"id":"osm:node:6015881811","latitude":40.4507078,"longitude":-3.7262032,"name":"Plaza de las Ciencias near Calle de Leonardo Prieto Castro","properties":{"access":"yes","bicycle_pa":"stands","capacity":2,"covered":"no","fee":"","operator":"","nameSource":"junction"},"sourceId":"osm"},{"id":"osm:node:6015881812","latitude":40.4507685,"longitude":-3.7259516,"name":"Plaza de las Ciencias near Calle de Leonardo Prieto Castro","properties":{"access":"yes","bicycle_pa":"stands","capacity":2,"covered":"no","fee":"","operator":"","nameSource":"junction"},"sourceId":"osm"},{"id":"osm:node:6313090416","latitude":40.4502503,"longitude":-3.7731862,"name":"Calle del Poleo near Calle Rosa Luxemburgo","properties":{"access":"unknown","bicycle_pa":"","capacity":0,"covered":"","fee":"","operator":"","nameSource":"junction"},"sourceId":"osm"},{"id":"osm:node:6313090489","latitude":40.4499096,"longitude":-3.7726574,"name":"Calle del Seis de Diciembre near Calle de la Alcancía","properties":{"access":"unknown","bicycle_pa":"","capacity":0,"covered":"","fee":"","operator":"","nameSource":"junction"},"sourceId":"osm"},{"id":"osm:node:758267225","latitude":40.4475832,"longitude":-3.727591,"name":"Avenida Complutense cycle parking","properties":{"access":"unknown","bicycle_pa":"stands","capacity":10,"covered":"no","fee":"","operator":"","nameSource":"street"},"sourceId":"osm"},{"id":"osm:node:8255907419","latitude":40.4482399,"longitude":-3.6943473,"name":"Avenida Centrum near Calle de Agustín de Betancourt","properties":{"access":"yes","bicycle_pa":"stands","capacity":16,"covered":"no","fee":"no","operator":"","nameSource":"junction"},"sourceId":"osm"},{"id":"osm:node:8406295426","latitude":40.4497014,"longitude":-3.7099177,"name":"Avenida de Pablo Iglesias near Calle de Almansa","properties":{"access":"yes","bicycle_pa":"stands","capacity":8,"covered":"no","fee":"no","operator":"","nameSource":"junction"},"sourceId":"osm"},{"id":"osm:node:8406295427","latitude":40.4479044,"longitude":-3.7041084,"name":"Calle de Bravo Murillo near Calle de Guipúzcoa","properties":{"access":"yes","bicycle_pa":"stands","capacity":12,"covered":"no","fee":"no","operator":"Ayuntamiento de Madrid","nameSource":"junction"},"sourceId":"osm"},{"id":"osm:node:8423643639","latitude":40.4655105,"longitude":-3.6942493,"name":"Calle de la Viña Virgen near Calle de Simancas","properties":{"access":"yes","bicycle_pa":"stands","capacity":12,"covered":"no","fee":"no","operator":"Ayuntamiento de Madrid","nameSource":"junction"},"sourceId":"osm"},{"id":"osm:node:8423643640","latitude":40.4482095,"longitude":-3.6952734,"name":"Calle de Orense near Calle de Hernani","properties":{"access":"yes","bicycle_pa":"stands","capacity":10,"covered":"no","fee":"no","operator":"Ayuntamiento de Madrid","nameSource":"junction"},"sourceId":"osm"},{"id":"osm:node:9234653871","latitude":40.4491183,"longitude":-3.7339525,"name":"Calle del Profesor Aranguren cycle parking","properties":{"access":"unknown","bicycle_pa":"informal","capacity":20,"covered":"yes","fee":"no","operator":"","nameSource":"street"},"sourceId":"osm"},{"id":"osm:node:9524178423","latitude":40.4611486,"longitude":-3.6994015,"name":"Calle del Marqués de Viana near Calle de Ceuta","properties":{"access":"unknown","bicycle_pa":"stands","capacity":8,"covered":"no","fee":"","operator":"","nameSource":"junction"},"sourceId":"osm"},{"id":"osm:node:9727153306","latitude":40.4710277,"longitude":-3.6982177,"name":"Avenida de Asturias near Calle de Baracaldo","properties":{"access":"yes","bicycle_pa":"stands","capacity":10,"covered":"no","fee":"no","operator":"","nameSource":"junction"},"sourceId":"osm"},{"id":"osm:way:1259139710","latitude":40.45912372,"longitude":-3.71572842,"name":"Calle de Francos Rodríguez near Calle de los Pirineos","properties":{"access":"unknown","bicycle_pa":"wall_loops","capacity":24,"covered":"yes","fee":"","operator":"","nameSource":"junction"},"sourceId":"osm"},{"id":"osm:way:1408542005","latitude":40.505772300000004,"longitude":-3.69899142,"name":"Avenida del Santuario de Valverde near Avenida de Montecarmelo","properties":{"access":"yes","bicycle_pa":"stands","capacity":10,"covered":"","fee":"","operator":"","nameSource":"junction"},"sourceId":"osm"},{"id":"osm:way:1452003161","latitude":40.481781983333335,"longitude":-3.7042663499999997,"name":"Calle de Pedro Rico near Glorieta de las Reales Academias","properties":{"access":"yes","bicycle_pa":"stands","capacity":10,"covered":"no","fee":"no","operator":"","nameSource":"junction"},"sourceId":"osm"},{"id":"osm:way:1452003191","latitude":40.48214812,"longitude":-3.70325482,"name":"Calle de Pedro Rico near Calle de Finisterre","properties":{"access":"yes","bicycle_pa":"stands","capacity":10,"covered":"no","fee":"no","operator":"","nameSource":"junction"},"sourceId":"osm"},{"id":"osm:way:1452570264","latitude":40.483388360000006,"longitude":-3.6997194,"name":"Calle de Pedro Rico near Calle del Arzobispo Morcillo","properties":{"access":"yes","bicycle_pa":"floor","capacity":0,"covered":"","fee":"","operator":"","nameSource":"junction"},"sourceId":"osm"},{"id":"osm:way:755174760","latitude":40.476904499999996,"longitude":-3.753068783333333,"name":"M-40 cycle parking","properties":{"access":"unknown","bicycle_pa":"","capacity":0,"covered":"","fee":"","operator":"","nameSource":"street"},"sourceId":"osm"}],"schemaVersion":2}
