{"key":"12/2005/1547","points":[{"id":"osm:node:10125526512","latitude":40.2424001,"longitude":-3.7034172,"name":"Calle del Cristo near Calle del Ferrocarril","properties":{"access":"yes","bicycle_pa":"rack","capacity":50,"covered":"yes","fee":"","operator":"","nameSource":"junction"},"sourceId":"osm"},{"id":"osm:node:11099653797","latitude":40.2377767,"longitude":-3.7727447,"name":"Plaza de la Constitución near Calle del Hospital","properties":{"access":"yes","bicycle_pa":"stands","capacity":8,"covered":"no","fee":"no","operator":"","nameSource":"junction"},"sourceId":"osm"},{"id":"osm:node:12652304968","latitude":40.2324547,"longitude":-3.7653451,"name":"Calle Fernando III El Santo near Calle Isabel II","properties":{"access":"yes","bicycle_pa":"stands","capacity":10,"covered":"no","fee":"no","operator":"Ayuntamiento de Parla","nameSource":"junction"},"sourceId":"osm"},{"id":"osm:node:12652304969","latitude":40.2326571,"longitude":-3.7656371,"name":"Calle Isabel II near Calle Fernando III El Santo","properties":{"access":"yes","bicycle_pa":"stands","capacity":10,"covered":"no","fee":"no","operator":"Ayuntamiento de Parla","nameSource":"junction"},"sourceId":"osm"},{"id":"osm:node:12825797905","latitude":40.2335218,"longitude":-3.7656699,"name":"Aparcabicis biblioteca municipal \"Gloria Fuertes\"","properties":{"access":"customers","bicycle_pa":"rack","capacity":0,"covered":"no","fee":"no","operator":"Ayuntamiento de Parla","nameSource":"source"},"sourceId":"osm"},{"id":"osm:node:12889046058","latitude":40.2353271,"longitude":-3.7659924,"name":"Calle Isabel II near Calle Independencia","properties":{"access":"unknown","bicycle_pa":"stands","capacity":10,"covered":"no","fee":"no","operator":"","nameSource":"junction"},"sourceId":"osm"},{"id":"osm:node:4896944834","latitude":40.2335573,"longitude":-3.7657396,"name":"Calle Alfonso XIII near Calle Isabel II","properties":{"access":"unknown","bicycle_pa":"","capacity":0,"covered":"","fee":"","operator":"","nameSource":"junction"},"sourceId":"osm"},{"id":"osm:node:8832808907","latitude":40.2444441,"longitude":-3.6977968,"name":"Calle de Alfaro near Calle Rafael Alberti","properties":{"access":"unknown","bicycle_pa":"","capacity":0,"covered":"","fee":"","operator":"","nameSource":"junction"},"sourceId":"osm"}],"schemaVersion":2}
