{"key":"12/2005/1546","points":[{"categories":["shop"],"id":"osm:node:11218080003","latitude":40.2871728,"longitude":-3.7573775,"name":"Bicimanitas","properties":{},"sourceId":"osm"},{"categories":["shop"],"id":"osm:node:13368984170","latitude":40.2524873,"longitude":-3.6947671,"name":"Bicilab","properties":{},"sourceId":"osm"},{"categories":["shop"],"id":"osm:node:1416767561","latitude":40.3126525,"longitude":-3.7159015,"name":"Bicycle shop","properties":{},"sourceId":"osm"},{"categories":["hire"],"id":"osm:node:4379285532","latitude":40.3128093,"longitude":-3.7273864,"name":"Gbici - Madrid - J. Cierva","properties":{"brand":"Gbici","network":"Gbici","openingHours":"24/7","operator":"Ayuntamiento de Getafe","website":"http://gbici.es/"},"sourceId":"osm"},{"categories":["hire"],"id":"osm:node:5308594949","latitude":40.3000622,"longitude":-3.7532401,"name":"Gbici - Manuel Azaña","properties":{"brand":"Gbici","network":"Gbici","openingHours":"24/7","operator":"Ayuntamiento de Getafe","website":"http://gbici.es/"},"sourceId":"osm"},{"categories":["hire"],"id":"osm:node:5308594950","latitude":40.2954131,"longitude":-3.7442671,"name":"Gbici - Conservatorio","properties":{"brand":"Gbici","network":"Gbici","openingHours":"24/7","operator":"Ayuntamiento de Getafe","website":"http://gbici.es/"},"sourceId":"osm"},{"categories":["hire"],"id":"osm:node:5308594951","latitude":40.3031202,"longitude":-3.7374514,"name":"Gbici - Alhóndiga CC","properties":{"brand":"Gbici","network":"Gbici","openingHours":"24/7","operator":"Ayuntamiento de Getafe","website":"http://gbici.es/"},"sourceId":"osm"},{"categories":["hire"],"id":"osm:node:5308594952","latitude":40.3101321,"longitude":-3.7337057,"name":"Gbici - Getafe Central","properties":{"brand":"Gbici","network":"Gbici","openingHours":"24/7","operator":"Ayuntamiento de Getafe","website":"http://gbici.es/"},"sourceId":"osm"},{"categories":["hire"],"id":"osm:node:5308594953","latitude":40.3048679,"longitude":-3.7316564,"name":"Gbici - Plaza Carretas","properties":{"brand":"Gbici","network":"Gbici","openingHours":"24/7","operator":"Ayuntamiento de Getafe","website":"http://gbici.es/"},"sourceId":"osm"},{"categories":["hire"],"id":"osm:node:5308621030","latitude":40.3088861,"longitude":-3.7248922,"name":"Gbici - Plaza de España","properties":{"brand":"Gbici","network":"Gbici","openingHours":"24/7","operator":"Ayuntamiento de Getafe","website":"http://gbici.es/"},"sourceId":"osm"},{"categories":["hire"],"id":"osm:node:5308621031","latitude":40.3114433,"longitude":-3.7186028,"name":"Gbici - CC J. Cierva","properties":{"brand":"Gbici","network":"Gbici","openingHours":"24/7","operator":"Ayuntamiento de Getafe","website":"http://gbici.es/"},"sourceId":"osm"},{"categories":["hire"],"id":"osm:node:5310024882","latitude":40.3035729,"longitude":-3.7300607,"name":"Gbici - Pl. La Magdalena","properties":{"brand":"Gbici","network":"Gbici","openingHours":"24/7","operator":"Ayuntamiento de Getafe","website":"http://gbici.es/"},"sourceId":"osm"},{"categories":["shop","hire"],"id":"osm:node:5310024883","latitude":40.3063306,"longitude":-3.7306733,"name":"Gbici - Avanza Interurbanos SL","properties":{"brand":"Gbici","network":"Gbici","openingHours":"Mo-Fr 10:00-14:00,17:00-20:00; Sa 10:00-14:00","operator":"Ayuntamiento de Getafe","serviceRental":"yes","website":"http://gbici.es/"},"sourceId":"osm"}],"schemaVersion":2}
