{"key":"12/1949/1340","points":[{"id":"osm:node:11151934025","latitude":52.66994,"longitude":-8.6582626,"name":"Ennis Road cycle parking","properties":{"access":"yes","bicycle_pa":"stands","capacity":40,"covered":"no","fee":"no","operator":"","nameSource":"street"},"sourceId":"osm"},{"id":"osm:node:11151934026","latitude":52.6698078,"longitude":-8.6577708,"name":"Ennis Road by KFC","properties":{"access":"yes","bicycle_pa":"stands","capacity":46,"covered":"no","fee":"no","operator":"","nameSource":"landmark"},"sourceId":"osm"},{"id":"osm:node:11151957358","latitude":52.668437,"longitude":-8.6599888,"name":"Jetland Shopping Centre by Vue","properties":{"access":"yes","bicycle_pa":"stands","capacity":30,"covered":"yes","fee":"no","operator":"","nameSource":"landmark"},"sourceId":"osm"},{"id":"osm:node:11179504992","latitude":52.6654361,"longitude":-8.6320002,"name":"O'Callaghan Strand by Niall Colgan Hairdressing","properties":{"access":"yes","bicycle_pa":"stands","capacity":10,"covered":"no","fee":"no","operator":"","nameSource":"landmark"},"sourceId":"osm"},{"id":"osm:node:11179549134","latitude":52.6707001,"longitude":-8.6596465,"name":"Ennis Road by Hacket's Bookmakers","properties":{"access":"unknown","bicycle_pa":"stands","capacity":4,"covered":"yes","fee":"no","operator":"Lidl","nameSource":"landmark"},"sourceId":"osm"},{"id":"osm:node:11179561520","latitude":52.6691735,"longitude":-8.6150819,"name":"Pa Healy Road near College Park","properties":{"access":"yes","bicycle_pa":"stands","capacity":8,"covered":"no","fee":"no","operator":"","nameSource":"junction"},"sourceId":"osm"},{"id":"osm:node:11179561521","latitude":52.6689897,"longitude":-8.6148507,"name":"Pa Healy Road near College Park","properties":{"access":"unknown","bicycle_pa":"front_wheel","capacity":5,"covered":"","fee":"no","operator":"","nameSource":"junction"},"sourceId":"osm"},{"id":"osm:node:11179570478","latitude":52.6697172,"longitude":-8.6244879,"name":"Castle Lane near Nicholas Street","properties":{"access":"yes","bicycle_pa":"stands","capacity":6,"covered":"no","fee":"no","operator":"","nameSource":"junction"},"sourceId":"osm"},{"id":"osm:node:11179573923","latitude":52.6659844,"longitude":-8.6315168,"name":"O'Callaghan Strand near Ennis Road","properties":{"access":"unknown","bicycle_pa":"wall_loops","capacity":5,"covered":"no","fee":"","operator":"","nameSource":"junction"},"sourceId":"osm"},{"id":"osm:node:11179573925","latitude":52.6582576,"longitude":-8.6388632,"name":"Dock Road near Saint Alphonsus Street","properties":{"access":"customers","bicycle_pa":"stands","capacity":16,"covered":"no","fee":"no","operator":"Lidl","nameSource":"junction"},"sourceId":"osm"},{"id":"osm:node:11179577261","latitude":52.6615222,"longitude":-8.6329982,"name":"The Bishop's Quay near R527","properties":{"access":"yes","bicycle_pa":"stands","capacity":4,"covered":"no","fee":"no","operator":"Limerick City and County Council","nameSource":"junction"},"sourceId":"osm"},{"id":"osm:node:11179577262","latitude":52.6618012,"longitude":-8.6325875,"name":"Mill Lane near The Bishop's Quay","properties":{"access":"yes","bicycle_pa":"stands","capacity":6,"covered":"no","fee":"no","operator":"Limerick City and County Council","nameSource":"junction"},"sourceId":"osm"},{"id":"osm:node:11179577263","latitude":52.6623726,"longitude":-8.6319188,"name":"The Bishop's Quay near Cecil Street Lower","properties":{"access":"yes","bicycle_pa":"stands","capacity":6,"covered":"no","fee":"no","operator":"Limerick City and County Council","nameSource":"junction"},"sourceId":"osm"},{"id":"osm:node:11179595551","latitude":52.6619825,"longitude":-8.6267015,"name":"Catherine Street near Roches Street","properties":{"access":"yes","bicycle_pa":"stands","capacity":4,"covered":"no","fee":"no","operator":"Limerick City and County Council","nameSource":"junction"},"sourceId":"osm"},{"id":"osm:node:11179595552","latitude":52.6621176,"longitude":-8.626657,"name":"Catherine Street near Roches Street","properties":{"access":"yes","bicycle_pa":"stands","capacity":2,"covered":"no","fee":"no","operator":"Limerick City and County Council","nameSource":"junction"},"sourceId":"osm"},{"id":"osm:node:11179600728","latitude":52.6625826,"longitude":-8.6237111,"name":"Foxe's Bow near William Street","properties":{"access":"yes","bicycle_pa":"stands","capacity":2,"covered":"no","fee":"no","operator":"Limerick City and County Council","nameSource":"junction"},"sourceId":"osm"},{"id":"osm:node:11179600729","latitude":52.6626168,"longitude":-8.6238025,"name":"Foxe's Bow near William Street","properties":{"access":"yes","bicycle_pa":"stands","capacity":2,"covered":"no","fee":"no","operator":"Limerick City and County Council","nameSource":"junction"},"sourceId":"osm"},{"id":"osm:node:11179603543","latitude":52.6616786,"longitude":-8.6290866,"name":"O'Connell Street near Cecil Street","properties":{"access":"yes","bicycle_pa":"stands","capacity":10,"covered":"no","fee":"no","operator":"Limerick City and County Council","nameSource":"junction"},"sourceId":"osm"},{"id":"osm:node:11179603546","latitude":52.6622022,"longitude":-8.6283257,"name":"O'Connell Street near Roches Street","properties":{"access":"yes","bicycle_pa":"stands","capacity":6,"covered":"no","fee":"no","operator":"Limerick City and County Council","nameSource":"junction"},"sourceId":"osm"},{"id":"osm:node:11179603547","latitude":52.6619721,"longitude":-8.6288139,"name":"O'Connell Street near Cecil Street","properties":{"access":"yes","bicycle_pa":"stands","capacity":12,"covered":"no","fee":"no","operator":"Limerick City and County Council","nameSource":"junction"},"sourceId":"osm"},{"id":"osm:node:11179604160","latitude":52.6630946,"longitude":-8.6247135,"name":"Chapel Street near Cruise's Street","properties":{"access":"yes","bicycle_pa":"stands","capacity":2,"covered":"no","fee":"no","operator":"Limerick City and County Council","nameSource":"junction"},"sourceId":"osm"},{"id":"osm:node:11179604162","latitude":52.6645822,"longitude":-8.6284313,"name":"Sarsfield Street near Henry Street","properties":{"access":"private","bicycle_pa":"shed","capacity":0,"covered":"","fee":"","operator":"","nameSource":"junction"},"sourceId":"osm"},{"id":"osm:node:11186852794","latitude":52.6615224,"longitude":-8.6313153,"name":"Henry Street near Lower Glentworth Street","properties":{"access":"yes","bicycle_pa":"stands","capacity":8,"covered":"no","fee":"no","operator":"","nameSource":"junction"},"sourceId":"osm"},{"id":"osm:node:11186852795","latitude":52.6615395,"longitude":-8.6313677,"name":"Henry Street near Lower Glentworth Street","properties":{"access":"yes","bicycle_pa":"stands","capacity":4,"covered":"no","fee":"no","operator":"","nameSource":"junction"},"sourceId":"osm"},{"id":"osm:node:11186859629","latitude":52.6614081,"longitude":-8.6307052,"name":"Lower Glentworth Street near Post Office Lane","properties":{"access":"yes","bicycle_pa":"stands","capacity":3,"covered":"no","fee":"no","operator":"","nameSource":"junction"},"sourceId":"osm"},{"id":"osm:node:11186859630","latitude":52.6613759,"longitude":-8.6310289,"name":"Henry Street near Lower Glentworth Street","properties":{"access":"yes","bicycle_pa":"stands","capacity":1,"covered":"no","fee":"no","operator":"","nameSource":"junction"},"sourceId":"osm"},{"id":"osm:node:11186859631","latitude":52.6613365,"longitude":-8.630926,"name":"Lower Glentworth Street near Henry Street","properties":{"access":"yes","bicycle_pa":"stands","capacity":1,"covered":"no","fee":"no","operator":"","nameSource":"junction"},"sourceId":"osm"},{"id":"osm:node:11186887979","latitude":52.661082,"longitude":-8.6296982,"name":"O'Connell Street near Glentworth Street","properties":{"access":"yes","bicycle_pa":"stands","capacity":4,"covered":"no","fee":"no","operator":"","nameSource":"junction"},"sourceId":"osm"},{"id":"osm:node:11186887980","latitude":52.6625362,"longitude":-8.6279981,"name":"O'Connell Street near Roches Street","properties":{"access":"unknown","bicycle_pa":"stands","capacity":8,"covered":"no","fee":"no","operator":"Limerick City and County Council","nameSource":"junction"},"sourceId":"osm"},{"id":"osm:node:11186887981","latitude":52.6631725,"longitude":-8.6271601,"name":"Thomas Street near Bedford Row","properties":{"access":"yes","bicycle_pa":"stands","capacity":6,"covered":"no","fee":"no","operator":"Limerick City and County Council","nameSource":"junction"},"sourceId":"osm"},{"id":"osm:node:11186887982","latitude":52.6630562,"longitude":-8.6268759,"name":"Augustinian Lane near Thomas Street","properties":{"access":"yes","bicycle_pa":"stands","capacity":6,"covered":"no","fee":"no","operator":"Limerick City and County Council","nameSource":"junction"},"sourceId":"osm"},{"id":"osm:node:11189247432","latitude":52.6583149,"longitude":-8.6261267,"name":"R858 near Boherbuoy","properties":{"access":"yes","bicycle_pa":"stands","capacity":8,"covered":"no","fee":"no","operator":"Limerick City and County Council","nameSource":"junction"},"sourceId":"osm"},{"id":"osm:node:11189247433","latitude":52.6591938,"longitude":-8.6281478,"name":"Mallow Street Upper near Mallow Street","properties":{"access":"yes","bicycle_pa":"stands","capacity":6,"covered":"no","fee":"no","operator":"Limerick City and County Council","nameSource":"junction"},"sourceId":"osm"},{"id":"osm:node:11381718296","latitude":52.6670133,"longitude":-8.6157364,"name":"Mona Terrace near Saint Lelia's Place","properties":{"access":"unknown","bicycle_pa":"stands","capacity":3,"covered":"","fee":"","operator":"","nameSource":"junction"},"sourceId":"osm"},{"id":"osm:node:11748184639","latitude":52.6482053,"longitude":-8.6166886,"name":"Childers Road cycle parking","properties":{"access":"yes","bicycle_pa":"stands","capacity":8,"covered":"no","fee":"no","operator":"","nameSource":"street"},"sourceId":"osm"},{"id":"osm:node:12218964169","latitude":52.6644654,"longitude":-8.623636,"name":"Ellen Street near Michael Street","properties":{"access":"yes","bicycle_pa":"stands","capacity":6,"covered":"no","fee":"no","operator":"Limerick City and County Council","nameSource":"junction"},"sourceId":"osm"},{"id":"osm:node:12218964171","latitude":52.664476,"longitude":-8.6236244,"name":"Ellen Street near Michael Street","properties":{"access":"private","bicycle_pa":"shed","capacity":0,"covered":"yes","fee":"","operator":"Limerick City and County Council","nameSource":"junction"},"sourceId":"osm"},{"id":"osm:node:12248099786","latitude":52.6635266,"longitude":-8.6218622,"name":"Black Bull Lane near Mungret Street","properties":{"access":"unknown","bicycle_pa":"stands","capacity":4,"covered":"no","fee":"","operator":"","nameSource":"junction"},"sourceId":"osm"},{"id":"osm:node:12307112418","latitude":52.6624742,"longitude":-8.6309044,"name":"Cecil Street Lower near Howley's Quay","properties":{"access":"yes","bicycle_pa":"stands","capacity":10,"covered":"no","fee":"no","operator":"Limerick City and County Council","nameSource":"junction"},"sourceId":"osm"},{"id":"osm:node:12307393305","latitude":52.6638091,"longitude":-8.6289261,"name":"Bedford Row near Henry Street","properties":{"access":"yes","bicycle_pa":"stands","capacity":6,"covered":"no","fee":"no","operator":"Limerick City and County Council","nameSource":"junction"},"sourceId":"osm"},{"id":"osm:node:12307393306","latitude":52.6633898,"longitude":-8.6278611,"name":"Bedford Row near O'Connell Street","properties":{"access":"yes","bicycle_pa":"stands","capacity":6,"covered":"no","fee":"no","operator":"Limerick City and County Council","nameSource":"junction"},"sourceId":"osm"},{"id":"osm:node:12328634064","latitude":52.662373,"longitude":-8.6262765,"name":"Augustinian Lane near Catherine Street","properties":{"access":"yes","bicycle_pa":"stands","capacity":2,"covered":"no","fee":"no","operator":"Limerick City and County Council","nameSource":"junction"},"sourceId":"osm"},{"id":"osm:node:12328638248","latitude":52.6625418,"longitude":-8.6261009,"name":"Catherine Street near Ersons Lane","properties":{"access":"yes","bicycle_pa":"stands","capacity":14,"covered":"no","fee":"no","operator":"Limerick City and County Council","nameSource":"junction"},"sourceId":"osm"},{"id":"osm:node:12376315577","latitude":52.6635031,"longitude":-8.6217022,"name":"Benson's Lane near Mungret Street","properties":{"access":"yes","bicycle_pa":"stands","capacity":12,"covered":"no","fee":"no","operator":"Limerick City and County Council","nameSource":"junction"},"sourceId":"osm"},{"id":"osm:node:12376315578","latitude":52.6638774,"longitude":-8.6218332,"name":"Mungret Court near Mungret Street","properties":{"access":"yes","bicycle_pa":"stands","capacity":4,"covered":"no","fee":"no","operator":"Limerick City and County Council","nameSource":"junction"},"sourceId":"osm"},{"id":"osm:node:12656772774","latitude":52.6643451,"longitude":-8.6261859,"name":"Cruise's Street near O'Connell Street","properties":{"access":"unknown","bicycle_pa":"stands","capacity":8,"covered":"","fee":"","operator":"","nameSource":"junction"},"sourceId":"osm"},{"id":"osm:node:12657037330","latitude":52.6606044,"longitude":-8.6242118,"name":"Parnell Street near Roches Street","properties":{"access":"unknown","bicycle_pa":"stands","capacity":0,"covered":"","fee":"","operator":"","nameSource":"junction"},"sourceId":"osm"},{"id":"osm:node:13079276055","latitude":52.6678432,"longitude":-8.6236029,"name":"Bridge Street near Courthouse Lane","properties":{"access":"yes","bicycle_pa":"stands","capacity":8,"covered":"no","fee":"no","operator":"","nameSource":"junction"},"sourceId":"osm"},{"id":"osm:node:13079616387","latitude":52.660775,"longitude":-8.6264282,"name":"Cecil Street near Dominic Street","properties":{"access":"yes","bicycle_pa":"stands","capacity":8,"covered":"no","fee":"no","operator":"","nameSource":"junction"},"sourceId":"osm"},{"id":"osm:node:13079616388","latitude":52.660802,"longitude":-8.6264071,"name":"Cecil Street near Dominic Street","properties":{"access":"permit","bicycle_pa":"shed","capacity":0,"covered":"","fee":"","operator":"Limerick City and County Council","nameSource":"junction"},"sourceId":"osm"},{"id":"osm:node:13079620700","latitude":52.6686565,"longitude":-8.6246677,"name":"Crosbie Row near Newgate Lane","properties":{"access":"yes","bicycle_pa":"stands","capacity":4,"covered":"","fee":"no","operator":"Limerick City and County Council","nameSource":"junction"},"sourceId":"osm"},{"id":"osm:node:13079770421","latitude":52.6669567,"longitude":-8.6227848,"name":"Creagh Lane near Georges Quay","properties":{"access":"yes","bicycle_pa":"stands","capacity":2,"covered":"no","fee":"no","operator":"Limerick City and County Council","nameSource":"junction"},"sourceId":"osm"},{"id":"osm:node:13079770422","latitude":52.6669112,"longitude":-8.622235,"name":"Creagh Lane near Georges Quay","properties":{"access":"yes","bicycle_pa":"stands","capacity":6,"covered":"no","fee":"no","operator":"Limerick City and County Council","nameSource":"junction"},"sourceId":"osm"},{"id":"osm:node:13079770423","latitude":52.6666639,"longitude":-8.6214759,"name":"Georges Quay by Barrington's Hospital","properties":{"access":"yes","bicycle_pa":"stands","capacity":4,"covered":"no","fee":"no","operator":"Limerick City and County Council","nameSource":"landmark"},"sourceId":"osm"},{"id":"osm:node:2103110467","latitude":52.6649462,"longitude":-8.6265393,"name":"Honan's Quay near Arthur's Quay","properties":{"access":"unknown","bicycle_pa":"anchors","capacity":4,"covered":"no","fee":"","operator":"","nameSource":"junction"},"sourceId":"osm"},{"id":"osm:node:2103110468","latitude":52.6649284,"longitude":-8.6262955,"name":"Arthur's Quay near Honan's Quay","properties":{"access":"unknown","bicycle_pa":"","capacity":0,"covered":"no","fee":"","operator":"","nameSource":"junction"},"sourceId":"osm"},{"id":"osm:node:2103114713","latitude":52.6584413,"longitude":-8.6236857,"name":"Siege cycle parking","properties":{"access":"unknown","bicycle_pa":"stands","capacity":10,"covered":"yes","fee":"","operator":"","nameSource":"landmark"},"sourceId":"osm"},{"id":"osm:node:4990729395","latitude":52.6666838,"longitude":-8.6201117,"name":"Little Fish Lane near Mary Street","properties":{"access":"private","bicycle_pa":"stands","capacity":12,"covered":"no","fee":"","operator":"","nameSource":"junction"},"sourceId":"osm"},{"id":"osm:node:5209296408","latitude":52.6666091,"longitude":-8.6179647,"name":"R445 near Dublin Road","properties":{"access":"unknown","bicycle_pa":"stands","capacity":4,"covered":"no","fee":"","operator":"","nameSource":"junction"},"sourceId":"osm"},{"id":"osm:node:5404465231","latitude":52.6755795,"longitude":-8.6472796,"name":"EVBox Charging Station cycle parking","properties":{"access":"unknown","bicycle_pa":"stands","capacity":0,"covered":"no","fee":"","operator":"","nameSource":"landmark"},"sourceId":"osm"},{"id":"osm:node:5404465232","latitude":52.6743647,"longitude":-8.6483257,"name":"Old Cratloe Road near Moylish Roundabout","properties":{"access":"unknown","bicycle_pa":"stands","capacity":12,"covered":"no","fee":"","operator":"","nameSource":"junction"},"sourceId":"osm"},{"id":"osm:node:6880745187","latitude":52.6484987,"longitude":-8.6352052,"name":"Childers Road near Oakview Drive","properties":{"access":"yes","bicycle_pa":"stands","capacity":24,"covered":"no","fee":"no","operator":"Lidl Ireland GmbH","nameSource":"junction"},"sourceId":"osm"},{"id":"osm:node:8300349518","latitude":52.6657221,"longitude":-8.6259617,"name":"Arthur's Quay near Francis Street","properties":{"access":"yes","bicycle_pa":"stands","capacity":12,"covered":"no","fee":"no","operator":"","nameSource":"junction"},"sourceId":"osm"},{"id":"osm:node:9709104590","latitude":52.6646186,"longitude":-8.6285263,"name":"Sarsfield Street near Henry Street","properties":{"access":"yes","bicycle_pa":"stands","capacity":8,"covered":"no","fee":"no","operator":"Limerick City and County Council","nameSource":"junction"},"sourceId":"osm"},{"id":"osm:way:399335824","latitude":52.66395980000001,"longitude":-8.6266246,"name":"O'Connell Street near Sarsfield Street","properties":{"access":"unknown","bicycle_pa":"stands","capacity":16,"covered":"no","fee":"","operator":"","nameSource":"junction"},"sourceId":"osm"},{"id":"osm:way:886673346","latitude":52.652319780000006,"longitude":-8.63800948,"name":"South Circular Road by Scoil Mháthair Dé","properties":{"access":"private","bicycle_pa":"ground_slots","capacity":0,"covered":"yes","fee":"no","operator":"","nameSource":"landmark"},"sourceId":"osm"}],"schemaVersion":2}
