{"key":"12/1995/1277","points":[{"id":"osm:node:12132455479","latitude":55.8929848,"longitude":-4.6291032,"name":"Lochwinnoch Road near Gryffe Road","properties":{"access":"unknown","bicycle_pa":"stands","capacity":8,"covered":"no","fee":"","operator":"","nameSource":"junction"},"sourceId":"osm"},{"id":"osm:node:1469220911","latitude":55.9245204,"longitude":-4.5856778,"name":"Station Road by Langbank","properties":{"access":"unknown","bicycle_pa":"stands","capacity":10,"covered":"no","fee":"","operator":"","nameSource":"landmark"},"sourceId":"osm"},{"id":"osm:node:1659593815","latitude":55.8928327,"longitude":-4.6293766,"name":"Lochwinnoch Road near Gryffe Road","properties":{"access":"unknown","bicycle_pa":"","capacity":6,"covered":"no","fee":"","operator":"","nameSource":"junction"},"sourceId":"osm"},{"id":"osm:node:1659593819","latitude":55.8942129,"longitude":-4.627292,"name":"Smithy Brae near Bridge of Weir Road","properties":{"access":"unknown","bicycle_pa":"","capacity":2,"covered":"no","fee":"","operator":"","nameSource":"junction"},"sourceId":"osm"},{"id":"osm:node:1659593825","latitude":55.8943577,"longitude":-4.6263779,"name":"Market Place near Gillburn Road","properties":{"access":"unknown","bicycle_pa":"","capacity":2,"covered":"no","fee":"","operator":"","nameSource":"junction"},"sourceId":"osm"}],"schemaVersion":1}
