{"key":"12/2054/1360","points":[{"id":"osm:node:10743741746","latitude":51.5938947,"longitude":0.5951516,"name":"London Road near Pearsons Avenue","properties":{"access":"unknown","bicycle_pa":"stands","capacity":6,"covered":"no","fee":"","operator":"","nameSource":"junction"},"sourceId":"osm"},{"id":"osm:node:1205744647","latitude":51.5897812,"longitude":0.6005056,"name":"The Approach near Station Avenue","properties":{"access":"unknown","bicycle_pa":"stands","capacity":10,"covered":"no","fee":"","operator":"","nameSource":"junction"},"sourceId":"osm"},{"id":"osm:node:12313034944","latitude":51.5880171,"longitude":0.6063972,"name":"Bellingham Lane near Berry's Arcade","properties":{"access":"yes","bicycle_pa":"stands","capacity":6,"covered":"no","fee":"no","operator":"","nameSource":"junction"},"sourceId":"osm"},{"id":"osm:node:12313034983","latitude":51.5866558,"longitude":0.6060234,"name":"High Street near Bellingham Lane","properties":{"access":"yes","bicycle_pa":"stands","capacity":6,"covered":"no","fee":"no","operator":"","nameSource":"junction"},"sourceId":"osm"},{"id":"osm:node:12313034984","latitude":51.5865264,"longitude":0.6060203,"name":"High Street near Bellingham Lane","properties":{"access":"yes","bicycle_pa":"stands","capacity":12,"covered":"no","fee":"no","operator":"","nameSource":"junction"},"sourceId":"osm"},{"id":"osm:node:12895099758","latitude":51.5869415,"longitude":0.60668,"name":"High Street near Bellingham Lane","properties":{"access":"unknown","bicycle_pa":"stands","capacity":6,"covered":"no","fee":"","operator":"","nameSource":"junction"},"sourceId":"osm"},{"id":"osm:node:1955945707","latitude":51.575114,"longitude":0.599102,"name":"Stadium Way cycle parking","properties":{"access":"permissive","bicycle_pa":"stands","capacity":8,"covered":"yes","fee":"","operator":"Sainsburys","nameSource":"street"},"sourceId":"osm"},{"id":"osm:node:2661782395","latitude":51.5876765,"longitude":0.6082217,"name":"High Street near Church Street","properties":{"access":"unknown","bicycle_pa":"stands","capacity":6,"covered":"no","fee":"","operator":"","nameSource":"junction"},"sourceId":"osm"},{"id":"osm:node:2661782398","latitude":51.586417,"longitude":0.6058797,"name":"Ernie Lane near Websters Way","properties":{"access":"unknown","bicycle_pa":"stands","capacity":10,"covered":"no","fee":"","operator":"","nameSource":"junction"},"sourceId":"osm"},{"id":"osm:node:5076199466","latitude":51.5752637,"longitude":0.6028011,"name":"Claydons Lane near Phoenix Way","properties":{"access":"permissive","bicycle_pa":"wall_loops","capacity":0,"covered":"yes","fee":"","operator":"","nameSource":"junction"},"sourceId":"osm"},{"id":"osm:node:5076199469","latitude":51.5745387,"longitude":0.6023877,"name":"Stadium Way near Phoenix Way","properties":{"access":"unknown","bicycle_pa":"","capacity":0,"covered":"","fee":"","operator":"","nameSource":"junction"},"sourceId":"osm"},{"id":"osm:node:8584643105","latitude":51.5674844,"longitude":0.551716,"name":"London Road near Lambeth Road","properties":{"access":"unknown","bicycle_pa":"stands","capacity":10,"covered":"no","fee":"","operator":"","nameSource":"junction"},"sourceId":"osm"},{"id":"osm:way:150123513","latitude":51.58912276666667,"longitude":0.5996216333333333,"name":"Station Avenue near The Approach","properties":{"access":"unknown","bicycle_pa":"rack","capacity":120,"covered":"yes","fee":"no","operator":"","nameSource":"junction"},"sourceId":"osm"}],"schemaVersion":2}
