{"key":"12/2047/1347","points":[{"id":"osm:node:1720280734","latitude":52.3076523,"longitude":-0.0325299,"name":"Guided Busway bridleway near Holywell Ferry Road","properties":{"access":"unknown","bicycle_pa":"stands","capacity":12,"covered":"no","fee":"","operator":"","nameSource":"junction"},"sourceId":"osm"},{"id":"osm:node:391050735","latitude":52.3145555,"longitude":-0.0817588,"name":"Maytrees near Greenfields","properties":{"access":"unknown","bicycle_pa":"","capacity":6,"covered":"","fee":"","operator":"","nameSource":"junction"},"sourceId":"osm"},{"id":"osm:node:4799769457","latitude":52.3035028,"longitude":-0.0372726,"name":"Far Fen cycle parking","properties":{"access":"unknown","bicycle_pa":"","capacity":0,"covered":"","fee":"","operator":"","nameSource":"place"},"sourceId":"osm"},{"id":"osm:node:5434903113","latitude":52.3076638,"longitude":-0.0322574,"name":"Guided Busway bridleway near Holywell Ferry Road","properties":{"access":"unknown","bicycle_pa":"stands","capacity":12,"covered":"no","fee":"","operator":"","nameSource":"junction"},"sourceId":"osm"},{"id":"osm:node:559813411","latitude":52.3204511,"longitude":-0.0657655,"name":"Cambridgeshire Guided Busway cycle parking","properties":{"access":"unknown","bicycle_pa":"","capacity":50,"covered":"yes","fee":"","operator":"The Busway (Cambs CC)","nameSource":"street"},"sourceId":"osm"},{"id":"osm:node:5936223583","latitude":52.3081456,"longitude":-0.0376812,"name":"Guided Busway bridleway cycle parking","properties":{"access":"unknown","bicycle_pa":"","capacity":6,"covered":"","fee":"","operator":"","nameSource":"street"},"sourceId":"osm"},{"id":"osm:node:6024398052","latitude":52.3204531,"longitude":-0.0656167,"name":"Cambridgeshire Guided Busway cycle parking","properties":{"access":"unknown","bicycle_pa":"","capacity":20,"covered":"no","fee":"","operator":"The Busway (Cambs CC)","nameSource":"street"},"sourceId":"osm"},{"id":"osm:node:9733392508","latitude":52.3015638,"longitude":-0.0045006,"name":"Market Street near High Street","properties":{"access":"unknown","bicycle_pa":"stands","capacity":14,"covered":"no","fee":"","operator":"","nameSource":"junction"},"sourceId":"osm"},{"id":"osm:way:1126066038","latitude":52.31047844,"longitude":-0.03207694,"name":"Holywell Ferry Road cycle parking","properties":{"access":"yes","bicycle_pa":"","capacity":6,"covered":"no","fee":"no","operator":"RSPB","nameSource":"street"},"sourceId":"osm"},{"id":"osm:way:500392153","latitude":52.29452038333334,"longitude":-0.0046556666666666665,"name":"Whitton Close cycle parking","properties":{"access":"unknown","bicycle_pa":"","capacity":0,"covered":"","fee":"","operator":"","nameSource":"street"},"sourceId":"osm"},{"id":"osm:way:645062176","latitude":52.30617412,"longitude":-0.00030222,"name":"Cambridgeshire Guided Busway near Over Road","properties":{"access":"unknown","bicycle_pa":"","capacity":40,"covered":"yes","fee":"","operator":"The Busway (Cambs CC)","nameSource":"junction"},"sourceId":"osm"},{"id":"osm:way:645062177","latitude":52.306224500000006,"longitude":-0.0005973600000000001,"name":"Guided Busway bridleway near Station Road","properties":{"access":"unknown","bicycle_pa":"","capacity":70,"covered":"no","fee":"","operator":"The Busway (Cambs CC)","nameSource":"junction"},"sourceId":"osm"}],"schemaVersion":2}
