{"key":"12/2047/1348","points":[{"id":"osm:node:1149803339","latitude":52.2185125,"longitude":-0.0645018,"name":"High Street near Glebe Lane","properties":{"access":"unknown","bicycle_pa":"stands","capacity":30,"covered":"yes","fee":"","operator":"","nameSource":"junction"},"sourceId":"osm"},{"id":"osm:node:12536460404","latitude":52.2188944,"longitude":-0.0686023,"name":"High Street by Morrisons","properties":{"access":"unknown","bicycle_pa":"","capacity":0,"covered":"","fee":"","operator":"","nameSource":"landmark"},"sourceId":"osm"},{"id":"osm:node:32533876","latitude":52.2187442,"longitude":-0.0684595,"name":"High Street near Monkfield Lane","properties":{"access":"unknown","bicycle_pa":"stands","capacity":18,"covered":"no","fee":"","operator":"","nameSource":"junction"},"sourceId":"osm"},{"id":"osm:node:4585970352","latitude":52.2170138,"longitude":-0.0830053,"name":"School Lane near Brookfield Way","properties":{"access":"unknown","bicycle_pa":"stands","capacity":20,"covered":"no","fee":"","operator":"","nameSource":"junction"},"sourceId":"osm"},{"id":"osm:node:4585970353","latitude":52.2185717,"longitude":-0.0693665,"name":"Broad Street near High Street","properties":{"access":"unknown","bicycle_pa":"stands","capacity":20,"covered":"no","fee":"","operator":"","nameSource":"junction"},"sourceId":"osm"},{"id":"osm:node:4585970355","latitude":52.2183025,"longitude":-0.0686238,"name":"High Street near Monkfield Lane","properties":{"access":"unknown","bicycle_pa":"stands","capacity":10,"covered":"no","fee":"no","operator":"","nameSource":"junction"},"sourceId":"osm"},{"id":"osm:node:7705677521","latitude":52.2190155,"longitude":-0.0188787,"name":"St Neots Road cycle parking","properties":{"access":"unknown","bicycle_pa":"stands","capacity":6,"covered":"no","fee":"","operator":"","nameSource":"street"},"sourceId":"osm"},{"id":"osm:way:1358828544","latitude":52.222173780000006,"longitude":-0.08187668000000001,"name":"Sheepfold Lane cycle parking","properties":{"access":"unknown","bicycle_pa":"building","capacity":0,"covered":"","fee":"","operator":"","nameSource":"street"},"sourceId":"osm"},{"id":"osm:way:90264859","latitude":52.223099059999996,"longitude":-0.078561,"name":"Civic Square cycle parking","properties":{"access":"unknown","bicycle_pa":"","capacity":0,"covered":"","fee":"","operator":"","nameSource":"street"},"sourceId":"osm"}],"schemaVersion":2}
