{"key":"12/2047/1358","points":[{"id":"osm:node:10201810703","latitude":51.7027683,"longitude":-0.0237026,"name":"Windmill Lane by Cheshunt","properties":{"access":"unknown","bicycle_pa":"two-tier","capacity":44,"covered":"yes","fee":"","operator":"","nameSource":"landmark"},"sourceId":"osm"},{"id":"osm:node:10819096206","latitude":51.7027148,"longitude":-0.0240265,"name":"Windmill Lane by Cheshunt","properties":{"access":"unknown","bicycle_pa":"","capacity":12,"covered":"yes","fee":"","operator":"","nameSource":"landmark"},"sourceId":"osm"},{"id":"osm:node:11150211366","latitude":51.6877825,"longitude":-0.0121401,"name":"Waltons Walk cycle parking","properties":{"access":"unknown","bicycle_pa":"stands","capacity":4,"covered":"no","fee":"","operator":"","nameSource":"street"},"sourceId":"osm"},{"id":"osm:node:11150211367","latitude":51.6878128,"longitude":-0.0121636,"name":"Waltons Walk cycle parking","properties":{"access":"unknown","bicycle_pa":"stands","capacity":4,"covered":"no","fee":"","operator":"","nameSource":"street"},"sourceId":"osm"},{"id":"osm:node:11150211368","latitude":51.687848,"longitude":-0.012166,"name":"Waltons Walk cycle parking","properties":{"access":"unknown","bicycle_pa":"stands","capacity":4,"covered":"no","fee":"","operator":"","nameSource":"street"},"sourceId":"osm"},{"id":"osm:node:12888811796","latitude":51.6791834,"longitude":-0.0540154,"name":"Bullsmoor Lane near Manor Farm Road","properties":{"access":"unknown","bicycle_pa":"stands","capacity":4,"covered":"","fee":"","operator":"","nameSource":"junction"},"sourceId":"osm"},{"id":"osm:node:13608935479","latitude":51.7109036,"longitude":-0.0080543,"name":"Stubbins Hall Lane cycle parking","properties":{"access":"unknown","bicycle_pa":"","capacity":4,"covered":"no","fee":"","operator":"","nameSource":"street"},"sourceId":"osm"},{"id":"osm:node:13610111226","latitude":51.7107616,"longitude":-0.0066239,"name":"Waltham Abbey cycle parking","properties":{"access":"unknown","bicycle_pa":"","capacity":4,"covered":"","fee":"","operator":"","nameSource":"place"},"sourceId":"osm"},{"id":"osm:node:13610247071","latitude":51.7125959,"longitude":-0.0049862,"name":"Waltham Abbey cycle parking","properties":{"access":"unknown","bicycle_pa":"","capacity":2,"covered":"no","fee":"","operator":"","nameSource":"place"},"sourceId":"osm"},{"id":"osm:node:2398739433","latitude":51.6924996,"longitude":-0.043288,"name":"Theobald's Lane cycle parking","properties":{"access":"unknown","bicycle_pa":"","capacity":0,"covered":"","fee":"","operator":"","nameSource":"street"},"sourceId":"osm"},{"id":"osm:node:2398853773","latitude":51.6923479,"longitude":-0.0412925,"name":"Cedars Park Cafe cycle parking","properties":{"access":"unknown","bicycle_pa":"","capacity":0,"covered":"","fee":"","operator":"","nameSource":"landmark"},"sourceId":"osm"},{"id":"osm:node:2425615619","latitude":51.7032794,"longitude":-0.0233867,"name":"Windmill Lane cycle parking","properties":{"access":"unknown","bicycle_pa":"","capacity":0,"covered":"","fee":"","operator":"","nameSource":"street"},"sourceId":"osm"},{"id":"osm:node:6582763315","latitude":51.685121,"longitude":-0.0266676,"name":"Station Approach near Trust Road","properties":{"access":"unknown","bicycle_pa":"stands","capacity":12,"covered":"no","fee":"","operator":"","nameSource":"junction"},"sourceId":"osm"},{"id":"osm:node:7483718780","latitude":51.6863831,"longitude":-0.002724,"name":"Leverton Way near Quaker Lane","properties":{"access":"unknown","bicycle_pa":"stands","capacity":6,"covered":"","fee":"","operator":"","nameSource":"junction"},"sourceId":"osm"},{"id":"osm:node:7524627959","latitude":51.699646,"longitude":-0.0331312,"name":"King Arthur Court near Guinevere Gardens","properties":{"access":"unknown","bicycle_pa":"","capacity":2,"covered":"","fee":"","operator":"","nameSource":"junction"},"sourceId":"osm"},{"id":"osm:node:7868862712","latitude":51.6743943,"longitude":-0.0463986,"name":"Teal Close cycle parking","properties":{"access":"unknown","bicycle_pa":"stands","capacity":8,"covered":"","fee":"","operator":"","nameSource":"street"},"sourceId":"osm"},{"id":"osm:node:7868862713","latitude":51.6802049,"longitude":-0.0491006,"name":"Little Ride near Bullsmoor Lane","properties":{"access":"unknown","bicycle_pa":"stands","capacity":2,"covered":"","fee":"","operator":"","nameSource":"junction"},"sourceId":"osm"},{"id":"osm:node:7868862714","latitude":51.6762771,"longitude":-0.048435,"name":"Kempe Road near Masons Road","properties":{"access":"unknown","bicycle_pa":"stands","capacity":2,"covered":"","fee":"","operator":"","nameSource":"junction"},"sourceId":"osm"},{"id":"osm:node:7868862715","latitude":51.6801484,"longitude":-0.0496422,"name":"Bullsmoor Lane near Little Ride","properties":{"access":"unknown","bicycle_pa":"stands","capacity":2,"covered":"","fee":"","operator":"","nameSource":"junction"},"sourceId":"osm"},{"id":"osm:node:7868862716","latitude":51.6764224,"longitude":-0.0482663,"name":"Kempe Road near Carpenters Road","properties":{"access":"unknown","bicycle_pa":"stands","capacity":2,"covered":"","fee":"","operator":"","nameSource":"junction"},"sourceId":"osm"},{"id":"osm:node:7868862729","latitude":51.6748532,"longitude":-0.0373645,"name":"Hertford Road near Allandale Road","properties":{"access":"unknown","bicycle_pa":"stands","capacity":2,"covered":"no","fee":"","operator":"","nameSource":"junction"},"sourceId":"osm"},{"id":"osm:node:7868862730","latitude":51.6767258,"longitude":-0.0351188,"name":"Hertford Road near Mandeville Road","properties":{"access":"unknown","bicycle_pa":"stands","capacity":6,"covered":"no","fee":"","operator":"","nameSource":"junction"},"sourceId":"osm"},{"id":"osm:node:7868862731","latitude":51.676649,"longitude":-0.0352029,"name":"Hertford Road near Mandeville Road","properties":{"access":"unknown","bicycle_pa":"stands","capacity":4,"covered":"no","fee":"","operator":"","nameSource":"junction"},"sourceId":"osm"},{"id":"osm:node:7868862732","latitude":51.6767642,"longitude":-0.0350865,"name":"Hertford Road near Mandeville Road","properties":{"access":"unknown","bicycle_pa":"stands","capacity":6,"covered":"no","fee":"","operator":"","nameSource":"junction"},"sourceId":"osm"},{"id":"osm:node:7868862733","latitude":51.6748183,"longitude":-0.0374129,"name":"Hertford Road near Allandale Road","properties":{"access":"unknown","bicycle_pa":"stands","capacity":2,"covered":"no","fee":"","operator":"","nameSource":"junction"},"sourceId":"osm"},{"id":"osm:node:7868862734","latitude":51.6777639,"longitude":-0.0346512,"name":"Hertford Road near Holmwood Road","properties":{"access":"unknown","bicycle_pa":"stands","capacity":2,"covered":"","fee":"","operator":"","nameSource":"junction"},"sourceId":"osm"},{"id":"osm:node:7868862735","latitude":51.6771366,"longitude":-0.0350544,"name":"Hertford Road near Mandeville Road","properties":{"access":"unknown","bicycle_pa":"stands","capacity":2,"covered":"no","fee":"","operator":"","nameSource":"junction"},"sourceId":"osm"},{"id":"osm:node:7868862736","latitude":51.6779751,"longitude":-0.0345383,"name":"Hertford Road near Holmwood Road","properties":{"access":"unknown","bicycle_pa":"stands","capacity":2,"covered":"no","fee":"","operator":"","nameSource":"junction"},"sourceId":"osm"},{"id":"osm:node:7868862737","latitude":51.6770399,"longitude":-0.0351317,"name":"Hertford Road near Mandeville Road","properties":{"access":"unknown","bicycle_pa":"stands","capacity":2,"covered":"no","fee":"","operator":"","nameSource":"junction"},"sourceId":"osm"},{"id":"osm:node:7868862738","latitude":51.6750317,"longitude":-0.0217137,"name":"Innova Way cycle parking","properties":{"access":"unknown","bicycle_pa":"stands","capacity":16,"covered":"yes","fee":"","operator":"","nameSource":"street"},"sourceId":"osm"},{"id":"osm:node:7868862739","latitude":51.6733492,"longitude":-0.0233611,"name":"Kinetic Crescent near Electric Avenue","properties":{"access":"unknown","bicycle_pa":"stands","capacity":36,"covered":"","fee":"","operator":"","nameSource":"junction"},"sourceId":"osm"},{"id":"osm:node:7868862740","latitude":51.6737319,"longitude":-0.0241232,"name":"Kinetic Crescent by Oasis Academy Enfield","properties":{"access":"unknown","bicycle_pa":"stands","capacity":12,"covered":"","fee":"","operator":"","nameSource":"landmark"},"sourceId":"osm"},{"id":"osm:node:7868862741","latitude":51.6735492,"longitude":-0.0237893,"name":"Kinetic Crescent near Electric Avenue","properties":{"access":"unknown","bicycle_pa":"stands","capacity":44,"covered":"","fee":"","operator":"","nameSource":"junction"},"sourceId":"osm"},{"id":"osm:node:7868862742","latitude":51.6737862,"longitude":-0.0242041,"name":"Kinetic Crescent cycle parking","properties":{"access":"unknown","bicycle_pa":"stands","capacity":4,"covered":"","fee":"","operator":"","nameSource":"street"},"sourceId":"osm"},{"id":"osm:way:1202811434","latitude":51.68486318,"longitude":-0.026622879999999998,"name":"Station Approach by Waltham Cross","properties":{"access":"unknown","bicycle_pa":"shed","capacity":0,"covered":"","fee":"","operator":"","nameSource":"landmark"},"sourceId":"osm"}],"schemaVersion":2}
