{"key":"12/2047/1368","points":[{"id":"osm:node:11181655225","latitude":51.1299419,"longitude":-0.0018464,"name":"The Little Green Truck Co cycle parking","properties":{"access":"unknown","bicycle_pa":"stands","capacity":0,"covered":"yes","fee":"","operator":"","nameSource":"landmark"},"sourceId":"osm"},{"id":"osm:node:1211716462","latitude":51.1267201,"longitude":-0.0109331,"name":"London Road near Railway Approach","properties":{"access":"unknown","bicycle_pa":"stands","capacity":4,"covered":"no","fee":"","operator":"","nameSource":"junction"},"sourceId":"osm"},{"id":"osm:node:1211719607","latitude":51.125776,"longitude":-0.0092157,"name":"London Road near King Street","properties":{"access":"unknown","bicycle_pa":"stands","capacity":6,"covered":"no","fee":"","operator":"","nameSource":"junction"},"sourceId":"osm"},{"id":"osm:node:1211719608","latitude":51.1252922,"longitude":-0.008873,"name":"London Road near Queens Walk","properties":{"access":"unknown","bicycle_pa":"stands","capacity":8,"covered":"no","fee":"","operator":"","nameSource":"junction"},"sourceId":"osm"},{"id":"osm:node:13348482342","latitude":51.129723,"longitude":-0.0022295,"name":"The Little Green Truck Co cycle parking","properties":{"access":"yes","bicycle_pa":"rack","capacity":8,"covered":"no","fee":"no","operator":"East Grinstead Town Council","nameSource":"landmark"},"sourceId":"osm"},{"id":"osm:node:2716001488","latitude":51.1357582,"longitude":-0.0004358,"name":"Tudor Court by Spitfire Restaurant","properties":{"access":"unknown","bicycle_pa":"lockers","capacity":20,"covered":"","fee":"","operator":"","nameSource":"landmark"},"sourceId":"osm"},{"id":"osm:node:3820544882","latitude":51.1347873,"longitude":-0.0016068,"name":"Meridian Way cycle parking","properties":{"access":"unknown","bicycle_pa":"stands","capacity":6,"covered":"no","fee":"no","operator":"Queen Victoria Hospital","nameSource":"street"},"sourceId":"osm"},{"id":"osm:node:4454121249","latitude":51.1371295,"longitude":-0.0348438,"name":"Imberhorne Lane near London Road","properties":{"access":"unknown","bicycle_pa":"","capacity":0,"covered":"","fee":"","operator":"","nameSource":"junction"},"sourceId":"osm"},{"id":"osm:node:508650506","latitude":51.1765417,"longitude":-0.0075809,"name":"Eden Brook near Edenbrook","properties":{"access":"unknown","bicycle_pa":"","capacity":0,"covered":"","fee":"","operator":"","nameSource":"junction"},"sourceId":"osm"},{"id":"osm:node:8742585287","latitude":51.1264958,"longitude":-0.0092012,"name":"King Street near Little King Street","properties":{"access":"unknown","bicycle_pa":"stands","capacity":6,"covered":"no","fee":"","operator":"","nameSource":"junction"},"sourceId":"osm"},{"id":"osm:way:464204271","latitude":51.126586960000004,"longitude":-0.01734832,"name":"Railway Approach near Firbank Way","properties":{"access":"unknown","bicycle_pa":"rack","capacity":100,"covered":"yes","fee":"","operator":"","nameSource":"junction"},"sourceId":"osm"}],"schemaVersion":2}
