{"key":"12/1954/1497","points":[{"categories":["hire"],"id":"osm:node:1708917121","latitude":43.4903626,"longitude":-8.2056962,"name":"Cycle hire","properties":{},"sourceId":"osm"},{"categories":["hire"],"id":"osm:node:2529977715","latitude":43.5101409,"longitude":-8.18169,"name":"Cycle hire","properties":{},"sourceId":"osm"},{"categories":["shop"],"id":"osm:node:3681121260","latitude":43.4930002,"longitude":-8.2120574,"name":"Ciclos Roca","properties":{"openingHours":"Mo-Fr 09:30-13:30,17:00-21:00; Sa 10:00-14:00; Su,PH off","website":"https://ciclosroca.com/"},"sourceId":"osm"},{"categories":["hire"],"id":"osm:node:4798960354","latitude":43.5125985,"longitude":-8.1887801,"name":"BiciFerrolterra","properties":{"network":"BiciFerrolterra"},"sourceId":"osm"},{"categories":["hire"],"id":"osm:node:4802527778","latitude":43.5044402,"longitude":-8.1883845,"name":"BiciFerrolterra","properties":{"operator":"BiciFerrolterra"},"sourceId":"osm"},{"categories":["hire"],"id":"osm:node:4815139893","latitude":43.4848715,"longitude":-8.2098182,"name":"Cycle hire","properties":{},"sourceId":"osm"},{"categories":["shop","repair"],"id":"osm:node:5250090956","latitude":43.5085231,"longitude":-8.1838183,"name":"Bike Works","properties":{"openingHours":"Mo-Su 10:00-20:00","servicePump":"yes","serviceRepair":"yes"},"sourceId":"osm"},{"categories":["hire"],"id":"osm:node:6268597408","latitude":43.5006891,"longitude":-8.2044608,"name":"Cycle hire","properties":{},"sourceId":"osm"},{"categories":["hire"],"id":"osm:node:6428776352","latitude":43.4826368,"longitude":-8.2251263,"name":"Bici Ferrolterra","properties":{"operator":"Bici Ferrolterra","website":"https://biciferrolterra.com/"},"sourceId":"osm"},{"categories":["hire"],"id":"osm:node:6428850372","latitude":43.4834652,"longitude":-8.2318106,"name":"Bici Ferrolterra","properties":{"operator":"Bici Ferrolterra","website":"https://biciferrolterra.com/"},"sourceId":"osm"},{"categories":["hire"],"id":"osm:node:6428856483","latitude":43.4874206,"longitude":-8.2305558,"name":"Bici Ferrolterra","properties":{"operator":"Bici Ferrolterra","website":"https://biciferrolterra.com/"},"sourceId":"osm"},{"categories":["hire"],"id":"osm:node:6856264880","latitude":43.5009805,"longitude":-8.1917091,"name":"Biciferrolterra","properties":{"operator":"Biciferrolterra"},"sourceId":"osm"},{"categories":["shop"],"id":"osm:node:6939257314","latitude":43.4926137,"longitude":-8.2115935,"name":"Bici Emoción","properties":{"openingHours":"Mo-Fr 10:00-14:00,16:00-20:00; Sa 10:00-13:30; Su,PH off"},"sourceId":"osm"},{"categories":["hire"],"id":"osm:node:9711953005","latitude":43.4919922,"longitude":-8.2140446,"name":"Cycle hire","properties":{},"sourceId":"osm"},{"categories":["shop"],"id":"osm:node:9839921915","latitude":43.4920373,"longitude":-8.2056106,"name":"Dromosport","properties":{"openingHours":"Mo-Fr 10:30-13:30,16:00-20:00; Sa-Su,PH off","website":"https://www.dromosport.com/"},"sourceId":"osm"},{"categories":["hire"],"id":"osm:way:775638162","latitude":43.48908804444444,"longitude":-8.222307833333335,"name":"Cycle hire","properties":{},"sourceId":"osm"}],"schemaVersion":2}
