{"key":"12/2018/1264","points":[{"id":"osm:node:11879398327","latitude":56.5593136,"longitude":-2.5856649,"name":"Burnside Drive near Catherine Street","properties":{"access":"unknown","bicycle_pa":"stands","capacity":0,"covered":"yes","fee":"","operator":"","nameSource":"junction"},"sourceId":"osm"},{"id":"osm:node:13035302326","latitude":56.555841,"longitude":-2.5855342,"name":"Fishmarket Quay near Shore","properties":{"access":"unknown","bicycle_pa":"stands","capacity":4,"covered":"yes","fee":"","operator":"","nameSource":"junction"},"sourceId":"osm"},{"id":"osm:node:13035302327","latitude":56.5529702,"longitude":-2.5911363,"name":"Dundee Road near Lady Loan","properties":{"access":"unknown","bicycle_pa":"stands","capacity":5,"covered":"no","fee":"","operator":"","nameSource":"junction"},"sourceId":"osm"},{"id":"osm:node:13066782422","latitude":56.5519692,"longitude":-2.5981147,"name":"Queen's Drive by Top Up Tap","properties":{"access":"unknown","bicycle_pa":"stands","capacity":5,"covered":"yes","fee":"","operator":"","nameSource":"landmark"},"sourceId":"osm"},{"id":"osm:node:13066782423","latitude":56.5521185,"longitude":-2.5994389,"name":"Queen's Drive by Chilli Chow Down","properties":{"access":"unknown","bicycle_pa":"","capacity":4,"covered":"no","fee":"","operator":"","nameSource":"landmark"},"sourceId":"osm"},{"id":"osm:node:13066782426","latitude":56.5519953,"longitude":-2.5987201,"name":"Queen's Drive cycle parking","properties":{"access":"unknown","bicycle_pa":"","capacity":4,"covered":"no","fee":"","operator":"","nameSource":"street"},"sourceId":"osm"},{"id":"osm:node:13066782427","latitude":56.5548502,"longitude":-2.5871402,"name":"Lady Loan cycle parking","properties":{"access":"unknown","bicycle_pa":"stands","capacity":4,"covered":"no","fee":"","operator":"","nameSource":"street"},"sourceId":"osm"},{"id":"osm:node:13066782428","latitude":56.5582542,"longitude":-2.5836331,"name":"Brothock Bridge near Gravesend","properties":{"access":"unknown","bicycle_pa":"stands","capacity":3,"covered":"no","fee":"","operator":"","nameSource":"junction"},"sourceId":"osm"},{"id":"osm:node:13066782429","latitude":56.5581635,"longitude":-2.5835616,"name":"Brothock Bridge near Commerce Street","properties":{"access":"unknown","bicycle_pa":"stands","capacity":3,"covered":"no","fee":"","operator":"","nameSource":"junction"},"sourceId":"osm"},{"id":"osm:node:13121503998","latitude":56.5570727,"longitude":-2.584213,"name":"East Grimsby near Burnside Drive","properties":{"access":"unknown","bicycle_pa":"stands","capacity":5,"covered":"no","fee":"","operator":"","nameSource":"junction"},"sourceId":"osm"},{"id":"osm:node:13121531705","latitude":56.558316,"longitude":-2.5843402,"name":"Brothock Bridge near Burnside Drive","properties":{"access":"unknown","bicycle_pa":"stands","capacity":6,"covered":"no","fee":"","operator":"","nameSource":"junction"},"sourceId":"osm"},{"id":"osm:node:13274572638","latitude":56.5497878,"longitude":-2.613499,"name":"Pets at Home cycle parking","properties":{"access":"unknown","bicycle_pa":"stands","capacity":0,"covered":"no","fee":"","operator":"","nameSource":"landmark"},"sourceId":"osm"},{"id":"osm:node:13274572639","latitude":56.549893,"longitude":-2.6128832,"name":"Dundee Road by Halfords","properties":{"access":"unknown","bicycle_pa":"stands","capacity":4,"covered":"no","fee":"","operator":"","nameSource":"landmark"},"sourceId":"osm"},{"id":"osm:node:13326004988","latitude":56.5585818,"longitude":-2.5828666,"name":"Market Place by Angus Cycle Hub","properties":{"access":"yes","bicycle_pa":"stands","capacity":5,"covered":"yes","fee":"","operator":"","nameSource":"landmark"},"sourceId":"osm"},{"id":"osm:node:13375800038","latitude":56.5507234,"longitude":-2.611322,"name":"Westway by KFC","properties":{"access":"customers","bicycle_pa":"","capacity":4,"covered":"no","fee":"","operator":"","nameSource":"landmark"},"sourceId":"osm"},{"id":"osm:node:3549262458","latitude":56.5592933,"longitude":-2.5889712,"name":"Catherine Street near Keptie Street","properties":{"access":"unknown","bicycle_pa":"stands","capacity":6,"covered":"yes","fee":"","operator":"","nameSource":"junction"},"sourceId":"osm"},{"id":"osm:node:9313187900","latitude":56.5517117,"longitude":-2.5999078,"name":"Ice Cream Bar cycle parking","properties":{"access":"unknown","bicycle_pa":"stands","capacity":6,"covered":"no","fee":"","operator":"","nameSource":"landmark"},"sourceId":"osm"},{"id":"osm:node:9313187905","latitude":56.5515244,"longitude":-2.5980614,"name":"Queen's Drive cycle parking","properties":{"access":"unknown","bicycle_pa":"stands","capacity":6,"covered":"no","fee":"","operator":"","nameSource":"street"},"sourceId":"osm"}],"schemaVersion":2}
