{"key":"12/2018/1286","points":[{"id":"osm:node:11107501677","latitude":55.4758157,"longitude":-2.5541937,"name":"Abbey Bridge End near Abbey Place","properties":{"access":"unknown","bicycle_pa":"stands","capacity":2,"covered":"no","fee":"","operator":"","nameSource":"junction"},"sourceId":"osm"},{"id":"osm:node:11107718205","latitude":55.4764363,"longitude":-2.5539493,"name":"Abbey Place near Abbey Bridge End","properties":{"access":"yes","bicycle_pa":"stands","capacity":4,"covered":"no","fee":"","operator":"","nameSource":"junction"},"sourceId":"osm"},{"id":"osm:node:13020984101","latitude":55.475979,"longitude":-2.5542813,"name":"Abbey Bridge End near Abbey Place","properties":{"access":"yes","bicycle_pa":"stands","capacity":4,"covered":"","fee":"no","operator":"","nameSource":"junction"},"sourceId":"osm"},{"id":"osm:node:6778205620","latitude":55.4754413,"longitude":-2.55432,"name":"Abbey Bridge End near A68","properties":{"access":"yes","bicycle_pa":"stands","capacity":6,"covered":"no","fee":"","operator":"","nameSource":"junction"},"sourceId":"osm"},{"id":"osm:node:9038773519","latitude":55.4747784,"longitude":-2.5584768,"name":"Galahill near Castle Gate","properties":{"access":"unknown","bicycle_pa":"stands","capacity":4,"covered":"no","fee":"","operator":"","nameSource":"junction"},"sourceId":"osm"},{"id":"osm:node:9114998517","latitude":55.4782233,"longitude":-2.5528878,"name":"Queen Street near Crown Lane Close","properties":{"access":"yes","bicycle_pa":"stands","capacity":4,"covered":"no","fee":"no","operator":"","nameSource":"junction"},"sourceId":"osm"}],"schemaVersion":2}
