{"key":"12/2018/1326","points":[{"id":"osm:node:10135995306","latitude":53.4086703,"longitude":-2.6294842,"name":"Westbrook Centre near Cromwell Avenue","properties":{"access":"unknown","bicycle_pa":"stands","capacity":14,"covered":"yes","fee":"no","operator":"","nameSource":"junction"},"sourceId":"osm"},{"id":"osm:node:10228807913","latitude":53.410671,"longitude":-2.5646423,"name":"Harrier Road near Blenheim Close","properties":{"access":"unknown","bicycle_pa":"stands","capacity":8,"covered":"no","fee":"no","operator":"","nameSource":"junction"},"sourceId":"osm"},{"id":"osm:node:10647880437","latitude":53.3867034,"longitude":-2.6358204,"name":"Marina Avenue near Penketh Road","properties":{"access":"unknown","bicycle_pa":"stands","capacity":6,"covered":"no","fee":"no","operator":"","nameSource":"junction"},"sourceId":"osm"},{"id":"osm:node:10885599672","latitude":53.3881851,"longitude":-2.591767,"name":"Halls Yard near Time Square","properties":{"access":"yes","bicycle_pa":"stands","capacity":8,"covered":"no","fee":"no","operator":"","nameSource":"junction"},"sourceId":"osm"},{"id":"osm:node:10885599673","latitude":53.3882023,"longitude":-2.5916707,"name":"Time Square near Halls Yard","properties":{"access":"yes","bicycle_pa":"stands","capacity":8,"covered":"no","fee":"no","operator":"","nameSource":"junction"},"sourceId":"osm"},{"id":"osm:node:11091796308","latitude":53.4094722,"longitude":-2.6055207,"name":"Harrison Square Roundabout near Longshaw Street","properties":{"access":"unknown","bicycle_pa":"stands","capacity":4,"covered":"","fee":"","operator":"","nameSource":"junction"},"sourceId":"osm"},{"id":"osm:node:11095229854","latitude":53.4082298,"longitude":-2.5722105,"name":"Martin Avenue near Boyle Avenue","properties":{"access":"unknown","bicycle_pa":"stands","capacity":2,"covered":"no","fee":"no","operator":"","nameSource":"junction"},"sourceId":"osm"},{"id":"osm:node:11119602583","latitude":53.4204913,"longitude":-2.5986743,"name":"Woburn Road by Premier Inn Bar and Restaurant","properties":{"access":"unknown","bicycle_pa":"stands","capacity":10,"covered":"no","fee":"","operator":"","nameSource":"landmark"},"sourceId":"osm"},{"id":"osm:node:11142517531","latitude":53.4109512,"longitude":-2.5953507,"name":"Armour Avenue near Gough Avenue","properties":{"access":"unknown","bicycle_pa":"wall_loops","capacity":4,"covered":"no","fee":"no","operator":"","nameSource":"junction"},"sourceId":"osm"},{"id":"osm:node:11150294876","latitude":53.4111791,"longitude":-2.5591209,"name":"Insall Road near Vulcan Close","properties":{"access":"unknown","bicycle_pa":"stands","capacity":6,"covered":"no","fee":"no","operator":"","nameSource":"junction"},"sourceId":"osm"},{"id":"osm:node:11163104482","latitude":53.4005916,"longitude":-2.5950217,"name":"Winwick Road near Jockey Street","properties":{"access":"unknown","bicycle_pa":"wave","capacity":0,"covered":"no","fee":"no","operator":"","nameSource":"junction"},"sourceId":"osm"},{"id":"osm:node:11167206190","latitude":53.405047,"longitude":-2.5884771,"name":"Orford Jubilee Park Health Centre cycle parking","properties":{"access":"unknown","bicycle_pa":"stands","capacity":52,"covered":"no","fee":"no","operator":"","nameSource":"landmark"},"sourceId":"osm"},{"id":"osm:node:11167206191","latitude":53.4035828,"longitude":-2.5836571,"name":"Alder Lane cycle parking","properties":{"access":"unknown","bicycle_pa":"stands","capacity":18,"covered":"no","fee":"no","operator":"","nameSource":"street"},"sourceId":"osm"},{"id":"osm:node:11181257606","latitude":53.4113092,"longitude":-2.560011,"name":"Insall Road near Valiant Close","properties":{"access":"unknown","bicycle_pa":"stands","capacity":6,"covered":"no","fee":"no","operator":"","nameSource":"junction"},"sourceId":"osm"},{"id":"osm:node:11251750196","latitude":53.4075291,"longitude":-2.5934319,"name":"Collegiate Drive by Warrington & Vale Royal College","properties":{"access":"students","bicycle_pa":"stands","capacity":18,"covered":"no","fee":"no","operator":"","nameSource":"landmark"},"sourceId":"osm"},{"id":"osm:node:11251750197","latitude":53.4075304,"longitude":-2.5914617,"name":"Long Lane cycle parking","properties":{"access":"students","bicycle_pa":"stands","capacity":24,"covered":"yes","fee":"no","operator":"","nameSource":"street"},"sourceId":"osm"},{"id":"osm:node:11251750198","latitude":53.4075734,"longitude":-2.5915044,"name":"Long Lane cycle parking","properties":{"access":"students","bicycle_pa":"stands","capacity":2,"covered":"no","fee":"no","operator":"","nameSource":"street"},"sourceId":"osm"},{"id":"osm:node:11251750199","latitude":53.4074547,"longitude":-2.5914831,"name":"Learning Resource Centre cycle parking","properties":{"access":"students","bicycle_pa":"stands","capacity":4,"covered":"no","fee":"no","operator":"","nameSource":"landmark"},"sourceId":"osm"},{"id":"osm:node:11251750200","latitude":53.4067113,"longitude":-2.5928142,"name":"Floyd Drive cycle parking","properties":{"access":"students","bicycle_pa":"wall_loops","capacity":10,"covered":"","fee":"no","operator":"","nameSource":"street"},"sourceId":"osm"},{"id":"osm:node:11277919336","latitude":53.3877086,"longitude":-2.6154518,"name":"Wimborne Close cycle parking","properties":{"access":"unknown","bicycle_pa":"stands","capacity":2,"covered":"no","fee":"no","operator":"","nameSource":"street"},"sourceId":"osm"},{"id":"osm:node:11361055685","latitude":53.4142327,"longitude":-2.6277593,"name":"Cromwell Avenue by Next Home","properties":{"access":"unknown","bicycle_pa":"stands","capacity":8,"covered":"yes","fee":"yes","operator":"","nameSource":"landmark"},"sourceId":"osm"},{"id":"osm:node:11361055686","latitude":53.4142003,"longitude":-2.6277948,"name":"Cromwell Avenue by Next Home","properties":{"access":"unknown","bicycle_pa":"stands","capacity":6,"covered":"yes","fee":"yes","operator":"","nameSource":"landmark"},"sourceId":"osm"},{"id":"osm:node:11362464611","latitude":53.3963652,"longitude":-2.5694695,"name":"Manchester Road near Alexandra Street","properties":{"access":"private","bicycle_pa":"stands","capacity":6,"covered":"no","fee":"","operator":"","nameSource":"junction"},"sourceId":"osm"},{"id":"osm:node:11477346994","latitude":53.3887526,"longitude":-2.5921837,"name":"Union Street near Dolmans Lane","properties":{"access":"yes","bicycle_pa":"stands","capacity":14,"covered":"no","fee":"no","operator":"","nameSource":"junction"},"sourceId":"osm"},{"id":"osm:node:12851140427","latitude":53.4092784,"longitude":-2.6082168,"name":"Hodgkinson Avenue by Dallam Community Primary School","properties":{"access":"unknown","bicycle_pa":"shed","capacity":0,"covered":"","fee":"","operator":"","nameSource":"landmark"},"sourceId":"osm"},{"id":"osm:node:13664684006","latitude":53.3927183,"longitude":-2.6087453,"name":"Collin Street by Warrington Hospital","properties":{"access":"unknown","bicycle_pa":"","capacity":0,"covered":"no","fee":"","operator":"","nameSource":"landmark"},"sourceId":"osm"},{"id":"osm:node:349298719","latitude":53.393179,"longitude":-2.6170108,"name":"Sankey Valley Park","properties":{"access":"yes","bicycle_pa":"stands","capacity":8,"covered":"no","fee":"no","operator":"","nameSource":"source"},"sourceId":"osm"},{"id":"osm:node:4545738026","latitude":53.3851634,"longitude":-2.5624134,"name":"Westy Co-op","properties":{"access":"unknown","bicycle_pa":"stands","capacity":10,"covered":"no","fee":"no","operator":"","nameSource":"source"},"sourceId":"osm"},{"id":"osm:node:4562071592","latitude":53.392087,"longitude":-2.5919427,"name":"Warrington Central Platform 2","properties":{"access":"unknown","bicycle_pa":"stands","capacity":42,"covered":"yes","fee":"","operator":"","nameSource":"source"},"sourceId":"osm"},{"id":"osm:node:4562071593","latitude":53.3919343,"longitude":-2.5918851,"name":"Warrington Central Platform 1","properties":{"access":"unknown","bicycle_pa":"stands","capacity":72,"covered":"yes","fee":"","operator":"","nameSource":"source"},"sourceId":"osm"},{"id":"osm:node:4562071596","latitude":53.3901264,"longitude":-2.5931967,"name":"Town Hill","properties":{"access":"unknown","bicycle_pa":"stands","capacity":8,"covered":"no","fee":"","operator":"","nameSource":"source"},"sourceId":"osm"},{"id":"osm:node:4562071597","latitude":53.3872583,"longitude":-2.5923066,"name":"Academy Way","properties":{"access":"unknown","bicycle_pa":"stands","capacity":10,"covered":"no","fee":"no","operator":"","nameSource":"source"},"sourceId":"osm"},{"id":"osm:node:4562071598","latitude":53.3869151,"longitude":-2.5961478,"name":"Warrington library","properties":{"access":"unknown","bicycle_pa":"stands","capacity":18,"covered":"no","fee":"","operator":"","nameSource":"source"},"sourceId":"osm"},{"id":"osm:node:4562071599","latitude":53.386948,"longitude":-2.5985012,"name":"Pyramid","properties":{"access":"unknown","bicycle_pa":"stands","capacity":12,"covered":"no","fee":"","operator":"","nameSource":"source"},"sourceId":"osm"},{"id":"osm:node:4562071600","latitude":53.3862334,"longitude":-2.602858,"name":"Bank Quay Station","properties":{"access":"unknown","bicycle_pa":"stands","capacity":24,"covered":"yes","fee":"","operator":"","nameSource":"source"},"sourceId":"osm"},{"id":"osm:node:4562071602","latitude":53.3858045,"longitude":-2.603003,"name":"Bank Quay platform","properties":{"access":"unknown","bicycle_pa":"stands","capacity":10,"covered":"yes","fee":"","operator":"","nameSource":"source"},"sourceId":"osm"},{"id":"osm:node:4562071603","latitude":53.3861345,"longitude":-2.6034033,"name":"Bank Quay platform","properties":{"access":"unknown","bicycle_pa":"stands","capacity":8,"covered":"no","fee":"","operator":"","nameSource":"source"},"sourceId":"osm"},{"id":"osm:node:4562154894","latitude":53.3908815,"longitude":-2.5892491,"name":"Cockhedge","properties":{"access":"unknown","bicycle_pa":"front_wheel_only","capacity":10,"covered":"no","fee":"","operator":"","nameSource":"source"},"sourceId":"osm"},{"id":"osm:node:4775603857","latitude":53.3892238,"longitude":-2.5965908,"name":"Hilden Square near Regent Street","properties":{"access":"yes","bicycle_pa":"stands","capacity":12,"covered":"no","fee":"no","operator":"","nameSource":"junction"},"sourceId":"osm"},{"id":"osm:node:5419749581","latitude":53.3879992,"longitude":-2.5927846,"name":"Halls Yard near Bridge Street","properties":{"access":"yes","bicycle_pa":"stands","capacity":16,"covered":"no","fee":"no","operator":"","nameSource":"junction"},"sourceId":"osm"},{"id":"osm:node:5419751277","latitude":53.3897493,"longitude":-2.5916382,"name":"Buttermarket Street near Horrocks Lane","properties":{"access":"unknown","bicycle_pa":"stands","capacity":10,"covered":"no","fee":"","operator":"","nameSource":"junction"},"sourceId":"osm"},{"id":"osm:node:6689679993","latitude":53.4158296,"longitude":-2.6027615,"name":"Sytner Select cycle parking","properties":{"access":"yes","bicycle_pa":"stands","capacity":10,"covered":"yes","fee":"no","operator":"","nameSource":"landmark"},"sourceId":"osm"},{"id":"osm:node:7004043963","latitude":53.3897657,"longitude":-2.5983281,"name":"Bath Street near Legh Street","properties":{"access":"unknown","bicycle_pa":"","capacity":0,"covered":"yes","fee":"","operator":"","nameSource":"junction"},"sourceId":"osm"},{"id":"osm:node:7632932807","latitude":53.3900349,"longitude":-2.6013539,"name":"Crosfield Street cycle parking","properties":{"access":"unknown","bicycle_pa":"","capacity":0,"covered":"","fee":"","operator":"","nameSource":"street"},"sourceId":"osm"},{"id":"osm:node:8367848061","latitude":53.3891194,"longitude":-2.5961821,"name":"Hilden Square near Regent Street","properties":{"access":"yes","bicycle_pa":"stands","capacity":8,"covered":"no","fee":"no","operator":"","nameSource":"junction"},"sourceId":"osm"},{"id":"osm:node:8901312601","latitude":53.4084102,"longitude":-2.5966429,"name":"Athlone Road near Hawleys Lane","properties":{"access":"yes","bicycle_pa":"stands","capacity":8,"covered":"yes","fee":"no","operator":"","nameSource":"junction"},"sourceId":"osm"},{"id":"osm:node:8901312602","latitude":53.4090749,"longitude":-2.5964649,"name":"Winwick Road near Long Lane","properties":{"access":"yes","bicycle_pa":"stands","capacity":0,"covered":"yes","fee":"no","operator":"","nameSource":"junction"},"sourceId":"osm"},{"id":"osm:node:8901312603","latitude":53.4104848,"longitude":-2.5972751,"name":"Winwick Road by KFC","properties":{"access":"yes","bicycle_pa":"stands","capacity":0,"covered":"yes","fee":"no","operator":"","nameSource":"landmark"},"sourceId":"osm"},{"id":"osm:node:8911948279","latitude":53.3909068,"longitude":-2.5913158,"name":"Cockhedge Way cycle parking","properties":{"access":"yes","bicycle_pa":"stands","capacity":4,"covered":"no","fee":"no","operator":"Cockhedge Centre","nameSource":"street"},"sourceId":"osm"},{"id":"osm:node:8911948283","latitude":53.3892415,"longitude":-2.5925456,"name":"Bank Street near Buttermarket Street","properties":{"access":"yes","bicycle_pa":"stands","capacity":14,"covered":"no","fee":"no","operator":"Warrington Borough Council","nameSource":"junction"},"sourceId":"osm"},{"id":"osm:node:8920287993","latitude":53.3926528,"longitude":-2.5908052,"name":"Central Way cycle parking","properties":{"access":"unknown","bicycle_pa":"","capacity":0,"covered":"","fee":"","operator":"","nameSource":"street"},"sourceId":"osm"},{"id":"osm:node:9002086614","latitude":53.385527,"longitude":-2.5864514,"name":"Wharf Street by McDonald's","properties":{"access":"permissive","bicycle_pa":"stands","capacity":0,"covered":"no","fee":"no","operator":"McDonald's","nameSource":"landmark"},"sourceId":"osm"},{"id":"osm:node:9002331065","latitude":53.3892713,"longitude":-2.5943823,"name":"Old Market Place near Corporation Street","properties":{"access":"yes","bicycle_pa":"wave","capacity":5,"covered":"no","fee":"no","operator":"Golden Square Shopping Centre","nameSource":"junction"},"sourceId":"osm"},{"id":"osm:node:9002331066","latitude":53.3892379,"longitude":-2.5943721,"name":"Old Market Place near Corporation Street","properties":{"access":"yes","bicycle_pa":"stands","capacity":5,"covered":"no","fee":"no","operator":"Golden Square Shopping Centre","nameSource":"junction"},"sourceId":"osm"},{"id":"osm:node:9004932273","latitude":53.3881817,"longitude":-2.5906424,"name":"Academy Way near Bank Street","properties":{"access":"yes","bicycle_pa":"stands","capacity":18,"covered":"no","fee":"no","operator":"","nameSource":"junction"},"sourceId":"osm"},{"id":"osm:node:9262169444","latitude":53.3895946,"longitude":-2.5884936,"name":"Smith Street by Beauty Makers","properties":{"access":"customers","bicycle_pa":"stands","capacity":10,"covered":"no","fee":"","operator":"","nameSource":"landmark"},"sourceId":"osm"},{"id":"osm:node:9311332879","latitude":53.3865446,"longitude":-2.590793,"name":"Bridgefoot near Mersey Street","properties":{"access":"yes","bicycle_pa":"stands","capacity":12,"covered":"no","fee":"no","operator":"","nameSource":"junction"},"sourceId":"osm"},{"id":"osm:node:9335312668","latitude":53.3859038,"longitude":-2.5968506,"name":"Wilson Patten Street cycle parking","properties":{"access":"unknown","bicycle_pa":"front_wheel","capacity":10,"covered":"no","fee":"no","operator":"","nameSource":"street"},"sourceId":"osm"},{"id":"osm:node:9438371670","latitude":53.4077372,"longitude":-2.5874666,"name":"Long Lane cycle parking","properties":{"access":"unknown","bicycle_pa":"","capacity":0,"covered":"","fee":"","operator":"","nameSource":"street"},"sourceId":"osm"},{"id":"osm:node:9441110200","latitude":53.4145388,"longitude":-2.5967862,"name":"Sandy Lane West near Gough Avenue","properties":{"access":"yes","bicycle_pa":"stands","capacity":4,"covered":"no","fee":"no","operator":"","nameSource":"junction"},"sourceId":"osm"},{"id":"osm:node:9441110203","latitude":53.4148169,"longitude":-2.5968897,"name":"Gough Avenue near Sandy Lane West","properties":{"access":"yes","bicycle_pa":"stands","capacity":6,"covered":"no","fee":"no","operator":"","nameSource":"junction"},"sourceId":"osm"},{"id":"osm:node:9443492854","latitude":53.4042325,"longitude":-2.5877253,"name":"Alder Lane cycle parking","properties":{"access":"unknown","bicycle_pa":"","capacity":0,"covered":"","fee":"","operator":"","nameSource":"street"},"sourceId":"osm"},{"id":"osm:node:9445140950","latitude":53.4106065,"longitude":-2.575817,"name":"Capesthorne Road near Poplars Avenue","properties":{"access":"yes","bicycle_pa":"stands","capacity":6,"covered":"no","fee":"no","operator":"","nameSource":"junction"},"sourceId":"osm"},{"id":"osm:node:9445141181","latitude":53.4113185,"longitude":-2.5763318,"name":"Poplars Avenue near Poplars Place","properties":{"access":"yes","bicycle_pa":"loops","capacity":7,"covered":"no","fee":"no","operator":"","nameSource":"junction"},"sourceId":"osm"},{"id":"osm:node:9469181763","latitude":53.3956284,"longitude":-2.5912325,"name":"Norman Street near Orford Lane","properties":{"access":"yes","bicycle_pa":"stands","capacity":10,"covered":"no","fee":"no","operator":"","nameSource":"junction"},"sourceId":"osm"},{"id":"osm:node:9506860078","latitude":53.4155595,"longitude":-2.5999243,"name":"Chetham Court near Calver Road","properties":{"access":"yes","bicycle_pa":"stands","capacity":4,"covered":"no","fee":"no","operator":"","nameSource":"junction"},"sourceId":"osm"},{"id":"osm:node:9632280569","latitude":53.3858768,"longitude":-2.6027111,"name":"Parker Street near Wilson Patten Street","properties":{"access":"yes","bicycle_pa":"stands","capacity":8,"covered":"yes","fee":"no","operator":"","nameSource":"junction"},"sourceId":"osm"},{"id":"osm:node:9657272939","latitude":53.3956488,"longitude":-2.5952264,"name":"Mike Gregory Way cycle parking","properties":{"access":"unknown","bicycle_pa":"stands","capacity":18,"covered":"yes","fee":"no","operator":"","nameSource":"street"},"sourceId":"osm"},{"id":"osm:node:9657299306","latitude":53.3875155,"longitude":-2.5975517,"name":"Palmyra Square South near Springfield Street","properties":{"access":"unknown","bicycle_pa":"stands","capacity":6,"covered":"no","fee":"no","operator":"","nameSource":"junction"},"sourceId":"osm"},{"id":"osm:node:9657299307","latitude":53.3874973,"longitude":-2.5978281,"name":"Palmyra Square South near Springfield Street","properties":{"access":"unknown","bicycle_pa":"stands","capacity":6,"covered":"no","fee":"no","operator":"","nameSource":"junction"},"sourceId":"osm"},{"id":"osm:node:9730125903","latitude":53.392044,"longitude":-2.5947809,"name":"Dallam Lane near Foundry Street","properties":{"access":"unknown","bicycle_pa":"stands","capacity":16,"covered":"no","fee":"no","operator":"","nameSource":"junction"},"sourceId":"osm"},{"id":"osm:node:9730197339","latitude":53.397007,"longitude":-2.5951218,"name":"Winwick Road near Bluecoat Street","properties":{"access":"unknown","bicycle_pa":"stands","capacity":6,"covered":"yes","fee":"no","operator":"","nameSource":"junction"},"sourceId":"osm"},{"id":"osm:node:9770582298","latitude":53.3836357,"longitude":-2.5796484,"name":"Knutsford Road by Co-op Food","properties":{"access":"yes","bicycle_pa":"stands","capacity":8,"covered":"no","fee":"no","operator":"","nameSource":"landmark"},"sourceId":"osm"},{"id":"osm:node:9802634520","latitude":53.3888456,"longitude":-2.5969007,"name":"Sankey Street near Legh Street","properties":{"access":"yes","bicycle_pa":"stands","capacity":8,"covered":"no","fee":"no","operator":"","nameSource":"junction"},"sourceId":"osm"},{"id":"osm:way:1004172945","latitude":53.4189074,"longitude":-2.60338038,"name":"Harvard Court cycle parking","properties":{"access":"private","bicycle_pa":"stands","capacity":0,"covered":"","fee":"no","operator":"","nameSource":"street"},"sourceId":"osm"}],"schemaVersion":2}
