{"key":"12/2018/1327","points":[{"id":"osm:node:12316061358","latitude":53.3520754,"longitude":-2.5719933,"name":"Dudlow Green Road near Pineways","properties":{"access":"unknown","bicycle_pa":"wall_loops","capacity":3,"covered":"no","fee":"","operator":"","nameSource":"junction"},"sourceId":"osm"},{"id":"osm:node:12529071242","latitude":53.3392719,"longitude":-2.5693318,"name":"Warrington Supercharger cycle parking","properties":{"access":"unknown","bicycle_pa":"wall_loops","capacity":4,"covered":"no","fee":"","operator":"","nameSource":"landmark"},"sourceId":"osm"},{"id":"osm:node:12568108183","latitude":53.3373601,"longitude":-2.6040358,"name":"Daresbury Lane near Hatton Lane","properties":{"access":"unknown","bicycle_pa":"stands","capacity":12,"covered":"no","fee":"","operator":"","nameSource":"junction"},"sourceId":"osm"},{"id":"osm:node:13009112110","latitude":53.3645993,"longitude":-2.571142,"name":"Bridge Lane near Dingleway","properties":{"access":"unknown","bicycle_pa":"stands","capacity":6,"covered":"no","fee":"","operator":"","nameSource":"junction"},"sourceId":"osm"},{"id":"osm:node:13038797697","latitude":53.3408053,"longitude":-2.631817,"name":"Daresbury Lane by Lewis Carroll Centre","properties":{"access":"unknown","bicycle_pa":"wall_loops","capacity":0,"covered":"no","fee":"","operator":"","nameSource":"landmark"},"sourceId":"osm"},{"id":"osm:node:13042748567","latitude":53.3720133,"longitude":-2.5751463,"name":"Parkgate Road near Alexandra Road","properties":{"access":"unknown","bicycle_pa":"wall_loops","capacity":4,"covered":"no","fee":"","operator":"","nameSource":"junction"},"sourceId":"osm"},{"id":"osm:node:13895949114","latitude":53.3589305,"longitude":-2.6269973,"name":"Runcorn Road by The Shed","properties":{"access":"unknown","bicycle_pa":"wall_loops","capacity":4,"covered":"no","fee":"","operator":"","nameSource":"landmark"},"sourceId":"osm"},{"id":"osm:node:4544091179","latitude":53.3737922,"longitude":-2.585004,"name":"Morrisons","properties":{"access":"customers","bicycle_pa":"stands","capacity":20,"covered":"no","fee":"no","operator":"","nameSource":"source"},"sourceId":"osm"},{"id":"osm:node:4545337567","latitude":53.3724228,"longitude":-2.5767795,"name":"Stockton Heath Library","properties":{"access":"unknown","bicycle_pa":"stands","capacity":2,"covered":"no","fee":"","operator":"","nameSource":"source"},"sourceId":"osm"},{"id":"osm:node:4562154264","latitude":53.3709988,"longitude":-2.5827088,"name":"Forge","properties":{"access":"unknown","bicycle_pa":"stands","capacity":10,"covered":"no","fee":"","operator":"","nameSource":"source"},"sourceId":"osm"},{"id":"osm:node:4562154265","latitude":53.3707749,"longitude":-2.5809294,"name":"Victoria Square","properties":{"access":"yes","bicycle_pa":"stands","capacity":10,"covered":"no","fee":"no","operator":"","nameSource":"source"},"sourceId":"osm"},{"id":"osm:node:4562154266","latitude":53.3741911,"longitude":-2.5496485,"name":"Grappenhall Library","properties":{"access":"unknown","bicycle_pa":"stands","capacity":4,"covered":"","fee":"","operator":"","nameSource":"source"},"sourceId":"osm"},{"id":"osm:node:4562154274","latitude":53.3774826,"longitude":-2.5490932,"name":"Knutsford Road","properties":{"access":"yes","bicycle_pa":"stands","capacity":6,"covered":"no","fee":"no","operator":"","nameSource":"source"},"sourceId":"osm"},{"id":"osm:node:4562154281","latitude":53.3803048,"longitude":-2.5626821,"name":"Latchford","properties":{"access":"unknown","bicycle_pa":"stands","capacity":8,"covered":"no","fee":"","operator":"","nameSource":"source"},"sourceId":"osm"},{"id":"osm:node:4562154282","latitude":53.3807244,"longitude":-2.5640643,"name":"Knutsford Road near Thelwall Lane","properties":{"access":"unknown","bicycle_pa":"stands","capacity":6,"covered":"no","fee":"","operator":"","nameSource":"junction"},"sourceId":"osm"},{"id":"osm:node:4562154283","latitude":53.3653289,"longitude":-2.5548228,"name":"Walled Garden","properties":{"access":"customers","bicycle_pa":"stands","capacity":8,"covered":"no","fee":"no","operator":"","nameSource":"source"},"sourceId":"osm"},{"id":"osm:node:4562154284","latitude":53.3628081,"longitude":-2.5736151,"name":"Broomfields Leisure Centre","properties":{"access":"unknown","bicycle_pa":"stands","capacity":40,"covered":"no","fee":"","operator":"","nameSource":"source"},"sourceId":"osm"},{"id":"osm:node:4562154287","latitude":53.3646108,"longitude":-2.6354793,"name":"Moore Nature Reserve","properties":{"access":"unknown","bicycle_pa":"stands","capacity":8,"covered":"no","fee":"","operator":"","nameSource":"source"},"sourceId":"osm"},{"id":"osm:node:5130449083","latitude":53.3819321,"longitude":-2.5606384,"name":"Kingsway South by KFC","properties":{"access":"yes","bicycle_pa":"stands","capacity":6,"covered":"no","fee":"no","operator":"","nameSource":"landmark"},"sourceId":"osm"},{"id":"osm:node:6794030426","latitude":53.3622914,"longitude":-2.6016202,"name":"Walton Lea Road cycle parking","properties":{"access":"yes","bicycle_pa":"stands","capacity":6,"covered":"yes","fee":"no","operator":"","nameSource":"street"},"sourceId":"osm"},{"id":"osm:way:1011539148","latitude":53.382338559999994,"longitude":-2.5657488600000002,"name":"Reynolds Street near Rock Road","properties":{"access":"private","bicycle_pa":"","capacity":0,"covered":"yes","fee":"no","operator":"","nameSource":"junction"},"sourceId":"osm"},{"id":"osm:way:990964724","latitude":53.37851902,"longitude":-2.58311512,"name":"Cambrai Avenue by Priestley College","properties":{"access":"customers","bicycle_pa":"stands","capacity":0,"covered":"yes","fee":"no","operator":"Priestley College","nameSource":"landmark"},"sourceId":"osm"},{"id":"osm:way:990964725","latitude":53.37844199999999,"longitude":-2.5830808000000003,"name":"Cambrai Avenue by Priestley College","properties":{"access":"customers","bicycle_pa":"stands","capacity":0,"covered":"yes","fee":"no","operator":"Priestley College","nameSource":"landmark"},"sourceId":"osm"}],"schemaVersion":2}
