{"key":"12/2018/1363","points":[{"id":"osm:node:10230967076","latitude":51.4231418,"longitude":-2.5856109,"name":"Manning Road near Creswicke Road","properties":{"access":"yes","bicycle_pa":"stands","capacity":8,"covered":"no","fee":"no","operator":"","nameSource":"junction"},"sourceId":"osm"},{"id":"osm:node:10562205429","latitude":51.4426591,"longitude":-2.6140868,"name":"North Street near Greenway Bush Lane","properties":{"access":"unknown","bicycle_pa":"rack","capacity":2,"covered":"no","fee":"no","operator":"","nameSource":"junction"},"sourceId":"osm"},{"id":"osm:node:10567210182","latitude":51.432,"longitude":-2.5546519,"name":"Callington Road cycle parking","properties":{"access":"unknown","bicycle_pa":"stands","capacity":12,"covered":"yes","fee":"no","operator":"Tesco","nameSource":"street"},"sourceId":"osm"},{"id":"osm:node:10937129012","latitude":51.4466692,"longitude":-2.5967557,"name":"Wapping Road near Commercial Road","properties":{"access":"yes","bicycle_pa":"stands","capacity":10,"covered":"no","fee":"no","operator":"Umberslade","nameSource":"junction"},"sourceId":"osm"},{"id":"osm:node:11035533560","latitude":51.4526004,"longitude":-2.5808714,"name":"New Kingsley Road near Avon Street","properties":{"access":"unknown","bicycle_pa":"stands","capacity":10,"covered":"yes","fee":"","operator":"","nameSource":"junction"},"sourceId":"osm"},{"id":"osm:node:11035545184","latitude":51.4527861,"longitude":-2.5814666,"name":"Avon Street near Glass wharf","properties":{"access":"unknown","bicycle_pa":"stands","capacity":8,"covered":"no","fee":"","operator":"","nameSource":"junction"},"sourceId":"osm"},{"id":"osm:node:11035545185","latitude":51.4529148,"longitude":-2.5817528,"name":"Providence Place near Avon Street","properties":{"access":"unknown","bicycle_pa":"stands","capacity":10,"covered":"yes","fee":"","operator":"","nameSource":"junction"},"sourceId":"osm"},{"id":"osm:node:11037336083","latitude":51.4529863,"longitude":-2.5976551,"name":"St Augustine's Parade near Canons Road","properties":{"access":"unknown","bicycle_pa":"stands","capacity":10,"covered":"no","fee":"","operator":"","nameSource":"junction"},"sourceId":"osm"},{"id":"osm:node:11099147694","latitude":51.4416034,"longitude":-2.566148,"name":"Cleverchefs cycle parking","properties":{"access":"unknown","bicycle_pa":"stands","capacity":8,"covered":"no","fee":"","operator":"","nameSource":"landmark"},"sourceId":"osm"},{"id":"osm:node:11147907478","latitude":51.4331753,"longitude":-2.56187,"name":"Jubilee Road near Tozers Hill","properties":{"access":"permissive","bicycle_pa":"shed","capacity":8,"covered":"yes","fee":"no","operator":"","nameSource":"junction"},"sourceId":"osm"},{"id":"osm:node:11180910027","latitude":51.4438901,"longitude":-2.5940869,"name":"Regent Road near Bedminster Parade","properties":{"access":"unknown","bicycle_pa":"stands","capacity":16,"covered":"no","fee":"","operator":"","nameSource":"junction"},"sourceId":"osm"},{"id":"osm:node:11202219585","latitude":51.438368,"longitude":-2.5519653,"name":"Manworthy Road near Wick Road","properties":{"access":"unknown","bicycle_pa":"hoop","capacity":2,"covered":"no","fee":"","operator":"","nameSource":"junction"},"sourceId":"osm"},{"id":"osm:node:11202219586","latitude":51.4383555,"longitude":-2.5519638,"name":"Manworthy Road near Wick Road","properties":{"access":"unknown","bicycle_pa":"hoop","capacity":2,"covered":"no","fee":"","operator":"","nameSource":"junction"},"sourceId":"osm"},{"id":"osm:node:11253230107","latitude":51.4423474,"longitude":-2.600655,"name":"Dean Lane near Warden Road","properties":{"access":"yes","bicycle_pa":"stands","capacity":11,"covered":"no","fee":"","operator":"","nameSource":"junction"},"sourceId":"osm"},{"id":"osm:node:11276885646","latitude":51.4121922,"longitude":-2.6215408,"name":"Bishops Cove near Highridge Road","properties":{"access":"unknown","bicycle_pa":"hoop","capacity":6,"covered":"no","fee":"","operator":"","nameSource":"junction"},"sourceId":"osm"},{"id":"osm:node:11335587273","latitude":51.4337792,"longitude":-2.5679234,"name":"Broad Walk near Kingshill Road","properties":{"access":"unknown","bicycle_pa":"hoop","capacity":2,"covered":"no","fee":"","operator":"","nameSource":"junction"},"sourceId":"osm"},{"id":"osm:node:11335587274","latitude":51.4337939,"longitude":-2.5678746,"name":"Broad Walk near Kingshill Road","properties":{"access":"unknown","bicycle_pa":"hoop","capacity":2,"covered":"no","fee":"","operator":"","nameSource":"junction"},"sourceId":"osm"},{"id":"osm:node:11366455045","latitude":51.4287638,"longitude":-2.5946132,"name":"Downton Road near Headford Road","properties":{"access":"unknown","bicycle_pa":"stands","capacity":6,"covered":"no","fee":"","operator":"","nameSource":"junction"},"sourceId":"osm"},{"id":"osm:node:11832527244","latitude":51.438152,"longitude":-2.5718644,"name":"Wells Road near Belluton Road","properties":{"access":"unknown","bicycle_pa":"stands","capacity":2,"covered":"no","fee":"","operator":"","nameSource":"junction"},"sourceId":"osm"},{"id":"osm:node:11832527245","latitude":51.4381481,"longitude":-2.5718172,"name":"Wells Road near Belluton Road","properties":{"access":"unknown","bicycle_pa":"stands","capacity":2,"covered":"no","fee":"","operator":"","nameSource":"junction"},"sourceId":"osm"},{"id":"osm:node:11880992463","latitude":51.4469448,"longitude":-2.6214615,"name":"Smeaton Road near Ashmead Way","properties":{"access":"yes","bicycle_pa":"shed","capacity":18,"covered":"yes","fee":"no","operator":"","nameSource":"junction"},"sourceId":"osm"},{"id":"osm:node:11881000585","latitude":51.4465133,"longitude":-2.5969838,"name":"Cumberland Road near Commercial Road","properties":{"access":"yes","bicycle_pa":"stands","capacity":20,"covered":"no","fee":"no","operator":"","nameSource":"junction"},"sourceId":"osm"},{"id":"osm:node:12040548742","latitude":51.4126486,"longitude":-2.5839986,"name":"Hengrove Plaza cycle parking","properties":{"access":"unknown","bicycle_pa":"stands","capacity":6,"covered":"no","fee":"","operator":"","nameSource":"street"},"sourceId":"osm"},{"id":"osm:node:12040548745","latitude":51.4129134,"longitude":-2.5836593,"name":"Hengrove Plaza cycle parking","properties":{"access":"unknown","bicycle_pa":"stands","capacity":6,"covered":"no","fee":"","operator":"","nameSource":"street"},"sourceId":"osm"},{"id":"osm:node:12046656506","latitude":51.4381288,"longitude":-2.6032831,"name":"Victor Road near West Street","properties":{"access":"unknown","bicycle_pa":"stands","capacity":12,"covered":"yes","fee":"","operator":"","nameSource":"junction"},"sourceId":"osm"},{"id":"osm:node:12055979821","latitude":51.4424784,"longitude":-2.5958413,"name":"Lombard Street near East Street","properties":{"access":"unknown","bicycle_pa":"stands","capacity":8,"covered":"no","fee":"","operator":"","nameSource":"junction"},"sourceId":"osm"},{"id":"osm:node:12104602966","latitude":51.4494896,"longitude":-2.5616539,"name":"Cole Road by Showcase Cinemas","properties":{"access":"unknown","bicycle_pa":"stands","capacity":22,"covered":"yes","fee":"","operator":"","nameSource":"landmark"},"sourceId":"osm"},{"id":"osm:node:12140126975","latitude":51.4402542,"longitude":-2.6099883,"name":"The Nursery near North Street","properties":{"access":"unknown","bicycle_pa":"stands","capacity":2,"covered":"no","fee":"","operator":"","nameSource":"junction"},"sourceId":"osm"},{"id":"osm:node:12228065151","latitude":51.4397158,"longitude":-2.5732499,"name":"Brecknock Road near Wells Road","properties":{"access":"unknown","bicycle_pa":"stands","capacity":4,"covered":"no","fee":"","operator":"","nameSource":"junction"},"sourceId":"osm"},{"id":"osm:node:12228085157","latitude":51.4408812,"longitude":-2.5755337,"name":"Bathwell Road near Wells Road","properties":{"access":"unknown","bicycle_pa":"stands","capacity":2,"covered":"no","fee":"","operator":"","nameSource":"junction"},"sourceId":"osm"},{"id":"osm:node:12245874846","latitude":51.4480418,"longitude":-2.5609635,"name":"Saint Philips Causeway by Popeyes","properties":{"access":"unknown","bicycle_pa":"stands","capacity":8,"covered":"no","fee":"","operator":"","nameSource":"landmark"},"sourceId":"osm"},{"id":"osm:node:12245911943","latitude":51.4484697,"longitude":-2.5605408,"name":"Boots cycle parking","properties":{"access":"unknown","bicycle_pa":"stands","capacity":10,"covered":"no","fee":"","operator":"","nameSource":"landmark"},"sourceId":"osm"},{"id":"osm:node:12252319690","latitude":51.4504023,"longitude":-2.5989501,"name":"Anchor Square near Canon's Road","properties":{"access":"unknown","bicycle_pa":"stands","capacity":10,"covered":"no","fee":"","operator":"","nameSource":"junction"},"sourceId":"osm"},{"id":"osm:node:12252325332","latitude":51.4504413,"longitude":-2.5989954,"name":"Anchor Square near Canon's Road","properties":{"access":"unknown","bicycle_pa":"stands","capacity":10,"covered":"no","fee":"","operator":"","nameSource":"junction"},"sourceId":"osm"},{"id":"osm:node:12255143741","latitude":51.4491021,"longitude":-2.5966132,"name":"Narrow Quay near Prince Street","properties":{"access":"unknown","bicycle_pa":"stands","capacity":8,"covered":"no","fee":"","operator":"","nameSource":"junction"},"sourceId":"osm"},{"id":"osm:node:12255153388","latitude":51.4490199,"longitude":-2.5966105,"name":"Narrow Quay near Prince Street","properties":{"access":"unknown","bicycle_pa":"stands","capacity":10,"covered":"no","fee":"","operator":"","nameSource":"junction"},"sourceId":"osm"},{"id":"osm:node:12255173732","latitude":51.4501751,"longitude":-2.597536,"name":"Narrow Quay near Farrs Lane","properties":{"access":"unknown","bicycle_pa":"stands","capacity":10,"covered":"no","fee":"","operator":"","nameSource":"junction"},"sourceId":"osm"},{"id":"osm:node:12259011057","latitude":51.4338851,"longitude":-2.5717352,"name":"Broadwalk by Redcatch Community Garden","properties":{"access":"unknown","bicycle_pa":"stands","capacity":4,"covered":"no","fee":"","operator":"","nameSource":"landmark"},"sourceId":"osm"},{"id":"osm:node:12265726143","latitude":51.4338396,"longitude":-2.5784512,"name":"Axbridge Road near Friendship Road","properties":{"access":"unknown","bicycle_pa":"stands","capacity":4,"covered":"no","fee":"","operator":"","nameSource":"junction"},"sourceId":"osm"},{"id":"osm:node:12265750380","latitude":51.4351004,"longitude":-2.5670495,"name":"Greenmore Road by Consol","properties":{"access":"unknown","bicycle_pa":"stands","capacity":4,"covered":"no","fee":"","operator":"","nameSource":"landmark"},"sourceId":"osm"},{"id":"osm:node:12269363670","latitude":51.4419881,"longitude":-2.5905863,"name":"Windmill Close near Whitehouse Lane","properties":{"access":"unknown","bicycle_pa":"stands","capacity":4,"covered":"no","fee":"","operator":"","nameSource":"junction"},"sourceId":"osm"},{"id":"osm:node:12271388481","latitude":51.4448934,"longitude":-2.5827569,"name":"Mead Rise by Hayles & Howe","properties":{"access":"unknown","bicycle_pa":"stands","capacity":6,"covered":"no","fee":"","operator":"","nameSource":"landmark"},"sourceId":"osm"},{"id":"osm:node:12291747533","latitude":51.4379239,"longitude":-2.5832888,"name":"Nottingham Street near Saint John's Lane","properties":{"access":"unknown","bicycle_pa":"stands","capacity":4,"covered":"no","fee":"","operator":"","nameSource":"junction"},"sourceId":"osm"},{"id":"osm:node:12310154087","latitude":51.4470147,"longitude":-2.5872656,"name":"Somerset Square cycle parking","properties":{"access":"permit","bicycle_pa":"shed","capacity":6,"covered":"yes","fee":"","operator":"","nameSource":"street"},"sourceId":"osm"},{"id":"osm:node:12328779434","latitude":51.4400807,"longitude":-2.5735923,"name":"Wells Road near Haverstock Road","properties":{"access":"yes","bicycle_pa":"stands","capacity":6,"covered":"no","fee":"no","operator":"","nameSource":"junction"},"sourceId":"osm"},{"id":"osm:node:12329026079","latitude":51.451243,"longitude":-2.561942,"name":"Feeder Road near Tamar Road","properties":{"access":"unknown","bicycle_pa":"stands","capacity":4,"covered":"no","fee":"","operator":"","nameSource":"junction"},"sourceId":"osm"},{"id":"osm:node:12343987875","latitude":51.4469839,"longitude":-2.5912059,"name":"Guinea Street near Redcliff Hill","properties":{"access":"private","bicycle_pa":"shed","capacity":0,"covered":"yes","fee":"","operator":"","nameSource":"junction"},"sourceId":"osm"},{"id":"osm:node:12348589175","latitude":51.442016,"longitude":-2.5967829,"name":"East Street near Essex Street","properties":{"access":"unknown","bicycle_pa":"stands","capacity":4,"covered":"no","fee":"","operator":"","nameSource":"junction"},"sourceId":"osm"},{"id":"osm:node:12348634581","latitude":51.4432944,"longitude":-2.5947105,"name":"East Street near Bedminster Parade","properties":{"access":"unknown","bicycle_pa":"stands","capacity":12,"covered":"no","fee":"","operator":"","nameSource":"junction"},"sourceId":"osm"},{"id":"osm:node:12348674479","latitude":51.4419043,"longitude":-2.5973569,"name":"Caraboo Square near Mill Lane","properties":{"access":"unknown","bicycle_pa":"stands","capacity":4,"covered":"no","fee":"","operator":"","nameSource":"junction"},"sourceId":"osm"},{"id":"osm:node:12348678085","latitude":51.4419241,"longitude":-2.5970973,"name":"East Street near Essex Street","properties":{"access":"unknown","bicycle_pa":"stands","capacity":4,"covered":"no","fee":"","operator":"","nameSource":"junction"},"sourceId":"osm"},{"id":"osm:node:12348726826","latitude":51.440921,"longitude":-2.600107,"name":"Dean Street near East Street","properties":{"access":"unknown","bicycle_pa":"stands","capacity":6,"covered":"no","fee":"","operator":"","nameSource":"junction"},"sourceId":"osm"},{"id":"osm:node:12361228024","latitude":51.4515215,"longitude":-2.5960556,"name":"Thunderbolt Square by Cow & Sow","properties":{"access":"unknown","bicycle_pa":"stands","capacity":2,"covered":"no","fee":"","operator":"","nameSource":"landmark"},"sourceId":"osm"},{"id":"osm:node:12368020649","latitude":51.4332743,"longitude":-2.5619138,"name":"Jubilee Road near Tozers Hill","properties":{"access":"yes","bicycle_pa":"stands","capacity":4,"covered":"no","fee":"no","operator":"","nameSource":"junction"},"sourceId":"osm"},{"id":"osm:node:1237042635","latitude":51.4434643,"longitude":-2.6047466,"name":"Stackpool Road near Howard Road","properties":{"access":"unknown","bicycle_pa":"stands","capacity":6,"covered":"no","fee":"","operator":"","nameSource":"junction"},"sourceId":"osm"},{"id":"osm:node:1237042636","latitude":51.4499665,"longitude":-2.5964923,"name":"Royal Oak Avenue near Farrs Lane","properties":{"access":"unknown","bicycle_pa":"stands","capacity":16,"covered":"no","fee":"","operator":"","nameSource":"junction"},"sourceId":"osm"},{"id":"osm:node:1237042637","latitude":51.4437742,"longitude":-2.5941102,"name":"Bedminster Parade near Regent Road","properties":{"access":"unknown","bicycle_pa":"stands","capacity":6,"covered":"no","fee":"","operator":"","nameSource":"junction"},"sourceId":"osm"},{"id":"osm:node:1237042638","latitude":51.4422279,"longitude":-2.6135888,"name":"North Street near Raleigh Road","properties":{"access":"unknown","bicycle_pa":"stands","capacity":4,"covered":"no","fee":"","operator":"","nameSource":"junction"},"sourceId":"osm"},{"id":"osm:node:12373734086","latitude":51.4423057,"longitude":-2.6005556,"name":"Dean Lane near Warden Road","properties":{"access":"unknown","bicycle_pa":"stands","capacity":11,"covered":"no","fee":"","operator":"","nameSource":"junction"},"sourceId":"osm"},{"id":"osm:node:12377054212","latitude":51.4492617,"longitude":-2.5969207,"name":"Prince Street near Narrow Quay","properties":{"access":"unknown","bicycle_pa":"stands","capacity":24,"covered":"no","fee":"","operator":"","nameSource":"junction"},"sourceId":"osm"},{"id":"osm:node:12377054213","latitude":51.4493311,"longitude":-2.5969301,"name":"Prince Street near The Grove","properties":{"access":"unknown","bicycle_pa":"stands","capacity":24,"covered":"no","fee":"","operator":"","nameSource":"junction"},"sourceId":"osm"},{"id":"osm:node:12381898367","latitude":51.4462797,"longitude":-2.592067,"name":"Commercial Road near Bedminster Bridge Roundabout","properties":{"access":"unknown","bicycle_pa":"stands","capacity":6,"covered":"yes","fee":"","operator":"","nameSource":"junction"},"sourceId":"osm"},{"id":"osm:node:12382738670","latitude":51.4471943,"longitude":-2.5860104,"name":"Somerset Street cycle parking","properties":{"access":"private","bicycle_pa":"shed","capacity":0,"covered":"","fee":"","operator":"","nameSource":"street"},"sourceId":"osm"},{"id":"osm:node:12384660610","latitude":51.4524474,"longitude":-2.5883681,"name":"Victoria Street near Saint Thomas Street East","properties":{"access":"unknown","bicycle_pa":"stands","capacity":4,"covered":"no","fee":"","operator":"","nameSource":"junction"},"sourceId":"osm"},{"id":"osm:node:12386296624","latitude":51.4494414,"longitude":-2.6054132,"name":"Millennium Promenade near Porto Quay","properties":{"access":"unknown","bicycle_pa":"stands","capacity":6,"covered":"no","fee":"","operator":"","nameSource":"junction"},"sourceId":"osm"},{"id":"osm:node:12387758368","latitude":51.4340314,"longitude":-2.5986205,"name":"Malago Greenway cycle parking","properties":{"access":"unknown","bicycle_pa":"stands","capacity":4,"covered":"no","fee":"","operator":"","nameSource":"street"},"sourceId":"osm"},{"id":"osm:node:12388158558","latitude":51.4337548,"longitude":-2.5875713,"name":"Wedmore Vale near Glyn Vale","properties":{"access":"unknown","bicycle_pa":"stands","capacity":6,"covered":"no","fee":"","operator":"","nameSource":"junction"},"sourceId":"osm"},{"id":"osm:node:12388185080","latitude":51.4340323,"longitude":-2.5877093,"name":"Wedmore Vale by Friends Meeting House","properties":{"access":"unknown","bicycle_pa":"stands","capacity":4,"covered":"no","fee":"","operator":"","nameSource":"landmark"},"sourceId":"osm"},{"id":"osm:node:12388188014","latitude":51.4337949,"longitude":-2.5876208,"name":"Wedmore Vale near Glyn Vale","properties":{"access":"unknown","bicycle_pa":"stands","capacity":6,"covered":"no","fee":"","operator":"","nameSource":"junction"},"sourceId":"osm"},{"id":"osm:node:12402614629","latitude":51.4469326,"longitude":-2.5600816,"name":"A4320 near Saint Philips Causeway","properties":{"access":"unknown","bicycle_pa":"stands","capacity":10,"covered":"no","fee":"","operator":"","nameSource":"junction"},"sourceId":"osm"},{"id":"osm:node:12421191795","latitude":51.4518518,"longitude":-2.5968178,"name":"Broad Quay near Marsh Street","properties":{"access":"unknown","bicycle_pa":"stands","capacity":4,"covered":"no","fee":"","operator":"","nameSource":"junction"},"sourceId":"osm"},{"id":"osm:node:12421221842","latitude":51.4518177,"longitude":-2.597031,"name":"Narrow Quay by King George V","properties":{"access":"unknown","bicycle_pa":"stands","capacity":10,"covered":"no","fee":"","operator":"","nameSource":"landmark"},"sourceId":"osm"},{"id":"osm:node:12422236966","latitude":51.4534506,"longitude":-2.5870466,"name":"Temple Back near Counterslip","properties":{"access":"unknown","bicycle_pa":"stands","capacity":8,"covered":"no","fee":"","operator":"","nameSource":"junction"},"sourceId":"osm"},{"id":"osm:node:12422239068","latitude":51.4520752,"longitude":-2.5874928,"name":"Temple Street near Victoria Street","properties":{"access":"unknown","bicycle_pa":"stands","capacity":4,"covered":"no","fee":"","operator":"","nameSource":"junction"},"sourceId":"osm"},{"id":"osm:node:12422270861","latitude":51.4535362,"longitude":-2.5872036,"name":"Temple Back near Counterslip","properties":{"access":"unknown","bicycle_pa":"stands","capacity":10,"covered":"no","fee":"","operator":"","nameSource":"junction"},"sourceId":"osm"},{"id":"osm:node:12422282085","latitude":51.4535851,"longitude":-2.5872834,"name":"Temple Back near Counterslip","properties":{"access":"unknown","bicycle_pa":"stands","capacity":6,"covered":"no","fee":"","operator":"","nameSource":"junction"},"sourceId":"osm"},{"id":"osm:node:12431528141","latitude":51.4532655,"longitude":-2.5975681,"name":"St Augustine's Parade near Baldwin Street","properties":{"access":"unknown","bicycle_pa":"stands","capacity":16,"covered":"no","fee":"","operator":"","nameSource":"junction"},"sourceId":"osm"},{"id":"osm:node:12431528143","latitude":51.4524918,"longitude":-2.5969909,"name":"Broad Quay by Be Lucky","properties":{"access":"unknown","bicycle_pa":"stands","capacity":6,"covered":"no","fee":"","operator":"","nameSource":"landmark"},"sourceId":"osm"},{"id":"osm:node:12475657589","latitude":51.4325927,"longitude":-2.5884554,"name":"Glyn Vale near Timsbury Road","properties":{"access":"unknown","bicycle_pa":"stands","capacity":6,"covered":"no","fee":"","operator":"","nameSource":"junction"},"sourceId":"osm"},{"id":"osm:node:12475679260","latitude":51.424822,"longitude":-2.5783569,"name":"Newquay Road near Throgmorton Road","properties":{"access":"unknown","bicycle_pa":"wall_loops","capacity":5,"covered":"no","fee":"","operator":"","nameSource":"junction"},"sourceId":"osm"},{"id":"osm:node:12475679262","latitude":51.4256349,"longitude":-2.5925599,"name":"Leinster Avenue near Novers Park Road","properties":{"access":"unknown","bicycle_pa":"stands","capacity":4,"covered":"no","fee":"","operator":"","nameSource":"junction"},"sourceId":"osm"},{"id":"osm:node:12475689004","latitude":51.428181,"longitude":-2.5965732,"name":"Knowle west pharmacy cycle parking","properties":{"access":"unknown","bicycle_pa":"stands","capacity":6,"covered":"yes","fee":"","operator":"","nameSource":"landmark"},"sourceId":"osm"},{"id":"osm:node:12475689005","latitude":51.4285822,"longitude":-2.5961759,"name":"Downton Road by Knowle West Health Park","properties":{"access":"unknown","bicycle_pa":"stands","capacity":6,"covered":"yes","fee":"","operator":"","nameSource":"landmark"},"sourceId":"osm"},{"id":"osm:node:12495917046","latitude":51.44196,"longitude":-2.5952234,"name":"Dalby Avenue near East Street","properties":{"access":"unknown","bicycle_pa":"stands","capacity":10,"covered":"no","fee":"","operator":"","nameSource":"junction"},"sourceId":"osm"},{"id":"osm:node:12495921961","latitude":51.4418786,"longitude":-2.594678,"name":"Dalby Avenue by MSM Motors","properties":{"access":"unknown","bicycle_pa":"stands","capacity":4,"covered":"no","fee":"","operator":"","nameSource":"landmark"},"sourceId":"osm"},{"id":"osm:node:12496117461","latitude":51.4399774,"longitude":-2.5997665,"name":"St John Street near St Johns Road","properties":{"access":"unknown","bicycle_pa":"stands","capacity":6,"covered":"no","fee":"","operator":"","nameSource":"junction"},"sourceId":"osm"},{"id":"osm:node:12496194524","latitude":51.4343174,"longitude":-2.5899941,"name":"Marksbury Road near Oakhill Drive","properties":{"access":"unknown","bicycle_pa":"stands","capacity":16,"covered":"yes","fee":"","operator":"","nameSource":"junction"},"sourceId":"osm"},{"id":"osm:node:12507595626","latitude":51.4492971,"longitude":-2.587272,"name":"Canynge Street near Portwall Lane","properties":{"access":"unknown","bicycle_pa":"stands","capacity":4,"covered":"no","fee":"","operator":"","nameSource":"junction"},"sourceId":"osm"},{"id":"osm:node:12511964942","latitude":51.4269033,"longitude":-2.5790453,"name":"Cossington Road near Newquay Road","properties":{"access":"unknown","bicycle_pa":"stands","capacity":4,"covered":"no","fee":"","operator":"","nameSource":"junction"},"sourceId":"osm"},{"id":"osm:node:12512018424","latitude":51.4280333,"longitude":-2.5864281,"name":"Melvin Square near Leinster Avenue","properties":{"access":"unknown","bicycle_pa":"stands","capacity":6,"covered":"no","fee":"","operator":"","nameSource":"junction"},"sourceId":"osm"},{"id":"osm:node:12512026222","latitude":51.4298191,"longitude":-2.5821656,"name":"Daventry Road near Saint Barnabas Close","properties":{"access":"unknown","bicycle_pa":"stands","capacity":20,"covered":"yes","fee":"","operator":"","nameSource":"junction"},"sourceId":"osm"},{"id":"osm:node:12533915270","latitude":51.4465948,"longitude":-2.5853951,"name":"Somerset Street near Clarence Road","properties":{"access":"unknown","bicycle_pa":"stands","capacity":8,"covered":"yes","fee":"","operator":"","nameSource":"junction"},"sourceId":"osm"},{"id":"osm:node:12533941495","latitude":51.4499811,"longitude":-2.5908263,"name":"Redcliff Backs near Cheese Walk","properties":{"access":"unknown","bicycle_pa":"stands","capacity":6,"covered":"no","fee":"","operator":"","nameSource":"junction"},"sourceId":"osm"},{"id":"osm:node:12585246368","latitude":51.4411137,"longitude":-2.6118978,"name":"North Street near Exeter Road","properties":{"access":"unknown","bicycle_pa":"stands","capacity":4,"covered":"no","fee":"no","operator":"","nameSource":"junction"},"sourceId":"osm"},{"id":"osm:node:12592661596","latitude":51.446343,"longitude":-2.5893389,"name":"Ship Lane cycle parking","properties":{"access":"private","bicycle_pa":"shed","capacity":0,"covered":"","fee":"","operator":"","nameSource":"street"},"sourceId":"osm"},{"id":"osm:node:12592662033","latitude":51.4464364,"longitude":-2.5892522,"name":"Ship Lane near Prewett Street","properties":{"access":"unknown","bicycle_pa":"stands","capacity":10,"covered":"no","fee":"","operator":"","nameSource":"junction"},"sourceId":"osm"},{"id":"osm:node:12626092867","latitude":51.4480149,"longitude":-2.6079057,"name":"Caledonian Road near Gas Ferry Road","properties":{"access":"unknown","bicycle_pa":"stands","capacity":6,"covered":"no","fee":"","operator":"","nameSource":"junction"},"sourceId":"osm"},{"id":"osm:node:12626096929","latitude":51.4479575,"longitude":-2.607938,"name":"Caledonian Road near Gas Ferry Road","properties":{"access":"unknown","bicycle_pa":"stands","capacity":6,"covered":"no","fee":"","operator":"","nameSource":"junction"},"sourceId":"osm"},{"id":"osm:node:12626099201","latitude":51.4480935,"longitude":-2.6078574,"name":"Caledonian Road near Gas Ferry Road","properties":{"access":"unknown","bicycle_pa":"stands","capacity":6,"covered":"no","fee":"","operator":"","nameSource":"junction"},"sourceId":"osm"},{"id":"osm:node:12630394535","latitude":51.4525893,"longitude":-2.5873314,"name":"Temple Street near Water Lane","properties":{"access":"unknown","bicycle_pa":"stands","capacity":12,"covered":"no","fee":"","operator":"","nameSource":"junction"},"sourceId":"osm"},{"id":"osm:node:12630395289","latitude":51.4503183,"longitude":-2.5837383,"name":"Rivergate cycle parking","properties":{"access":"unknown","bicycle_pa":"stands","capacity":6,"covered":"no","fee":"","operator":"","nameSource":"street"},"sourceId":"osm"},{"id":"osm:node:12630398619","latitude":51.4528445,"longitude":-2.5857642,"name":"Temple Back near Water Lane","properties":{"access":"unknown","bicycle_pa":"stands","capacity":6,"covered":"no","fee":"","operator":"","nameSource":"junction"},"sourceId":"osm"},{"id":"osm:node:12630405899","latitude":51.4523395,"longitude":-2.5835258,"name":"Rope Walk cycle parking","properties":{"access":"unknown","bicycle_pa":"stands","capacity":12,"covered":"no","fee":"","operator":"","nameSource":"street"},"sourceId":"osm"},{"id":"osm:node:12630418977","latitude":51.4523976,"longitude":-2.5867546,"name":"Petticoat Lane near Water Lane","properties":{"access":"unknown","bicycle_pa":"stands","capacity":12,"covered":"yes","fee":"","operator":"","nameSource":"junction"},"sourceId":"osm"},{"id":"osm:node:12647319254","latitude":51.4504372,"longitude":-2.6010757,"name":"Explore Lane near Anchor Road","properties":{"access":"yes","bicycle_pa":"stands","capacity":10,"covered":"no","fee":"no","operator":"","nameSource":"junction"},"sourceId":"osm"},{"id":"osm:node:12681547047","latitude":51.4379067,"longitude":-2.5855381,"name":"Park Avenue near Hill Avenue","properties":{"access":"unknown","bicycle_pa":"stands","capacity":6,"covered":"no","fee":"","operator":"","nameSource":"junction"},"sourceId":"osm"},{"id":"osm:node:12681547048","latitude":51.4383006,"longitude":-2.5851412,"name":"Hill Avenue near Newport Street","properties":{"access":"private","bicycle_pa":"","capacity":6,"covered":"yes","fee":"","operator":"Lock It Safe","nameSource":"junction"},"sourceId":"osm"},{"id":"osm:node:12681547049","latitude":51.4373693,"longitude":-2.5870094,"name":"Almorah Road near Hill Avenue","properties":{"access":"private","bicycle_pa":"","capacity":6,"covered":"yes","fee":"","operator":"Lock It Safe","nameSource":"junction"},"sourceId":"osm"},{"id":"osm:node:12692845169","latitude":51.4476504,"longitude":-2.6129456,"name":"Hope Court near Canada Way","properties":{"access":"unknown","bicycle_pa":"stands","capacity":8,"covered":"yes","fee":"","operator":"","nameSource":"junction"},"sourceId":"osm"},{"id":"osm:node:12692845556","latitude":51.4470399,"longitude":-2.6128147,"name":"Canada Way near Hope Court","properties":{"access":"private","bicycle_pa":"shed","capacity":0,"covered":"","fee":"","operator":"","nameSource":"junction"},"sourceId":"osm"},{"id":"osm:node:12692845558","latitude":51.4472605,"longitude":-2.6138636,"name":"Weare Court near Canada Way","properties":{"access":"unknown","bicycle_pa":"stands","capacity":10,"covered":"yes","fee":"","operator":"","nameSource":"junction"},"sourceId":"osm"},{"id":"osm:node:12692893417","latitude":51.4472822,"longitude":-2.6154272,"name":"Westbrooke Court by The Cottage","properties":{"access":"unknown","bicycle_pa":"stands","capacity":18,"covered":"no","fee":"","operator":"","nameSource":"landmark"},"sourceId":"osm"},{"id":"osm:node:12692896076","latitude":51.4470025,"longitude":-2.612945,"name":"Canada Way near Hope Court","properties":{"access":"private","bicycle_pa":"shed","capacity":0,"covered":"","fee":"","operator":"","nameSource":"junction"},"sourceId":"osm"},{"id":"osm:node:12692901238","latitude":51.44706,"longitude":-2.6128291,"name":"Canada Way near Hope Court","properties":{"access":"private","bicycle_pa":"shed","capacity":0,"covered":"","fee":"","operator":"","nameSource":"junction"},"sourceId":"osm"},{"id":"osm:node:12692903330","latitude":51.4472121,"longitude":-2.6124942,"name":"Napier Court near Gefle Close","properties":{"access":"unknown","bicycle_pa":"stands","capacity":10,"covered":"yes","fee":"","operator":"","nameSource":"junction"},"sourceId":"osm"},{"id":"osm:node:12692906542","latitude":51.4470202,"longitude":-2.6129601,"name":"Canada Way near Hope Court","properties":{"access":"private","bicycle_pa":"shed","capacity":0,"covered":"","fee":"","operator":"","nameSource":"junction"},"sourceId":"osm"},{"id":"osm:node:12706029557","latitude":51.4485854,"longitude":-2.6035321,"name":"Cathedral Walk near Canons Way","properties":{"access":"yes","bicycle_pa":"","capacity":5,"covered":"","fee":"no","operator":"","nameSource":"junction"},"sourceId":"osm"},{"id":"osm:node:12787766289","latitude":51.4519864,"longitude":-2.5742493,"name":"Freestone Road near Oxford Street","properties":{"access":"unknown","bicycle_pa":"stands","capacity":6,"covered":"no","fee":"","operator":"","nameSource":"junction"},"sourceId":"osm"},{"id":"osm:node:12788061727","latitude":51.4420122,"longitude":-2.5942263,"name":"Bartley Street by MK customs","properties":{"access":"unknown","bicycle_pa":"stands","capacity":10,"covered":"no","fee":"","operator":"","nameSource":"landmark"},"sourceId":"osm"},{"id":"osm:node:12791587454","latitude":51.4469661,"longitude":-2.6179187,"name":"Nova Scotia Place by Underfall Cafe","properties":{"access":"unknown","bicycle_pa":"stands","capacity":6,"covered":"no","fee":"","operator":"","nameSource":"landmark"},"sourceId":"osm"},{"id":"osm:node:12794516830","latitude":51.4412908,"longitude":-2.5969618,"name":"Stafford Street near Leicester Street","properties":{"access":"unknown","bicycle_pa":"stands","capacity":8,"covered":"no","fee":"","operator":"","nameSource":"junction"},"sourceId":"osm"},{"id":"osm:node:12806056041","latitude":51.4528193,"longitude":-2.5809927,"name":"New Kingsley Road near Avon Street","properties":{"access":"unknown","bicycle_pa":"stands","capacity":6,"covered":"no","fee":"","operator":"","nameSource":"junction"},"sourceId":"osm"},{"id":"osm:node:12813558301","latitude":51.4380276,"longitude":-2.6007503,"name":"Sheene Road near Malago Road","properties":{"access":"unknown","bicycle_pa":"","capacity":0,"covered":"","fee":"","operator":"","nameSource":"junction"},"sourceId":"osm"},{"id":"osm:node:12868352584","latitude":51.4507607,"longitude":-2.5834947,"name":"Rivergate cycle parking","properties":{"access":"unknown","bicycle_pa":"stands","capacity":8,"covered":"no","fee":"","operator":"","nameSource":"street"},"sourceId":"osm"},{"id":"osm:node:12869154579","latitude":51.4522655,"longitude":-2.588466,"name":"Saint Thomas Street East near Victoria Street","properties":{"access":"unknown","bicycle_pa":"stands","capacity":4,"covered":"no","fee":"","operator":"","nameSource":"junction"},"sourceId":"osm"},{"id":"osm:node:12869177926","latitude":51.4535252,"longitude":-2.5945276,"name":"Saint Stephen's Street near Baldwin Street","properties":{"access":"unknown","bicycle_pa":"stands","capacity":6,"covered":"no","fee":"","operator":"","nameSource":"junction"},"sourceId":"osm"},{"id":"osm:node:12897001669","latitude":51.4537399,"longitude":-2.5870166,"name":"Counterslip near Saint Philip's Bridge","properties":{"access":"unknown","bicycle_pa":"stands","capacity":6,"covered":"no","fee":"","operator":"","nameSource":"junction"},"sourceId":"osm"},{"id":"osm:node:12910910562","latitude":51.4427738,"longitude":-2.6015099,"name":"Lydstep Terrace by Dame Emily Park","properties":{"access":"unknown","bicycle_pa":"stands","capacity":6,"covered":"no","fee":"","operator":"","nameSource":"landmark"},"sourceId":"osm"},{"id":"osm:node:12910996210","latitude":51.4427578,"longitude":-2.6014753,"name":"Lydstep Terrace by Dame Emily Park","properties":{"access":"unknown","bicycle_pa":"stands","capacity":6,"covered":"no","fee":"","operator":"","nameSource":"landmark"},"sourceId":"osm"},{"id":"osm:node:12911049676","latitude":51.441742,"longitude":-2.5950208,"name":"Dalby Avenue cycle parking","properties":{"access":"unknown","bicycle_pa":"stands","capacity":16,"covered":"no","fee":"","operator":"","nameSource":"street"},"sourceId":"osm"},{"id":"osm:node:12911080175","latitude":51.4422314,"longitude":-2.5948692,"name":"Bartley Street near Clarke Street","properties":{"access":"unknown","bicycle_pa":"stands","capacity":8,"covered":"no","fee":"","operator":"","nameSource":"junction"},"sourceId":"osm"},{"id":"osm:node:12912468291","latitude":51.4524134,"longitude":-2.5654871,"name":"Holmes Street near Canterbury Street","properties":{"access":"private","bicycle_pa":"","capacity":6,"covered":"yes","fee":"","operator":"Lock It Safe","nameSource":"junction"},"sourceId":"osm"},{"id":"osm:node:12912468296","latitude":51.4521352,"longitude":-2.5651382,"name":"Beaconsfield Street near Canterbury Street","properties":{"access":"members","bicycle_pa":"","capacity":12,"covered":"yes","fee":"","operator":"","nameSource":"junction"},"sourceId":"osm"},{"id":"osm:node:12973154705","latitude":51.4516918,"longitude":-2.5981978,"name":"Bordeaux Quay by Watershed","properties":{"access":"unknown","bicycle_pa":"stands","capacity":10,"covered":"yes","fee":"","operator":"","nameSource":"landmark"},"sourceId":"osm"},{"id":"osm:node:12992899179","latitude":51.4530075,"longitude":-2.5831778,"name":"Avon Street near Temple Way","properties":{"access":"unknown","bicycle_pa":"stands","capacity":12,"covered":"yes","fee":"","operator":"","nameSource":"junction"},"sourceId":"osm"},{"id":"osm:node:13001545919","latitude":51.4534094,"longitude":-2.5824232,"name":"Old Bread Street near Slees Lane","properties":{"access":"unknown","bicycle_pa":"stands","capacity":12,"covered":"no","fee":"","operator":"","nameSource":"junction"},"sourceId":"osm"},{"id":"osm:node:13004050317","latitude":51.4414189,"longitude":-2.6021815,"name":"North Street near Merrywood Road","properties":{"access":"unknown","bicycle_pa":"stands","capacity":2,"covered":"no","fee":"","operator":"","nameSource":"junction"},"sourceId":"osm"},{"id":"osm:node:13013915673","latitude":51.4356917,"longitude":-2.6251208,"name":"Ashton Rise near Colliery Close","properties":{"access":"unknown","bicycle_pa":"stands","capacity":4,"covered":"no","fee":"","operator":"","nameSource":"junction"},"sourceId":"osm"},{"id":"osm:node:13074433307","latitude":51.4449076,"longitude":-2.6205339,"name":"Clift House Road near Jessop Underpass","properties":{"access":"customers","bicycle_pa":"stands","capacity":18,"covered":"no","fee":"","operator":"","nameSource":"junction"},"sourceId":"osm"},{"id":"osm:node:13082366864","latitude":51.4518387,"longitude":-2.5790137,"name":"Pugs Lane near Avon Street","properties":{"access":"unknown","bicycle_pa":"stands","capacity":10,"covered":"no","fee":"","operator":"","nameSource":"junction"},"sourceId":"osm"},{"id":"osm:node:13082378590","latitude":51.4519629,"longitude":-2.5778365,"name":"Anvil Street near Barton Road","properties":{"access":"unknown","bicycle_pa":"stands","capacity":4,"covered":"no","fee":"","operator":"","nameSource":"junction"},"sourceId":"osm"},{"id":"osm:node:13082398005","latitude":51.4529343,"longitude":-2.5790608,"name":"Sweetman Place near Barleyfields","properties":{"access":"unknown","bicycle_pa":"stands","capacity":8,"covered":"no","fee":"","operator":"","nameSource":"junction"},"sourceId":"osm"},{"id":"osm:node:13108529827","latitude":51.407271,"longitude":-2.5771259,"name":"Belland Drive near Whitchurch Lane","properties":{"access":"unknown","bicycle_pa":"stands","capacity":4,"covered":"no","fee":"","operator":"","nameSource":"junction"},"sourceId":"osm"},{"id":"osm:node:13108533279","latitude":51.42304,"longitude":-2.5767748,"name":"Hazel Road near Airport Road","properties":{"access":"unknown","bicycle_pa":"stands","capacity":10,"covered":"no","fee":"","operator":"","nameSource":"junction"},"sourceId":"osm"},{"id":"osm:node:13108559306","latitude":51.4230699,"longitude":-2.5766834,"name":"Hazel Road near Airport Road","properties":{"access":"unknown","bicycle_pa":"stands","capacity":10,"covered":"no","fee":"","operator":"","nameSource":"junction"},"sourceId":"osm"},{"id":"osm:node:13114906366","latitude":51.4515148,"longitude":-2.5892061,"name":"Cross Street near Saint Thomas Street","properties":{"access":"unknown","bicycle_pa":"stands","capacity":10,"covered":"no","fee":"","operator":"","nameSource":"junction"},"sourceId":"osm"},{"id":"osm:node:13114906367","latitude":51.4520148,"longitude":-2.5899525,"name":"Thomas Lane near Little Thomas Lane","properties":{"access":"unknown","bicycle_pa":"stands","capacity":12,"covered":"no","fee":"","operator":"","nameSource":"junction"},"sourceId":"osm"},{"id":"osm:node:13114906388","latitude":51.4515189,"longitude":-2.5894931,"name":"Cross Street near Saint Thomas Street","properties":{"access":"unknown","bicycle_pa":"stands","capacity":8,"covered":"no","fee":"","operator":"","nameSource":"junction"},"sourceId":"osm"},{"id":"osm:node:13123362573","latitude":51.4458431,"longitude":-2.6019573,"name":"Osborne Road near Coronation Road","properties":{"access":"private","bicycle_pa":"","capacity":6,"covered":"yes","fee":"","operator":"Lock It Safe","nameSource":"junction"},"sourceId":"osm"},{"id":"osm:node:13123362574","latitude":51.4443686,"longitude":-2.6021008,"name":"Stackpool Road cycle parking","properties":{"access":"private","bicycle_pa":"","capacity":6,"covered":"yes","fee":"","operator":"Lock It Safe","nameSource":"street"},"sourceId":"osm"},{"id":"osm:node:13140556061","latitude":51.452773,"longitude":-2.5847929,"name":"Temple Way near Temple Way Underpass","properties":{"access":"unknown","bicycle_pa":"stands","capacity":4,"covered":"no","fee":"","operator":"","nameSource":"junction"},"sourceId":"osm"},{"id":"osm:node:13140940690","latitude":51.450416,"longitude":-2.5865473,"name":"Temple Street near Victoria Street","properties":{"access":"unknown","bicycle_pa":"stands","capacity":12,"covered":"yes","fee":"","operator":"","nameSource":"junction"},"sourceId":"osm"},{"id":"osm:node:13140940691","latitude":51.4464203,"longitude":-2.591503,"name":"Redcliff Hill near Bedminster Bridge Roundabout","properties":{"access":"unknown","bicycle_pa":"stands","capacity":4,"covered":"no","fee":"","operator":"","nameSource":"junction"},"sourceId":"osm"},{"id":"osm:node:13140953819","latitude":51.4493378,"longitude":-2.5864045,"name":"Portwall Lane East by Coffee Box","properties":{"access":"unknown","bicycle_pa":"stands","capacity":4,"covered":"no","fee":"","operator":"","nameSource":"landmark"},"sourceId":"osm"},{"id":"osm:node:13140963458","latitude":51.450594,"longitude":-2.5866992,"name":"Temple Street near Victoria Street","properties":{"access":"unknown","bicycle_pa":"stands","capacity":12,"covered":"yes","fee":"","operator":"","nameSource":"junction"},"sourceId":"osm"},{"id":"osm:node:13140963566","latitude":51.4463378,"longitude":-2.5915558,"name":"Commercial Road near Bedminster Bridge Roundabout","properties":{"access":"private","bicycle_pa":"shed","capacity":0,"covered":"","fee":"","operator":"","nameSource":"junction"},"sourceId":"osm"},{"id":"osm:node:13145150398","latitude":51.4455593,"longitude":-2.6029706,"name":"Allington Road near Osborne Road","properties":{"access":"private","bicycle_pa":"shed","capacity":0,"covered":"","fee":"","operator":"","nameSource":"junction"},"sourceId":"osm"},{"id":"osm:node:13176615483","latitude":51.4509255,"longitude":-2.575234,"name":"Gas Lane near Freestone Road","properties":{"access":"unknown","bicycle_pa":"stands","capacity":6,"covered":"no","fee":"","operator":"","nameSource":"junction"},"sourceId":"osm"},{"id":"osm:node:13176615818","latitude":51.4508539,"longitude":-2.5749189,"name":"Gas Lane near Freestone Road","properties":{"access":"unknown","bicycle_pa":"stands","capacity":6,"covered":"no","fee":"","operator":"","nameSource":"junction"},"sourceId":"osm"},{"id":"osm:node:13236511702","latitude":51.4521592,"longitude":-2.5795747,"name":"Avon Street near Pugs Lane","properties":{"access":"unknown","bicycle_pa":"","capacity":0,"covered":"","fee":"","operator":"","nameSource":"junction"},"sourceId":"osm"},{"id":"osm:node:13287025233","latitude":51.4431783,"longitude":-2.5675672,"name":"Central Road near The Hill","properties":{"access":"unknown","bicycle_pa":"stands","capacity":12,"covered":"no","fee":"","operator":"","nameSource":"junction"},"sourceId":"osm"},{"id":"osm:node:13288741041","latitude":51.4467615,"longitude":-2.587929,"name":"Somerset Square near Cathay","properties":{"access":"private","bicycle_pa":"shed","capacity":0,"covered":"","fee":"","operator":"","nameSource":"junction"},"sourceId":"osm"},{"id":"osm:node:13288800549","latitude":51.4426159,"longitude":-2.6067579,"name":"Stackpool Road near Hamilton Road","properties":{"access":"unknown","bicycle_pa":"stands","capacity":4,"covered":"no","fee":"","operator":"","nameSource":"junction"},"sourceId":"osm"},{"id":"osm:node:13294928757","latitude":51.4484359,"longitude":-2.5757508,"name":"Albert Road near Victoria Road","properties":{"access":"unknown","bicycle_pa":"stands","capacity":16,"covered":"no","fee":"","operator":"","nameSource":"junction"},"sourceId":"osm"},{"id":"osm:node:13373704949","latitude":51.453766,"longitude":-2.6176281,"name":"Regent Street near Clifton Hill","properties":{"access":"unknown","bicycle_pa":"stands","capacity":4,"covered":"no","fee":"","operator":"","nameSource":"junction"},"sourceId":"osm"},{"id":"osm:node:13730382267","latitude":51.4533672,"longitude":-2.590584,"name":"Redcliff Street near Victoria Street","properties":{"access":"unknown","bicycle_pa":"stands","capacity":10,"covered":"no","fee":"","operator":"","nameSource":"junction"},"sourceId":"osm"},{"id":"osm:node:13730434486","latitude":51.453191,"longitude":-2.5908431,"name":"Redcliff Street near Victoria Street","properties":{"access":"unknown","bicycle_pa":"stands","capacity":12,"covered":"no","fee":"","operator":"","nameSource":"junction"},"sourceId":"osm"},{"id":"osm:node:13730434487","latitude":51.4531099,"longitude":-2.5906513,"name":"Redcliff Street near Victoria Street","properties":{"access":"unknown","bicycle_pa":"stands","capacity":6,"covered":"no","fee":"","operator":"","nameSource":"junction"},"sourceId":"osm"},{"id":"osm:node:13755828576","latitude":51.4436091,"longitude":-2.5892395,"name":"New Queen Street near Princess Street","properties":{"access":"unknown","bicycle_pa":"stands","capacity":12,"covered":"no","fee":"","operator":"","nameSource":"junction"},"sourceId":"osm"},{"id":"osm:node:13938374773","latitude":51.4167095,"longitude":-2.6010706,"name":"Wills Way by ScS","properties":{"access":"unknown","bicycle_pa":"stands","capacity":12,"covered":"no","fee":"","operator":"","nameSource":"landmark"},"sourceId":"osm"},{"id":"osm:node:13938600110","latitude":51.4236306,"longitude":-2.5855945,"name":"Filwood Broadway near Creswicke Road","properties":{"access":"unknown","bicycle_pa":"stands","capacity":4,"covered":"no","fee":"","operator":"","nameSource":"junction"},"sourceId":"osm"},{"id":"osm:node:13938674386","latitude":51.4250958,"longitude":-2.5855689,"name":"Filwood Broadway near Barnstaple Road","properties":{"access":"unknown","bicycle_pa":"stands","capacity":4,"covered":"no","fee":"","operator":"","nameSource":"junction"},"sourceId":"osm"},{"id":"osm:node:13952701064","latitude":51.450583,"longitude":-2.5964725,"name":"Prince Street near Middle Avenue","properties":{"access":"unknown","bicycle_pa":"stands","capacity":6,"covered":"no","fee":"","operator":"","nameSource":"junction"},"sourceId":"osm"},{"id":"osm:node:1398493949","latitude":51.4506293,"longitude":-2.5817656,"name":"Isambard Walk near Friary","properties":{"access":"unknown","bicycle_pa":"stands","capacity":8,"covered":"no","fee":"","operator":"","nameSource":"junction"},"sourceId":"osm"},{"id":"osm:node:13986239198","latitude":51.4513939,"longitude":-2.6008211,"name":"Anchor Road by Bristol Cathedral Choir School","properties":{"access":"unknown","bicycle_pa":"stands","capacity":10,"covered":"no","fee":"","operator":"","nameSource":"landmark"},"sourceId":"osm"},{"id":"osm:node:13986426037","latitude":51.4470557,"longitude":-2.5616936,"name":"Saint Philips Causeway by KFC","properties":{"access":"unknown","bicycle_pa":"stands","capacity":8,"covered":"no","fee":"","operator":"","nameSource":"landmark"},"sourceId":"osm"},{"id":"osm:node:13986426091","latitude":51.4422546,"longitude":-2.5646447,"name":"Bath Road near Edward Road","properties":{"access":"unknown","bicycle_pa":"stands","capacity":6,"covered":"no","fee":"","operator":"","nameSource":"junction"},"sourceId":"osm"},{"id":"osm:node:13986453104","latitude":51.4476241,"longitude":-2.5620175,"name":"Saint Philips Causeway by Starbucks","properties":{"access":"unknown","bicycle_pa":"stands","capacity":6,"covered":"no","fee":"","operator":"","nameSource":"landmark"},"sourceId":"osm"},{"id":"osm:node:1401003892","latitude":51.4470457,"longitude":-2.6218286,"name":"Smeaton Road near Grenville Place","properties":{"access":"unknown","bicycle_pa":"stands","capacity":14,"covered":"no","fee":"","operator":"","nameSource":"junction"},"sourceId":"osm"},{"id":"osm:node:1401003895","latitude":51.4468151,"longitude":-2.6220203,"name":"Smeaton Road near Grenville Place","properties":{"access":"unknown","bicycle_pa":"stands","capacity":10,"covered":"yes","fee":"","operator":"","nameSource":"junction"},"sourceId":"osm"},{"id":"osm:node:1404695907","latitude":51.4399937,"longitude":-2.5735689,"name":"Wells Road near Haverstock Road","properties":{"access":"unknown","bicycle_pa":"stands","capacity":2,"covered":"no","fee":"","operator":"","nameSource":"junction"},"sourceId":"osm"},{"id":"osm:node:1404695932","latitude":51.4410273,"longitude":-2.5763003,"name":"Knowle Road near Firfield Street","properties":{"access":"unknown","bicycle_pa":"stands","capacity":8,"covered":"no","fee":"no","operator":"","nameSource":"junction"},"sourceId":"osm"},{"id":"osm:node:1404714499","latitude":51.4480683,"longitude":-2.5831203,"name":"A4 near Station Approach","properties":{"access":"unknown","bicycle_pa":"stands","capacity":4,"covered":"no","fee":"","operator":"","nameSource":"junction"},"sourceId":"osm"},{"id":"osm:node:1422417097","latitude":51.4168477,"longitude":-2.5997987,"name":"DW Sports Stores cycle parking","properties":{"access":"unknown","bicycle_pa":"stands","capacity":0,"covered":"yes","fee":"","operator":"","nameSource":"landmark"},"sourceId":"osm"},{"id":"osm:node:1516026685","latitude":51.4495528,"longitude":-2.6122349,"name":"Hotwell Road by Grain Barge","properties":{"access":"unknown","bicycle_pa":"stands","capacity":4,"covered":"no","fee":"","operator":"","nameSource":"landmark"},"sourceId":"osm"},{"id":"osm:node:1516026690","latitude":51.4495445,"longitude":-2.6123328,"name":"Hotwell Road by Grain Barge","properties":{"access":"unknown","bicycle_pa":"stands","capacity":10,"covered":"no","fee":"","operator":"","nameSource":"landmark"},"sourceId":"osm"},{"id":"osm:node:1686251913","latitude":51.4439001,"longitude":-2.5998699,"name":"Dean Lane near Acramans Road","properties":{"access":"unknown","bicycle_pa":"","capacity":0,"covered":"no","fee":"","operator":"","nameSource":"junction"},"sourceId":"osm"},{"id":"osm:node:1725272461","latitude":51.4493717,"longitude":-2.6032255,"name":"Canons Way near Cathedral Walk","properties":{"access":"unknown","bicycle_pa":"stands","capacity":12,"covered":"no","fee":"","operator":"","nameSource":"junction"},"sourceId":"osm"},{"id":"osm:node:1725272469","latitude":51.4492737,"longitude":-2.602955,"name":"Cathedral Walk near Canons Way","properties":{"access":"unknown","bicycle_pa":"stands","capacity":12,"covered":"no","fee":"","operator":"","nameSource":"junction"},"sourceId":"osm"},{"id":"osm:node:1749482739","latitude":51.4527224,"longitude":-2.5895782,"name":"Saint Thomas Street near Victoria Street","properties":{"access":"unknown","bicycle_pa":"stands","capacity":8,"covered":"no","fee":"","operator":"","nameSource":"junction"},"sourceId":"osm"},{"id":"osm:node:1750934486","latitude":51.4526266,"longitude":-2.5969419,"name":"Broad Quay by Sainsbury's Local","properties":{"access":"unknown","bicycle_pa":"stands","capacity":10,"covered":"no","fee":"","operator":"","nameSource":"landmark"},"sourceId":"osm"},{"id":"osm:node:1750934495","latitude":51.4526467,"longitude":-2.5981891,"name":"St Augustine's Parade near College Green","properties":{"access":"unknown","bicycle_pa":"stands","capacity":6,"covered":"no","fee":"","operator":"","nameSource":"junction"},"sourceId":"osm"},{"id":"osm:node:1750934496","latitude":51.4505738,"longitude":-2.6019051,"name":"Cathedral Walk by Mocha Mocha","properties":{"access":"unknown","bicycle_pa":"stands","capacity":18,"covered":"no","fee":"","operator":"","nameSource":"landmark"},"sourceId":"osm"},{"id":"osm:node:1750934497","latitude":51.4525511,"longitude":-2.5977933,"name":"Canons Road near St Augustine's Parade","properties":{"access":"unknown","bicycle_pa":"stands","capacity":12,"covered":"no","fee":"","operator":"","nameSource":"junction"},"sourceId":"osm"},{"id":"osm:node:1750934498","latitude":51.4514546,"longitude":-2.6041625,"name":"Saint Georges Road near Deanery Road","properties":{"access":"unknown","bicycle_pa":"stands","capacity":6,"covered":"no","fee":"","operator":"","nameSource":"junction"},"sourceId":"osm"},{"id":"osm:node:1750934504","latitude":51.4496903,"longitude":-2.601104,"name":"Explore Lane near Millennium Promenade","properties":{"access":"unknown","bicycle_pa":"stands","capacity":12,"covered":"no","fee":"","operator":"","nameSource":"junction"},"sourceId":"osm"},{"id":"osm:node:1750934505","latitude":51.4500363,"longitude":-2.6025484,"name":"Cathedral Walk near Millennium Promenade","properties":{"access":"unknown","bicycle_pa":"","capacity":16,"covered":"no","fee":"","operator":"","nameSource":"junction"},"sourceId":"osm"},{"id":"osm:node:1750934507","latitude":51.4517356,"longitude":-2.6024913,"name":"College Street near Deanery Road","properties":{"access":"unknown","bicycle_pa":"stands","capacity":6,"covered":"no","fee":"","operator":"","nameSource":"junction"},"sourceId":"osm"},{"id":"osm:node:1750934508","latitude":51.4497145,"longitude":-2.6028719,"name":"Cathedral Walk near Millennium Promenade","properties":{"access":"unknown","bicycle_pa":"stands","capacity":22,"covered":"no","fee":"","operator":"","nameSource":"junction"},"sourceId":"osm"},{"id":"osm:node:1750934509","latitude":51.4529339,"longitude":-2.60192,"name":"Frog Lane by The Vestibule","properties":{"access":"unknown","bicycle_pa":"stands","capacity":4,"covered":"no","fee":"","operator":"","nameSource":"landmark"},"sourceId":"osm"},{"id":"osm:node:1750934511","latitude":51.4538406,"longitude":-2.5973998,"name":"St Augustine's Parade near Colston Avenue","properties":{"access":"unknown","bicycle_pa":"stands","capacity":12,"covered":"no","fee":"","operator":"","nameSource":"junction"},"sourceId":"osm"},{"id":"osm:node:1750934515","latitude":51.4536066,"longitude":-2.5968599,"name":"Clare Street near Marsh Street","properties":{"access":"unknown","bicycle_pa":"stands","capacity":4,"covered":"no","fee":"","operator":"","nameSource":"junction"},"sourceId":"osm"},{"id":"osm:node:1750934524","latitude":51.4495935,"longitude":-2.6010908,"name":"Explore Lane near Millennium Promenade","properties":{"access":"unknown","bicycle_pa":"stands","capacity":44,"covered":"no","fee":"","operator":"","nameSource":"junction"},"sourceId":"osm"},{"id":"osm:node:1750934528","latitude":51.4510241,"longitude":-2.6023371,"name":"College Square near Anchor Road","properties":{"access":"unknown","bicycle_pa":"stands","capacity":10,"covered":"no","fee":"","operator":"","nameSource":"junction"},"sourceId":"osm"},{"id":"osm:node:1750934537","latitude":51.4523299,"longitude":-2.5980995,"name":"Canons Road near College Green","properties":{"access":"unknown","bicycle_pa":"stands","capacity":28,"covered":"no","fee":"","operator":"","nameSource":"junction"},"sourceId":"osm"},{"id":"osm:node:1750934542","latitude":51.4528884,"longitude":-2.6025553,"name":"Saint Georges Road near Brandon Steep","properties":{"access":"unknown","bicycle_pa":"stands","capacity":18,"covered":"no","fee":"","operator":"","nameSource":"junction"},"sourceId":"osm"},{"id":"osm:node:1750934551","latitude":51.4516831,"longitude":-2.602313,"name":"College Street near Deanery Road","properties":{"access":"unknown","bicycle_pa":"stands","capacity":18,"covered":"no","fee":"","operator":"","nameSource":"junction"},"sourceId":"osm"},{"id":"osm:node:1750934552","latitude":51.4517823,"longitude":-2.6021936,"name":"Deanery Road near College Street","properties":{"access":"unknown","bicycle_pa":"stands","capacity":10,"covered":"no","fee":"","operator":"","nameSource":"junction"},"sourceId":"osm"},{"id":"osm:node:1750934555","latitude":51.449636,"longitude":-2.6026506,"name":"Cathedral Walk near Millennium Promenade","properties":{"access":"unknown","bicycle_pa":"stands","capacity":22,"covered":"no","fee":"","operator":"","nameSource":"junction"},"sourceId":"osm"},{"id":"osm:node:1750941693","latitude":51.453681,"longitude":-2.5964078,"name":"Clare Street near Marsh Street","properties":{"access":"unknown","bicycle_pa":"stands","capacity":10,"covered":"no","fee":"","operator":"","nameSource":"junction"},"sourceId":"osm"},{"id":"osm:node:1750941712","latitude":51.4534649,"longitude":-2.5960343,"name":"Marsh Street near Baldwin Street","properties":{"access":"unknown","bicycle_pa":"stands","capacity":6,"covered":"no","fee":"","operator":"","nameSource":"junction"},"sourceId":"osm"},{"id":"osm:node:1750941732","latitude":51.4536108,"longitude":-2.5897988,"name":"Bath Street near Grimes Lane","properties":{"access":"unknown","bicycle_pa":"stands","capacity":12,"covered":"no","fee":"","operator":"","nameSource":"junction"},"sourceId":"osm"},{"id":"osm:node:1750941748","latitude":51.4534721,"longitude":-2.5961047,"name":"Marsh Street near Baldwin Street","properties":{"access":"unknown","bicycle_pa":"stands","capacity":6,"covered":"no","fee":"","operator":"","nameSource":"junction"},"sourceId":"osm"},{"id":"osm:node:1750941752","latitude":51.4539189,"longitude":-2.5931706,"name":"Exchange Avenue near Saint Nicholas Street","properties":{"access":"unknown","bicycle_pa":"stands","capacity":20,"covered":"no","fee":"","operator":"","nameSource":"junction"},"sourceId":"osm"},{"id":"osm:node:1750941770","latitude":51.4539267,"longitude":-2.5926126,"name":"All Saints' Lane near Saint Nicholas Steps","properties":{"access":"unknown","bicycle_pa":"stands","capacity":4,"covered":"no","fee":"","operator":"","nameSource":"junction"},"sourceId":"osm"},{"id":"osm:node:1751232296","latitude":51.4521981,"longitude":-2.5882297,"name":"Victoria Street near Saint Thomas Street East","properties":{"access":"unknown","bicycle_pa":"stands","capacity":8,"covered":"no","fee":"","operator":"","nameSource":"junction"},"sourceId":"osm"},{"id":"osm:node:1751232312","latitude":51.4525162,"longitude":-2.5885092,"name":"Victoria Street near Saint Thomas Street East","properties":{"access":"unknown","bicycle_pa":"stands","capacity":4,"covered":"no","fee":"","operator":"","nameSource":"junction"},"sourceId":"osm"},{"id":"osm:node:1751232320","latitude":51.4498718,"longitude":-2.588517,"name":"Saint Thomas Street near Canynge Street","properties":{"access":"unknown","bicycle_pa":"stands","capacity":4,"covered":"no","fee":"","operator":"","nameSource":"junction"},"sourceId":"osm"},{"id":"osm:node:1751232324","latitude":51.4523624,"longitude":-2.5882388,"name":"Saint Thomas Street East near Victoria Street","properties":{"access":"unknown","bicycle_pa":"stands","capacity":4,"covered":"no","fee":"","operator":"","nameSource":"junction"},"sourceId":"osm"},{"id":"osm:node:1751232326","latitude":51.4492972,"longitude":-2.5891225,"name":"Portwall Lane near Phippen Street","properties":{"access":"unknown","bicycle_pa":"stands","capacity":8,"covered":"no","fee":"","operator":"","nameSource":"junction"},"sourceId":"osm"},{"id":"osm:node:1751232328","latitude":51.452171,"longitude":-2.5879434,"name":"Victoria Street near Saint Thomas Street East","properties":{"access":"unknown","bicycle_pa":"stands","capacity":18,"covered":"no","fee":"","operator":"","nameSource":"junction"},"sourceId":"osm"},{"id":"osm:node:1751232329","latitude":51.4495174,"longitude":-2.5900163,"name":"Redcliff Street near Portwall Lane","properties":{"access":"unknown","bicycle_pa":"stands","capacity":4,"covered":"no","fee":"","operator":"","nameSource":"junction"},"sourceId":"osm"},{"id":"osm:node:1751232339","latitude":51.4492584,"longitude":-2.5952731,"name":"The Grove near Grove Avenue","properties":{"access":"unknown","bicycle_pa":"stands","capacity":12,"covered":"no","fee":"","operator":"","nameSource":"junction"},"sourceId":"osm"},{"id":"osm:node:1751232343","latitude":51.4528608,"longitude":-2.6004921,"name":"College Green near College Lane","properties":{"access":"unknown","bicycle_pa":"stands","capacity":2,"covered":"no","fee":"","operator":"","nameSource":"junction"},"sourceId":"osm"},{"id":"osm:node:1751232346","latitude":51.4529022,"longitude":-2.6005731,"name":"College Green near Park Street","properties":{"access":"unknown","bicycle_pa":"stands","capacity":4,"covered":"no","fee":"","operator":"","nameSource":"junction"},"sourceId":"osm"},{"id":"osm:node:1751232351","latitude":51.4529837,"longitude":-2.6010029,"name":"College Green near Park Street","properties":{"access":"unknown","bicycle_pa":"stands","capacity":6,"covered":"no","fee":"","operator":"","nameSource":"junction"},"sourceId":"osm"},{"id":"osm:node:1751232359","latitude":51.4519317,"longitude":-2.5887923,"name":"Saint Thomas Street near Saint Thomas Street East","properties":{"access":"unknown","bicycle_pa":"stands","capacity":4,"covered":"no","fee":"","operator":"","nameSource":"junction"},"sourceId":"osm"},{"id":"osm:node:1751232360","latitude":51.4518706,"longitude":-2.5888458,"name":"Saint Thomas Street near Saint Thomas Street East","properties":{"access":"unknown","bicycle_pa":"stands","capacity":4,"covered":"no","fee":"","operator":"","nameSource":"junction"},"sourceId":"osm"},{"id":"osm:node:1751232367","latitude":51.4518104,"longitude":-2.5888569,"name":"Saint Thomas Street near Saint Thomas Street East","properties":{"access":"unknown","bicycle_pa":"stands","capacity":4,"covered":"no","fee":"","operator":"","nameSource":"junction"},"sourceId":"osm"},{"id":"osm:node:1751232370","latitude":51.4493039,"longitude":-2.5892137,"name":"Portwall Lane near Phippen Street","properties":{"access":"unknown","bicycle_pa":"stands","capacity":8,"covered":"no","fee":"","operator":"","nameSource":"junction"},"sourceId":"osm"},{"id":"osm:node:1829657930","latitude":51.4510073,"longitude":-2.5819257,"name":"The Square by Temple Quay Market","properties":{"access":"unknown","bicycle_pa":"stands","capacity":28,"covered":"no","fee":"","operator":"","nameSource":"landmark"},"sourceId":"osm"},{"id":"osm:node:1881624842","latitude":51.4516555,"longitude":-2.5818586,"name":"Harratz Place near Rope Walk","properties":{"access":"unknown","bicycle_pa":"stands","capacity":7,"covered":"no","fee":"","operator":"","nameSource":"junction"},"sourceId":"osm"},{"id":"osm:node:1881624845","latitude":51.4520887,"longitude":-2.5828397,"name":"Rope Walk cycle parking","properties":{"access":"unknown","bicycle_pa":"stands","capacity":14,"covered":"no","fee":"","operator":"","nameSource":"street"},"sourceId":"osm"},{"id":"osm:node:1881670842","latitude":51.4503573,"longitude":-2.581965,"name":"Friary near Isambard Walk","properties":{"access":"unknown","bicycle_pa":"stands","capacity":12,"covered":"no","fee":"","operator":"","nameSource":"junction"},"sourceId":"osm"},{"id":"osm:node:1881670843","latitude":51.4505465,"longitude":-2.5817433,"name":"Isambard Walk near Friary","properties":{"access":"unknown","bicycle_pa":"stands","capacity":8,"covered":"no","fee":"","operator":"","nameSource":"junction"},"sourceId":"osm"},{"id":"osm:node:1881670845","latitude":51.4507245,"longitude":-2.5817849,"name":"The Square by Starbucks","properties":{"access":"unknown","bicycle_pa":"stands","capacity":8,"covered":"no","fee":"","operator":"","nameSource":"landmark"},"sourceId":"osm"},{"id":"osm:node:1881696061","latitude":51.448618,"longitude":-2.5901379,"name":"Redcliff Hill near A38","properties":{"access":"unknown","bicycle_pa":"stands","capacity":8,"covered":"no","fee":"","operator":"","nameSource":"junction"},"sourceId":"osm"},{"id":"osm:node:1881728303","latitude":51.4486148,"longitude":-2.6263444,"name":"Dead Badger's Bottom cycle parking","properties":{"access":"unknown","bicycle_pa":"stands","capacity":8,"covered":"no","fee":"","operator":"","nameSource":"street"},"sourceId":"osm"},{"id":"osm:node:1932857741","latitude":51.4121837,"longitude":-2.5837136,"name":"Hengrove Promenade near The Boulevard","properties":{"access":"unknown","bicycle_pa":"","capacity":0,"covered":"","fee":"","operator":"","nameSource":"junction"},"sourceId":"osm"},{"id":"osm:node:1932857745","latitude":51.412292,"longitude":-2.584015,"name":"Hengrove Promenade near The Boulevard","properties":{"access":"unknown","bicycle_pa":"","capacity":0,"covered":"","fee":"","operator":"","nameSource":"junction"},"sourceId":"osm"},{"id":"osm:node:2035023779","latitude":51.4127651,"longitude":-2.5851466,"name":"Hengrove Promenade near The Boulevard","properties":{"access":"unknown","bicycle_pa":"","capacity":0,"covered":"","fee":"","operator":"","nameSource":"junction"},"sourceId":"osm"},{"id":"osm:node:2053591848","latitude":51.4520791,"longitude":-2.5930112,"name":"King Street near Welsh Back","properties":{"access":"unknown","bicycle_pa":"stands","capacity":4,"covered":"no","fee":"","operator":"","nameSource":"junction"},"sourceId":"osm"},{"id":"osm:node:2323224992","latitude":51.4125499,"longitude":-2.5846203,"name":"Hengrove Promenade near The Boulevard","properties":{"access":"unknown","bicycle_pa":"stands","capacity":6,"covered":"no","fee":"","operator":"","nameSource":"junction"},"sourceId":"osm"},{"id":"osm:node:2383579537","latitude":51.4439661,"longitude":-2.5939228,"name":"Regent Road near Bedminster Parade","properties":{"access":"unknown","bicycle_pa":"stands","capacity":6,"covered":"no","fee":"","operator":"","nameSource":"junction"},"sourceId":"osm"},{"id":"osm:node:2383579544","latitude":51.4444711,"longitude":-2.5950479,"name":"New Charlotte Street near Regent Road","properties":{"access":"unknown","bicycle_pa":"stands","capacity":12,"covered":"no","fee":"","operator":"","nameSource":"junction"},"sourceId":"osm"},{"id":"osm:node:2384478569","latitude":51.4468093,"longitude":-2.5912291,"name":"Redcliff Hill near Guinea Street","properties":{"access":"unknown","bicycle_pa":"stands","capacity":4,"covered":"no","fee":"","operator":"","nameSource":"junction"},"sourceId":"osm"},{"id":"osm:node:2385252971","latitude":51.4483776,"longitude":-2.5867902,"name":"Redcliff Mead Lane near Prewett Street","properties":{"access":"unknown","bicycle_pa":"stands","capacity":10,"covered":"no","fee":"","operator":"Temple Point","nameSource":"junction"},"sourceId":"osm"},{"id":"osm:node:2385252972","latitude":51.449715,"longitude":-2.5863679,"name":"Temple Street cycle parking","properties":{"access":"unknown","bicycle_pa":"stands","capacity":10,"covered":"no","fee":"","operator":"","nameSource":"street"},"sourceId":"osm"},{"id":"osm:node:2385252977","latitude":51.4511797,"longitude":-2.5866205,"name":"Victoria Street near Mitchell Lane","properties":{"access":"unknown","bicycle_pa":"stands","capacity":10,"covered":"no","fee":"","operator":"","nameSource":"junction"},"sourceId":"osm"},{"id":"osm:node:2385253012","latitude":51.4522022,"longitude":-2.5883901,"name":"Saint Thomas Street East near Victoria Street","properties":{"access":"unknown","bicycle_pa":"stands","capacity":4,"covered":"no","fee":"","operator":"","nameSource":"junction"},"sourceId":"osm"},{"id":"osm:node:2386384069","latitude":51.4510641,"longitude":-2.5992514,"name":"Anchor Road near Canon's Road","properties":{"access":"unknown","bicycle_pa":"stands","capacity":2,"covered":"no","fee":"","operator":"","nameSource":"junction"},"sourceId":"osm"},{"id":"osm:node:2388352400","latitude":51.4519037,"longitude":-2.5789078,"name":"Pugs Lane near Avon Street","properties":{"access":"unknown","bicycle_pa":"stands","capacity":8,"covered":"no","fee":"","operator":"","nameSource":"junction"},"sourceId":"osm"},{"id":"osm:node:2388352402","latitude":51.4507225,"longitude":-2.5800109,"name":"Harbour walkway cycle parking","properties":{"access":"unknown","bicycle_pa":"stands","capacity":12,"covered":"no","fee":"","operator":"","nameSource":"street"},"sourceId":"osm"},{"id":"osm:node:2409755624","latitude":51.4533518,"longitude":-2.5934064,"name":"Queen Charlotte Street near Baldwin Street","properties":{"access":"unknown","bicycle_pa":"stands","capacity":8,"covered":"no","fee":"","operator":"","nameSource":"junction"},"sourceId":"osm"},{"id":"osm:node:2470238365","latitude":51.4520303,"longitude":-2.5935459,"name":"King Street near Queen Charlotte Street","properties":{"access":"unknown","bicycle_pa":"stands","capacity":12,"covered":"no","fee":"","operator":"","nameSource":"junction"},"sourceId":"osm"},{"id":"osm:node:2527780051","latitude":51.4415714,"longitude":-2.5823624,"name":"Windsor Terrace near St Luke's Road","properties":{"access":"unknown","bicycle_pa":"stands","capacity":6,"covered":"no","fee":"","operator":"","nameSource":"junction"},"sourceId":"osm"},{"id":"osm:node:2892455158","latitude":51.4521867,"longitude":-2.5904233,"name":"Little Thomas Lane near Thomas Lane","properties":{"access":"unknown","bicycle_pa":"stands","capacity":20,"covered":"yes","fee":"","operator":"","nameSource":"junction"},"sourceId":"osm"},{"id":"osm:node:2951628823","latitude":51.4526704,"longitude":-2.6000899,"name":"College Green near College Lane","properties":{"access":"unknown","bicycle_pa":"stands","capacity":8,"covered":"no","fee":"","operator":"","nameSource":"junction"},"sourceId":"osm"},{"id":"osm:node:3022108324","latitude":51.4468506,"longitude":-2.6103202,"name":"Chocolate Path by Spike Island Cafe","properties":{"access":"unknown","bicycle_pa":"stands","capacity":45,"covered":"no","fee":"","operator":"","nameSource":"landmark"},"sourceId":"osm"},{"id":"osm:node:3086720626","latitude":51.4418909,"longitude":-2.6129906,"name":"North Street near Lime Road","properties":{"access":"unknown","bicycle_pa":"stands","capacity":6,"covered":"no","fee":"","operator":"","nameSource":"junction"},"sourceId":"osm"},{"id":"osm:node:3149951766","latitude":51.4527926,"longitude":-2.5886009,"name":"Counterslip near Victoria Street","properties":{"access":"unknown","bicycle_pa":"stands","capacity":4,"covered":"no","fee":"","operator":"","nameSource":"junction"},"sourceId":"osm"},{"id":"osm:node:3149951772","latitude":51.4529407,"longitude":-2.5884277,"name":"Counterslip near Temple Street","properties":{"access":"unknown","bicycle_pa":"stands","capacity":4,"covered":"no","fee":"","operator":"","nameSource":"junction"},"sourceId":"osm"},{"id":"osm:node:3374553088","latitude":51.4518458,"longitude":-2.5946697,"name":"King Street near King William Avenue","properties":{"access":"unknown","bicycle_pa":"stands","capacity":20,"covered":"no","fee":"","operator":"","nameSource":"junction"},"sourceId":"osm"},{"id":"osm:node:3584572363","latitude":51.4532652,"longitude":-2.6020398,"name":"Saint George's Road near Hill Street","properties":{"access":"unknown","bicycle_pa":"stands","capacity":14,"covered":"no","fee":"","operator":"","nameSource":"junction"},"sourceId":"osm"},{"id":"osm:node:3584572367","latitude":51.4533025,"longitude":-2.6021396,"name":"Saint George's Road near Hill Street","properties":{"access":"unknown","bicycle_pa":"stands","capacity":6,"covered":"no","fee":"","operator":"","nameSource":"junction"},"sourceId":"osm"},{"id":"osm:node:364770529","latitude":51.4402619,"longitude":-2.6102254,"name":"North Street near The Nursery","properties":{"access":"unknown","bicycle_pa":"stands","capacity":6,"covered":"no","fee":"","operator":"","nameSource":"junction"},"sourceId":"osm"},{"id":"osm:node:365179127","latitude":51.4420937,"longitude":-2.6133232,"name":"North Street near Raleigh Road","properties":{"access":"unknown","bicycle_pa":"stands","capacity":8,"covered":"no","fee":"","operator":"","nameSource":"junction"},"sourceId":"osm"},{"id":"osm:node:365179128","latitude":51.4420489,"longitude":-2.6134413,"name":"North Street near Raleigh Road","properties":{"access":"unknown","bicycle_pa":"stands","capacity":10,"covered":"no","fee":"","operator":"","nameSource":"junction"},"sourceId":"osm"},{"id":"osm:node:3675206338","latitude":51.4535589,"longitude":-2.5922249,"name":"Welsh Back by Buttermilk & Maple","properties":{"access":"unknown","bicycle_pa":"stands","capacity":8,"covered":"no","fee":"","operator":"","nameSource":"landmark"},"sourceId":"osm"},{"id":"osm:node:3683449001","latitude":51.4531194,"longitude":-2.5914331,"name":"Redcliff Street near Victoria Street","properties":{"access":"unknown","bicycle_pa":"stands","capacity":10,"covered":"no","fee":"","operator":"","nameSource":"junction"},"sourceId":"osm"},{"id":"osm:node:3797515609","latitude":51.4346928,"longitude":-2.5669425,"name":"Wells Road near Broad Walk","properties":{"access":"unknown","bicycle_pa":"stands","capacity":4,"covered":"no","fee":"","operator":"","nameSource":"junction"},"sourceId":"osm"},{"id":"osm:node:3799890136","latitude":51.4242084,"longitude":-2.5696851,"name":"Hengrove Lane near Petherton Road","properties":{"access":"unknown","bicycle_pa":"stands","capacity":4,"covered":"no","fee":"","operator":"","nameSource":"junction"},"sourceId":"osm"},{"id":"osm:node:3805631894","latitude":51.4430018,"longitude":-2.617432,"name":"Frayne Road near Ashton Road","properties":{"access":"unknown","bicycle_pa":"stands","capacity":6,"covered":"no","fee":"","operator":"","nameSource":"junction"},"sourceId":"osm"},{"id":"osm:node:3807624029","latitude":51.4409471,"longitude":-2.6008007,"name":"Cannon Street near British Road","properties":{"access":"unknown","bicycle_pa":"stands","capacity":6,"covered":"no","fee":"","operator":"","nameSource":"junction"},"sourceId":"osm"},{"id":"osm:node:3807624116","latitude":51.4412696,"longitude":-2.5985735,"name":"Church Lane near East Street","properties":{"access":"unknown","bicycle_pa":"stands","capacity":8,"covered":"no","fee":"","operator":"","nameSource":"junction"},"sourceId":"osm"},{"id":"osm:node:3814457475","latitude":51.4413084,"longitude":-2.598818,"name":"East Street near Warden Road","properties":{"access":"unknown","bicycle_pa":"stands","capacity":4,"covered":"no","fee":"","operator":"","nameSource":"junction"},"sourceId":"osm"},{"id":"osm:node:3814457479","latitude":51.441344,"longitude":-2.5986496,"name":"Church Lane near East Street","properties":{"access":"unknown","bicycle_pa":"stands","capacity":4,"covered":"no","fee":"","operator":"","nameSource":"junction"},"sourceId":"osm"},{"id":"osm:node:3955648257","latitude":51.4422471,"longitude":-2.5962297,"name":"East Street near Dalby Avenue","properties":{"access":"unknown","bicycle_pa":"stands","capacity":4,"covered":"no","fee":"","operator":"","nameSource":"junction"},"sourceId":"osm"},{"id":"osm:node:4049215144","latitude":51.4253405,"longitude":-2.59329,"name":"Leinster Avenue near Novers Park Road","properties":{"access":"unknown","bicycle_pa":"","capacity":28,"covered":"","fee":"","operator":"","nameSource":"junction"},"sourceId":"osm"},{"id":"osm:node:4049217748","latitude":51.4257194,"longitude":-2.5923618,"name":"Leinster Avenue near Novers Park Road","properties":{"access":"unknown","bicycle_pa":"stands","capacity":4,"covered":"no","fee":"","operator":"","nameSource":"junction"},"sourceId":"osm"},{"id":"osm:node:4049217892","latitude":51.4282357,"longitude":-2.5864186,"name":"Melvin Square near Leinster Avenue","properties":{"access":"unknown","bicycle_pa":"stands","capacity":8,"covered":"no","fee":"","operator":"","nameSource":"junction"},"sourceId":"osm"},{"id":"osm:node:4049373017","latitude":51.4322516,"longitude":-2.6116175,"name":"Trafalgar Terrace near Hardy Road","properties":{"access":"unknown","bicycle_pa":"stands","capacity":2,"covered":"no","fee":"","operator":"","nameSource":"junction"},"sourceId":"osm"},{"id":"osm:node:4051755253","latitude":51.4513383,"longitude":-2.595621,"name":"Thunderbolt Square by Handelsbanken","properties":{"access":"unknown","bicycle_pa":"stands","capacity":8,"covered":"no","fee":"","operator":"","nameSource":"landmark"},"sourceId":"osm"},{"id":"osm:node:4074281837","latitude":51.4533485,"longitude":-2.5881832,"name":"Counterslip near Temple Street","properties":{"access":"unknown","bicycle_pa":"stands","capacity":20,"covered":"no","fee":"","operator":"","nameSource":"junction"},"sourceId":"osm"},{"id":"osm:node:4117525067","latitude":51.4527977,"longitude":-2.6024149,"name":"College Street cycle parking","properties":{"access":"unknown","bicycle_pa":"stands","capacity":4,"covered":"no","fee":"","operator":"","nameSource":"street"},"sourceId":"osm"},{"id":"osm:node:4158461780","latitude":51.4475224,"longitude":-2.598144,"name":"Museum Street by Ragu","properties":{"access":"unknown","bicycle_pa":"stands","capacity":10,"covered":"no","fee":"","operator":"","nameSource":"landmark"},"sourceId":"osm"},{"id":"osm:node:4187327475","latitude":51.4521383,"longitude":-2.599892,"name":"Trinity Street by Sustrans Shop","properties":{"access":"unknown","bicycle_pa":"stands","capacity":24,"covered":"no","fee":"","operator":"","nameSource":"landmark"},"sourceId":"osm"},{"id":"osm:node:4239199045","latitude":51.4474963,"longitude":-2.5982171,"name":"Museum Street by Magari","properties":{"access":"unknown","bicycle_pa":"stands","capacity":5,"covered":"no","fee":"","operator":"","nameSource":"landmark"},"sourceId":"osm"},{"id":"osm:node:4239199046","latitude":51.4475815,"longitude":-2.5979703,"name":"Museum Street by Clifton Seafood Company","properties":{"access":"unknown","bicycle_pa":"stands","capacity":5,"covered":"no","fee":"","operator":"","nameSource":"landmark"},"sourceId":"osm"},{"id":"osm:node:4239864204","latitude":51.4485531,"longitude":-2.6072853,"name":"Brunel Square near Wapping Railway Wharf","properties":{"access":"unknown","bicycle_pa":"stands","capacity":12,"covered":"no","fee":"","operator":"","nameSource":"junction"},"sourceId":"osm"},{"id":"osm:node:4245166773","latitude":51.4514123,"longitude":-2.5795651,"name":"Harbour walkway by Small Goods","properties":{"access":"unknown","bicycle_pa":"stands","capacity":4,"covered":"no","fee":"","operator":"","nameSource":"landmark"},"sourceId":"osm"},{"id":"osm:node:4311962878","latitude":51.4512363,"longitude":-2.5962378,"name":"Thunderbolt Square by Cow & Sow","properties":{"access":"unknown","bicycle_pa":"stands","capacity":6,"covered":"no","fee":"","operator":"","nameSource":"landmark"},"sourceId":"osm"},{"id":"osm:node:4416906743","latitude":51.4462053,"longitude":-2.5989766,"name":"Cumberland Road near The Gateway","properties":{"access":"unknown","bicycle_pa":"stands","capacity":16,"covered":"no","fee":"","operator":"","nameSource":"junction"},"sourceId":"osm"},{"id":"osm:node:4464173432","latitude":51.4391841,"longitude":-2.6199905,"name":"Raynes Road cycle parking","properties":{"access":"permissive","bicycle_pa":"stands","capacity":50,"covered":"no","fee":"","operator":"","nameSource":"street"},"sourceId":"osm"},{"id":"osm:node:4586721075","latitude":51.4470927,"longitude":-2.5894641,"name":"Prewett Street near Ship Lane","properties":{"access":"unknown","bicycle_pa":"stands","capacity":4,"covered":"no","fee":"","operator":"","nameSource":"junction"},"sourceId":"osm"},{"id":"osm:node:4586721084","latitude":51.4532352,"longitude":-2.5902251,"name":"Victoria Street near Bath Street","properties":{"access":"unknown","bicycle_pa":"stands","capacity":8,"covered":"no","fee":"","operator":"","nameSource":"junction"},"sourceId":"osm"},{"id":"osm:node:4602961532","latitude":51.4427036,"longitude":-2.615144,"name":"Saint Francis Road near North Street","properties":{"access":"unknown","bicycle_pa":"stands","capacity":6,"covered":"no","fee":"","operator":"","nameSource":"junction"},"sourceId":"osm"},{"id":"osm:node:4694375725","latitude":51.4494555,"longitude":-2.6138485,"name":"Hotwell Road near Dock Gate Lane","properties":{"access":"unknown","bicycle_pa":"stands","capacity":2,"covered":"no","fee":"","operator":"","nameSource":"junction"},"sourceId":"osm"},{"id":"osm:node:4750732579","latitude":51.4415721,"longitude":-2.577866,"name":"Bushy Park near Winton Street","properties":{"access":"yes","bicycle_pa":"stands","capacity":6,"covered":"no","fee":"","operator":"","nameSource":"junction"},"sourceId":"osm"},{"id":"osm:node:4765573939","latitude":51.4539987,"longitude":-2.6033824,"name":"Great George Street near Hill Street","properties":{"access":"unknown","bicycle_pa":"stands","capacity":6,"covered":"no","fee":"","operator":"","nameSource":"junction"},"sourceId":"osm"},{"id":"osm:node:4765573940","latitude":51.4539558,"longitude":-2.6035015,"name":"Great George Street near Hill Street","properties":{"access":"unknown","bicycle_pa":"stands","capacity":6,"covered":"no","fee":"","operator":"","nameSource":"junction"},"sourceId":"osm"},{"id":"osm:node:4765573943","latitude":51.4536957,"longitude":-2.6038357,"name":"Great George Street near Bigwood Lane","properties":{"access":"unknown","bicycle_pa":"stands","capacity":12,"covered":"no","fee":"","operator":"","nameSource":"junction"},"sourceId":"osm"},{"id":"osm:node:4870661703","latitude":51.4508132,"longitude":-2.5818018,"name":"The Square by Starbucks","properties":{"access":"unknown","bicycle_pa":"stands","capacity":8,"covered":"no","fee":"","operator":"","nameSource":"landmark"},"sourceId":"osm"},{"id":"osm:node:4870661861","latitude":51.4524909,"longitude":-2.5876263,"name":"Temple Street near Water Lane","properties":{"access":"unknown","bicycle_pa":"stands","capacity":8,"covered":"no","fee":"","operator":"","nameSource":"junction"},"sourceId":"osm"},{"id":"osm:node:4872870939","latitude":51.45218,"longitude":-2.5819131,"name":"Glass wharf near Avon Street","properties":{"access":"unknown","bicycle_pa":"stands","capacity":10,"covered":"no","fee":"","operator":"","nameSource":"junction"},"sourceId":"osm"},{"id":"osm:node:4872870944","latitude":51.4521717,"longitude":-2.5814242,"name":"Glass wharf near Avon Street","properties":{"access":"unknown","bicycle_pa":"stands","capacity":32,"covered":"no","fee":"","operator":"","nameSource":"junction"},"sourceId":"osm"},{"id":"osm:node:4902882771","latitude":51.4430362,"longitude":-2.5679206,"name":"Central Road near The Hill","properties":{"access":"unknown","bicycle_pa":"stands","capacity":16,"covered":"no","fee":"","operator":"","nameSource":"junction"},"sourceId":"osm"},{"id":"osm:node:4909030363","latitude":51.4417382,"longitude":-2.5903346,"name":"Windmill Close near Whitehouse Lane","properties":{"access":"unknown","bicycle_pa":"stands","capacity":8,"covered":"no","fee":"","operator":"","nameSource":"junction"},"sourceId":"osm"},{"id":"osm:node:4909048681","latitude":51.4357853,"longitude":-2.5940444,"name":"Saint John's Lane near Brendon Road","properties":{"access":"unknown","bicycle_pa":"stands","capacity":6,"covered":"no","fee":"","operator":"","nameSource":"junction"},"sourceId":"osm"},{"id":"osm:node:4910652300","latitude":51.4400538,"longitude":-2.5898797,"name":"Somerset Terrace by Feral Folk coffee","properties":{"access":"unknown","bicycle_pa":"stands","capacity":6,"covered":"no","fee":"","operator":"","nameSource":"landmark"},"sourceId":"osm"},{"id":"osm:node:4921062459","latitude":51.4518691,"longitude":-2.5961255,"name":"Prince Street near Broad Quay","properties":{"access":"unknown","bicycle_pa":"stands","capacity":4,"covered":"no","fee":"","operator":"","nameSource":"junction"},"sourceId":"osm"},{"id":"osm:node:4937385143","latitude":51.4077568,"longitude":-2.5577679,"name":"The Witheys by Whitchurch Village Community Centre","properties":{"access":"unknown","bicycle_pa":"","capacity":4,"covered":"","fee":"","operator":"","nameSource":"landmark"},"sourceId":"osm"},{"id":"osm:node:5029423647","latitude":51.4465681,"longitude":-2.5907266,"name":"Redcliff Hill near Guinea Street","properties":{"access":"unknown","bicycle_pa":"stands","capacity":6,"covered":"no","fee":"","operator":"","nameSource":"junction"},"sourceId":"osm"},{"id":"osm:node:5039837889","latitude":51.450341,"longitude":-2.5820301,"name":"Friary near Isambard Walk","properties":{"access":"unknown","bicycle_pa":"stands","capacity":6,"covered":"no","fee":"","operator":"","nameSource":"junction"},"sourceId":"osm"},{"id":"osm:node:5039837890","latitude":51.4503832,"longitude":-2.5819038,"name":"Friary near Isambard Walk","properties":{"access":"unknown","bicycle_pa":"stands","capacity":6,"covered":"no","fee":"","operator":"","nameSource":"junction"},"sourceId":"osm"},{"id":"osm:node:5039852062","latitude":51.4508617,"longitude":-2.582428,"name":"The Square by The Knights Templar","properties":{"access":"unknown","bicycle_pa":"stands","capacity":26,"covered":"no","fee":"","operator":"","nameSource":"landmark"},"sourceId":"osm"},{"id":"osm:node:5039861058","latitude":51.4517462,"longitude":-2.5820729,"name":"Harratz Place near Rope Walk","properties":{"access":"unknown","bicycle_pa":"stands","capacity":6,"covered":"no","fee":"","operator":"","nameSource":"junction"},"sourceId":"osm"},{"id":"osm:node:5039891623","latitude":51.4520629,"longitude":-2.5786759,"name":"Pugs Lane near Anvil Street","properties":{"access":"unknown","bicycle_pa":"stands","capacity":20,"covered":"no","fee":"","operator":"","nameSource":"junction"},"sourceId":"osm"},{"id":"osm:node:5057035258","latitude":51.4510016,"longitude":-2.5904788,"name":"Ferry Street near Redcliff Street","properties":{"access":"unknown","bicycle_pa":"stands","capacity":2,"covered":"no","fee":"","operator":"","nameSource":"junction"},"sourceId":"osm"},{"id":"osm:node:5081362862","latitude":51.4136984,"longitude":-2.6106072,"name":"South Bristol Link near Whitchurch Lane","properties":{"access":"unknown","bicycle_pa":"stands","capacity":4,"covered":"no","fee":"","operator":"","nameSource":"junction"},"sourceId":"osm"},{"id":"osm:node:5081364411","latitude":51.4131732,"longitude":-2.6116939,"name":"Anton Bantock Way near South Bristol Link","properties":{"access":"unknown","bicycle_pa":"stands","capacity":4,"covered":"no","fee":"","operator":"","nameSource":"junction"},"sourceId":"osm"},{"id":"osm:node:5081546130","latitude":51.4111574,"longitude":-2.6183103,"name":"Anton Bantock Way cycle parking","properties":{"access":"unknown","bicycle_pa":"stands","capacity":4,"covered":"no","fee":"","operator":"","nameSource":"street"},"sourceId":"osm"},{"id":"osm:node:5081546131","latitude":51.4110136,"longitude":-2.6189259,"name":"Anton Bantock Way near King George's Road","properties":{"access":"unknown","bicycle_pa":"stands","capacity":4,"covered":"no","fee":"","operator":"","nameSource":"junction"},"sourceId":"osm"},{"id":"osm:node:5081638262","latitude":51.4118354,"longitude":-2.6248812,"name":"King George's Road near Highridge Green","properties":{"access":"unknown","bicycle_pa":"stands","capacity":4,"covered":"no","fee":"","operator":"","nameSource":"junction"},"sourceId":"osm"},{"id":"osm:node:5081735119","latitude":51.4123424,"longitude":-2.6261962,"name":"Highridge Road near Highridge Green","properties":{"access":"unknown","bicycle_pa":"stands","capacity":4,"covered":"no","fee":"","operator":"","nameSource":"junction"},"sourceId":"osm"},{"id":"osm:node:5083982862","latitude":51.4493151,"longitude":-2.5953431,"name":"The Grove near Grove Avenue","properties":{"access":"unknown","bicycle_pa":"stands","capacity":6,"covered":"no","fee":"","operator":"","nameSource":"junction"},"sourceId":"osm"},{"id":"osm:node:5084043452","latitude":51.4491492,"longitude":-2.5883657,"name":"Phippen Street near Portwall Lane","properties":{"access":"unknown","bicycle_pa":"stands","capacity":4,"covered":"no","fee":"","operator":"","nameSource":"junction"},"sourceId":"osm"},{"id":"osm:node:5084323669","latitude":51.4155752,"longitude":-2.624877,"name":"Lakemead Grove near Cutler Road","properties":{"access":"yes","bicycle_pa":"stands","capacity":8,"covered":"no","fee":"no","operator":"","nameSource":"junction"},"sourceId":"osm"},{"id":"osm:node:5085842534","latitude":51.4190119,"longitude":-2.6359947,"name":"A4174 near Lime Kiln Roundabout","properties":{"access":"unknown","bicycle_pa":"stands","capacity":2,"covered":"no","fee":"","operator":"","nameSource":"junction"},"sourceId":"osm"},{"id":"osm:node:5088784761","latitude":51.4297988,"longitude":-2.6342614,"name":"Longmoor Way cycle parking","properties":{"access":"unknown","bicycle_pa":"stands","capacity":2,"covered":"no","fee":"","operator":"","nameSource":"street"},"sourceId":"osm"},{"id":"osm:node:5088784764","latitude":51.430108,"longitude":-2.6341813,"name":"Longmoor Way cycle parking","properties":{"access":"unknown","bicycle_pa":"stands","capacity":2,"covered":"no","fee":"","operator":"","nameSource":"street"},"sourceId":"osm"},{"id":"osm:node:5094603898","latitude":51.4332285,"longitude":-2.6078423,"name":"Parson Street near Temple Street","properties":{"access":"unknown","bicycle_pa":"","capacity":2,"covered":"","fee":"","operator":"","nameSource":"junction"},"sourceId":"osm"},{"id":"osm:node:5094603902","latitude":51.4332786,"longitude":-2.607904,"name":"Parson Street near Temple Street","properties":{"access":"unknown","bicycle_pa":"","capacity":2,"covered":"","fee":"","operator":"","nameSource":"junction"},"sourceId":"osm"},{"id":"osm:node:5290640610","latitude":51.4411596,"longitude":-2.6118111,"name":"North Street near Exeter Road","properties":{"access":"unknown","bicycle_pa":"stands","capacity":6,"covered":"no","fee":"no","operator":"","nameSource":"junction"},"sourceId":"osm"},{"id":"osm:node:5290640611","latitude":51.441733,"longitude":-2.6127378,"name":"Lime Road near North Street","properties":{"access":"unknown","bicycle_pa":"stands","capacity":2,"covered":"no","fee":"","operator":"","nameSource":"junction"},"sourceId":"osm"},{"id":"osm:node:537152321","latitude":51.4510925,"longitude":-2.5928218,"name":"Queen Square Avenue near Welsh Back","properties":{"access":"unknown","bicycle_pa":"stands","capacity":4,"covered":"no","fee":"","operator":"","nameSource":"junction"},"sourceId":"osm"},{"id":"osm:node:5396165774","latitude":51.4513275,"longitude":-2.5841127,"name":"Temple Way near Temple Back East","properties":{"access":"unknown","bicycle_pa":"stands","capacity":8,"covered":"no","fee":"","operator":"","nameSource":"junction"},"sourceId":"osm"},{"id":"osm:node:5401559343","latitude":51.4539677,"longitude":-2.5913416,"name":"Victoria Street near Baldwin Street","properties":{"access":"unknown","bicycle_pa":"stands","capacity":10,"covered":"no","fee":"","operator":"","nameSource":"junction"},"sourceId":"osm"},{"id":"osm:node:5401637459","latitude":51.4534891,"longitude":-2.5922357,"name":"Welsh Back by Buttermilk & Maple","properties":{"access":"unknown","bicycle_pa":"stands","capacity":6,"covered":"no","fee":"","operator":"","nameSource":"landmark"},"sourceId":"osm"},{"id":"osm:node:5410543991","latitude":51.4519978,"longitude":-2.5966066,"name":"Broad Quay near Marsh Street","properties":{"access":"unknown","bicycle_pa":"stands","capacity":14,"covered":"no","fee":"","operator":"","nameSource":"junction"},"sourceId":"osm"},{"id":"osm:node:5416739173","latitude":51.4462777,"longitude":-2.5992131,"name":"Gaol Ferry Steps near Rope Walk","properties":{"access":"unknown","bicycle_pa":"stands","capacity":8,"covered":"no","fee":"","operator":"","nameSource":"junction"},"sourceId":"osm"},{"id":"osm:node:5489737065","latitude":51.4467538,"longitude":-2.6202576,"name":"Ashton Avenue near Cumberland Road","properties":{"access":"unknown","bicycle_pa":"stands","capacity":6,"covered":"no","fee":"","operator":"","nameSource":"junction"},"sourceId":"osm"},{"id":"osm:node:5489737066","latitude":51.4466262,"longitude":-2.6206189,"name":"Cumberland Road near Ashton Avenue","properties":{"access":"unknown","bicycle_pa":"stands","capacity":6,"covered":"no","fee":"","operator":"","nameSource":"junction"},"sourceId":"osm"},{"id":"osm:node:5523705124","latitude":51.4475014,"longitude":-2.5980735,"name":"Museum Street by Ragu","properties":{"access":"unknown","bicycle_pa":"stands","capacity":20,"covered":"no","fee":"","operator":"","nameSource":"landmark"},"sourceId":"osm"},{"id":"osm:node:5540513038","latitude":51.45281,"longitude":-2.6003888,"name":"College Green near College Lane","properties":{"access":"unknown","bicycle_pa":"stands","capacity":4,"covered":"no","fee":"","operator":"","nameSource":"junction"},"sourceId":"osm"},{"id":"osm:node:5688120724","latitude":51.4436878,"longitude":-2.5594148,"name":"Bloomfield Road Link cycle parking","properties":{"access":"unknown","bicycle_pa":"stands","capacity":8,"covered":"no","fee":"","operator":"","nameSource":"street"},"sourceId":"osm"},{"id":"osm:node:5837053497","latitude":51.452595,"longitude":-2.6017704,"name":"College Street by Bristol City Hall","properties":{"access":"unknown","bicycle_pa":"stands","capacity":20,"covered":"no","fee":"","operator":"","nameSource":"landmark"},"sourceId":"osm"},{"id":"osm:node:5837053498","latitude":51.4524511,"longitude":-2.6018449,"name":"College Street by Bristol City Hall","properties":{"access":"unknown","bicycle_pa":"stands","capacity":20,"covered":"no","fee":"","operator":"","nameSource":"landmark"},"sourceId":"osm"},{"id":"osm:node:5837056086","latitude":51.4530507,"longitude":-2.5950499,"name":"Telephone Avenue near Baldwin Street","properties":{"access":"unknown","bicycle_pa":"stands","capacity":6,"covered":"no","fee":"","operator":"","nameSource":"junction"},"sourceId":"osm"},{"id":"osm:node:5885840434","latitude":51.4494881,"longitude":-2.6201494,"name":"Oldfield Road near Oldfield Place","properties":{"access":"unknown","bicycle_pa":"","capacity":0,"covered":"","fee":"","operator":"","nameSource":"junction"},"sourceId":"osm"},{"id":"osm:node:5894270894","latitude":51.4535953,"longitude":-2.6174437,"name":"Hensmans Hill near Clifton Hill","properties":{"access":"unknown","bicycle_pa":"stands","capacity":4,"covered":"no","fee":"","operator":"","nameSource":"junction"},"sourceId":"osm"},{"id":"osm:node:5914861834","latitude":51.4356268,"longitude":-2.6258518,"name":"Ashton Rise near Micklewright Close","properties":{"access":"unknown","bicycle_pa":"","capacity":6,"covered":"","fee":"","operator":"","nameSource":"junction"},"sourceId":"osm"},{"id":"osm:node:5914861837","latitude":51.4357951,"longitude":-2.625894,"name":"Ashton Rise near Micklewright Close","properties":{"access":"unknown","bicycle_pa":"stands","capacity":6,"covered":"no","fee":"","operator":"","nameSource":"junction"},"sourceId":"osm"},{"id":"osm:node:5914861987","latitude":51.4430345,"longitude":-2.6247092,"name":"Paxton Drive cycle parking","properties":{"access":"unknown","bicycle_pa":"stands","capacity":6,"covered":"no","fee":"","operator":"","nameSource":"street"},"sourceId":"osm"},{"id":"osm:node:5914861989","latitude":51.4433505,"longitude":-2.6243229,"name":"Paxton Drive cycle parking","properties":{"access":"unknown","bicycle_pa":"stands","capacity":6,"covered":"no","fee":"","operator":"","nameSource":"street"},"sourceId":"osm"},{"id":"osm:node:5930197797","latitude":51.4123835,"longitude":-2.6108126,"name":"Hareclive Road near Gatehouse Avenue","properties":{"access":"unknown","bicycle_pa":"","capacity":6,"covered":"","fee":"","operator":"","nameSource":"junction"},"sourceId":"osm"},{"id":"osm:node:6036435366","latitude":51.443277,"longitude":-2.5666758,"name":"Central Road near Lightbox Lane","properties":{"access":"unknown","bicycle_pa":"wall_loops","capacity":10,"covered":"yes","fee":"","operator":"","nameSource":"junction"},"sourceId":"osm"},{"id":"osm:node:6068446267","latitude":51.4496118,"longitude":-2.6214074,"name":"Faraday Road near Dowry Place","properties":{"access":"unknown","bicycle_pa":"stands","capacity":6,"covered":"no","fee":"","operator":"","nameSource":"junction"},"sourceId":"osm"},{"id":"osm:node:6080924502","latitude":51.4351354,"longitude":-2.567554,"name":"Redcatch Road near Wells Road","properties":{"access":"unknown","bicycle_pa":"stands","capacity":2,"covered":"no","fee":"","operator":"","nameSource":"junction"},"sourceId":"osm"},{"id":"osm:node:6080939538","latitude":51.4340277,"longitude":-2.5671812,"name":"Broad Walk near Wells Road","properties":{"access":"unknown","bicycle_pa":"stands","capacity":6,"covered":"no","fee":"","operator":"","nameSource":"junction"},"sourceId":"osm"},{"id":"osm:node:6080939543","latitude":51.4342796,"longitude":-2.566639,"name":"Broad Walk near Wells Road","properties":{"access":"unknown","bicycle_pa":"stands","capacity":6,"covered":"no","fee":"","operator":"","nameSource":"junction"},"sourceId":"osm"},{"id":"osm:node:6146234364","latitude":51.4503743,"longitude":-2.5997549,"name":"Anchor Square by Double Puc Cafe","properties":{"access":"unknown","bicycle_pa":"stands","capacity":16,"covered":"no","fee":"","operator":"","nameSource":"landmark"},"sourceId":"osm"},{"id":"osm:node:6192973288","latitude":51.4470193,"longitude":-2.599041,"name":"Museum Street near Gaol Ferry Steps","properties":{"access":"unknown","bicycle_pa":"stands","capacity":10,"covered":"no","fee":"","operator":"","nameSource":"junction"},"sourceId":"osm"},{"id":"osm:node:6238812127","latitude":51.4476004,"longitude":-2.5977416,"name":"Museum Street by Clifton Seafood Company","properties":{"access":"yes","bicycle_pa":"stands","capacity":22,"covered":"no","fee":"no","operator":"","nameSource":"landmark"},"sourceId":"osm"},{"id":"osm:node:6240195716","latitude":51.4392097,"longitude":-2.6051679,"name":"Palmerston Street by ACTA Centre","properties":{"access":"unknown","bicycle_pa":"","capacity":8,"covered":"","fee":"","operator":"","nameSource":"landmark"},"sourceId":"osm"},{"id":"osm:node:6268667466","latitude":51.447816,"longitude":-2.6181042,"name":"Merchants Road by Port of Bristol Association Sailing Club","properties":{"access":"unknown","bicycle_pa":"stands","capacity":6,"covered":"no","fee":"","operator":"","nameSource":"landmark"},"sourceId":"osm"},{"id":"osm:node:6268688022","latitude":51.446612,"longitude":-2.616798,"name":"Cumberland Road cycle parking","properties":{"access":"unknown","bicycle_pa":"stands","capacity":8,"covered":"no","fee":"","operator":"","nameSource":"street"},"sourceId":"osm"},{"id":"osm:node:6269851248","latitude":51.4467221,"longitude":-2.5593732,"name":"A4320 cycle parking","properties":{"access":"unknown","bicycle_pa":"stands","capacity":8,"covered":"no","fee":"no","operator":"","nameSource":"street"},"sourceId":"osm"},{"id":"osm:node:6325957889","latitude":51.4491656,"longitude":-2.5812526,"name":"Station Approach by British Transport Police","properties":{"access":"unknown","bicycle_pa":"stands","capacity":160,"covered":"no","fee":"","operator":"","nameSource":"landmark"},"sourceId":"osm"},{"id":"osm:node:6348416457","latitude":51.4507442,"longitude":-2.5926206,"name":"Welsh Back near Queen Square Avenue","properties":{"access":"unknown","bicycle_pa":"stands","capacity":16,"covered":"no","fee":"","operator":"","nameSource":"junction"},"sourceId":"osm"},{"id":"osm:node:6634192425","latitude":51.4175602,"longitude":-2.5867448,"name":"Hengrove Leisure Park by Wessex Flyer","properties":{"access":"unknown","bicycle_pa":"stands","capacity":10,"covered":"yes","fee":"","operator":"","nameSource":"landmark"},"sourceId":"osm"},{"id":"osm:node:6817894807","latitude":51.4512537,"longitude":-2.5851569,"name":"Tower Street near Church Lane","properties":{"access":"unknown","bicycle_pa":"stands","capacity":8,"covered":"no","fee":"","operator":"","nameSource":"junction"},"sourceId":"osm"},{"id":"osm:node:6821085123","latitude":51.4532332,"longitude":-2.5883809,"name":"Counterslip near Temple Street","properties":{"access":"unknown","bicycle_pa":"stands","capacity":4,"covered":"no","fee":"","operator":"","nameSource":"junction"},"sourceId":"osm"},{"id":"osm:node:6831316470","latitude":51.4495342,"longitude":-2.5849158,"name":"Temple Gate near Friary","properties":{"access":"unknown","bicycle_pa":"stands","capacity":6,"covered":"no","fee":"","operator":"","nameSource":"junction"},"sourceId":"osm"},{"id":"osm:node:6856207244","latitude":51.4517984,"longitude":-2.6022605,"name":"College Street near Deanery Road","properties":{"access":"unknown","bicycle_pa":"stands","capacity":20,"covered":"no","fee":"","operator":"","nameSource":"junction"},"sourceId":"osm"},{"id":"osm:node:6867631060","latitude":51.4538708,"longitude":-2.5885632,"name":"East Tucker Street near Old Porter Street","properties":{"access":"unknown","bicycle_pa":"stands","capacity":10,"covered":"no","fee":"","operator":"","nameSource":"junction"},"sourceId":"osm"},{"id":"osm:node:6867631061","latitude":51.4539686,"longitude":-2.5883241,"name":"East Tucker Street near Old Porter Street","properties":{"access":"unknown","bicycle_pa":"stands","capacity":2,"covered":"no","fee":"","operator":"","nameSource":"junction"},"sourceId":"osm"},{"id":"osm:node:6867631067","latitude":51.4539872,"longitude":-2.5883425,"name":"East Tucker Street near Old Porter Street","properties":{"access":"unknown","bicycle_pa":"stands","capacity":2,"covered":"no","fee":"","operator":"","nameSource":"junction"},"sourceId":"osm"},