{"key":"12/2018/1597","points":[{"id":"osm:node:11200383124","latitude":36.7999435,"longitude":-2.5947263,"name":"El Parador de las Hortichuelas cycle parking","properties":{"access":"unknown","bicycle_pa":"","capacity":0,"covered":"","fee":"","operator":"","nameSource":"place"},"sourceId":"osm"},{"id":"osm:node:14015263966","latitude":36.7391385,"longitude":-2.612932,"name":"Paseo Marítimo de Zoraida cycle parking","properties":{"access":"unknown","bicycle_pa":"wall_loops","capacity":0,"covered":"no","fee":"","operator":"","nameSource":"street"},"sourceId":"osm"},{"id":"osm:node:14020204594","latitude":36.7432614,"longitude":-2.6118057,"name":"Paseo Marítimo de Zoraida near Calle Caracas","properties":{"access":"unknown","bicycle_pa":"wall_loops","capacity":0,"covered":"no","fee":"","operator":"","nameSource":"junction"},"sourceId":"osm"},{"id":"osm:node:14020693927","latitude":36.7424109,"longitude":-2.6120935,"name":"Calle Guanaré cycle parking","properties":{"access":"unknown","bicycle_pa":"stands","capacity":0,"covered":"no","fee":"","operator":"","nameSource":"street"},"sourceId":"osm"},{"id":"osm:node:3361218206","latitude":36.7611086,"longitude":-2.607746,"name":"Plaza de Sor Dolores near Calle Pilar Lorengar","properties":{"access":"unknown","bicycle_pa":"rack","capacity":6,"covered":"no","fee":"","operator":"","nameSource":"junction"},"sourceId":"osm"},{"id":"osm:way:1320449591","latitude":36.77606311999999,"longitude":-2.6005944400000005,"name":"Cycle Path Paseo Maritimo Playa Las Salinas cycle parking","properties":{"access":"yes","bicycle_pa":"stands","capacity":0,"covered":"no","fee":"no","operator":"Ayuntamienti de Roquetas de Mar","nameSource":"street"},"sourceId":"osm"},{"id":"osm:way:1323768005","latitude":36.75709918,"longitude":-2.60672332,"name":"Avenida de Antonio Machado near Calle Raya","properties":{"access":"yes","bicycle_pa":"stands","capacity":0,"covered":"no","fee":"no","operator":"","nameSource":"junction"},"sourceId":"osm"},{"id":"osm:way:1324008202","latitude":36.75683528,"longitude":-2.6068613400000005,"name":"Avenida de Antonio Machado near Calle Raya","properties":{"access":"yes","bicycle_pa":"stands","capacity":0,"covered":"no","fee":"no","operator":"","nameSource":"junction"},"sourceId":"osm"},{"id":"osm:way:1324198411","latitude":36.75754388,"longitude":-2.6066575399999996,"name":"Avenida de Antonio Machado near Calle Mero","properties":{"access":"yes","bicycle_pa":"stands","capacity":0,"covered":"no","fee":"no","operator":"","nameSource":"junction"},"sourceId":"osm"},{"id":"osm:way:1324198412","latitude":36.75657898,"longitude":-2.6069686400000003,"name":"Avenida de Antonio Machado near Calle Deportes","properties":{"access":"yes","bicycle_pa":"stands","capacity":0,"covered":"no","fee":"no","operator":"","nameSource":"junction"},"sourceId":"osm"},{"id":"osm:way:1324198413","latitude":36.75620778,"longitude":-2.60652674,"name":"Avenida de Antonio Machado near Avenida del Puerto","properties":{"access":"yes","bicycle_pa":"stands","capacity":0,"covered":"no","fee":"no","operator":"","nameSource":"junction"},"sourceId":"osm"},{"id":"osm:way:1324198414","latitude":36.75522942,"longitude":-2.60675076,"name":"Avenida de Antonio Machado near Calle Mártires","properties":{"access":"yes","bicycle_pa":"stands","capacity":0,"covered":"no","fee":"no","operator":"","nameSource":"junction"},"sourceId":"osm"}],"schemaVersion":2}
