{"key":"12/2061/1369","points":[{"categories":["shop"],"id":"osm:node:536564771","latitude":51.0815165,"longitude":1.1807049,"name":"Renhams Cycle Centre","properties":{"openingHours":"Mo-Sa 09:00-17:30"},"sourceId":"osm"},{"categories":["shop"],"id":"osm:node:536585035","latitude":51.0774932,"longitude":1.174393,"name":"Activ Cycles","properties":{"openingHours":"Dec 25-28,Jan 01-03 off; Dec 24 09:00-16:00; Dec 29-31 10:00-16:00; Jan 04 09:00-17:30"},"sourceId":"osm"},{"categories":["hire"],"id":"osm:node:7798929272","latitude":51.0740516,"longitude":1.1477944,"name":"CLICK2(UK) LTD","properties":{"brand":"click2cycle","operator":"CLICK2(UK) LTD"},"sourceId":"osm"},{"categories":["hire"],"id":"osm:node:7869180656","latitude":51.0757004,"longitude":1.1655168,"name":"CLICK2(UK) LTD","properties":{"brand":"click2cycle","operator":"CLICK2(UK) LTD"},"sourceId":"osm"},{"categories":["hire"],"id":"osm:node:8583846405","latitude":51.0802919,"longitude":1.1855619,"name":"Cycle hire","properties":{},"sourceId":"osm"},{"categories":["repair"],"id":"osm:node:9095248498","latitude":51.0844841,"longitude":1.1542736,"name":"Southeastern","properties":{"openingHours":"24/7","operator":"Southeastern","servicePump":"yes","serviceTools":"yes"},"sourceId":"osm"},{"categories":["repair"],"id":"osm:way:187100254","latitude":51.09599550000001,"longitude":1.1664743428571427,"name":"Halfords","properties":{"brand":"Halfords","serviceRepair":"yes"},"sourceId":"osm"}],"schemaVersion":2}
