{"key":"12/2045/1313","points":[{"id":"osm:node:10557240701","latitude":54.0841675,"longitude":-0.1983481,"name":"Station Avenue by B&M","properties":{"access":"unknown","bicycle_pa":"stands","capacity":4,"covered":"no","fee":"","operator":"","nameSource":"landmark"},"sourceId":"osm"},{"id":"osm:node:10557264451","latitude":54.083776,"longitude":-0.2003663,"name":"Admirals Mews by Bridlington","properties":{"access":"unknown","bicycle_pa":"stands","capacity":10,"covered":"yes","fee":"","operator":"","nameSource":"landmark"},"sourceId":"osm"},{"id":"osm:node:10557264460","latitude":54.0834813,"longitude":-0.1979416,"name":"Hilderthorpe Road near New Burlington Road","properties":{"access":"unknown","bicycle_pa":"stands","capacity":6,"covered":"no","fee":"","operator":"","nameSource":"junction"},"sourceId":"osm"},{"id":"osm:node:10875072965","latitude":54.0842058,"longitude":-0.1858335,"name":"Victoria Terrace near Royal Prince's Parade","properties":{"access":"yes","bicycle_pa":"stands","capacity":24,"covered":"no","fee":"","operator":"","nameSource":"junction"},"sourceId":"osm"},{"id":"osm:node:10876290140","latitude":54.0929678,"longitude":-0.1770743,"name":"Northside Train Turning Point cycle parking","properties":{"access":"unknown","bicycle_pa":"","capacity":0,"covered":"","fee":"","operator":"","nameSource":"street"},"sourceId":"osm"},{"id":"osm:node:10876290141","latitude":54.0894787,"longitude":-0.1803886,"name":"North Marine Promenade near Alexandra Promenade","properties":{"access":"unknown","bicycle_pa":"","capacity":12,"covered":"","fee":"","operator":"","nameSource":"junction"},"sourceId":"osm"},{"id":"osm:node:11003450395","latitude":54.0893621,"longitude":-0.1803681,"name":"Alexandra Promenade near North Marine Promenade","properties":{"access":"unknown","bicycle_pa":"","capacity":6,"covered":"no","fee":"","operator":"","nameSource":"junction"},"sourceId":"osm"},{"id":"osm:node:11003450397","latitude":54.0894366,"longitude":-0.1802961,"name":"North Marine Promenade near Alexandra Promenade","properties":{"access":"unknown","bicycle_pa":"","capacity":6,"covered":"no","fee":"","operator":"","nameSource":"junction"},"sourceId":"osm"},{"id":"osm:node:13596480102","latitude":54.0830422,"longitude":-0.1919446,"name":"North Street near Chapel Street","properties":{"access":"unknown","bicycle_pa":"stands","capacity":6,"covered":"no","fee":"","operator":"","nameSource":"junction"},"sourceId":"osm"},{"id":"osm:node:13726984298","latitude":54.098461,"longitude":-0.1914136,"name":"Marton Road near Sewerby Avenue","properties":{"access":"unknown","bicycle_pa":"stands","capacity":4,"covered":"no","fee":"","operator":"","nameSource":"junction"},"sourceId":"osm"},{"id":"osm:node:4184181333","latitude":54.0847596,"longitude":-0.1944523,"name":"Quay Road near Victoria Road","properties":{"access":"unknown","bicycle_pa":"stands","capacity":8,"covered":"no","fee":"","operator":"","nameSource":"junction"},"sourceId":"osm"},{"id":"osm:node:4184181362","latitude":54.0846219,"longitude":-0.1938931,"name":"Quay Road near Prospect Street","properties":{"access":"unknown","bicycle_pa":"stands","capacity":8,"covered":"no","fee":"","operator":"","nameSource":"junction"},"sourceId":"osm"},{"id":"osm:node:4201150166","latitude":54.0822951,"longitude":-0.1892167,"name":"Cliff Street near Chapel Street","properties":{"access":"unknown","bicycle_pa":"stands","capacity":4,"covered":"no","fee":"","operator":"","nameSource":"junction"},"sourceId":"osm"},{"id":"osm:node:4542242660","latitude":54.084271,"longitude":-0.1984203,"name":"Station Avenue cycle parking","properties":{"access":"unknown","bicycle_pa":"stands","capacity":10,"covered":"no","fee":"","operator":"","nameSource":"street"},"sourceId":"osm"},{"id":"osm:node:4542243020","latitude":54.0843432,"longitude":-0.1869718,"name":"Promenade near Westmoreland Avenue","properties":{"access":"unknown","bicycle_pa":"stands","capacity":15,"covered":"no","fee":"","operator":"","nameSource":"junction"},"sourceId":"osm"},{"id":"osm:node:4573409780","latitude":54.0817999,"longitude":-0.1894878,"name":"Prince Street near Harbour Road","properties":{"access":"unknown","bicycle_pa":"stands","capacity":10,"covered":"no","fee":"","operator":"","nameSource":"junction"},"sourceId":"osm"},{"id":"osm:node:4573411615","latitude":54.0818764,"longitude":-0.1911447,"name":"Queen Street near Bridge Street","properties":{"access":"unknown","bicycle_pa":"stands","capacity":8,"covered":"no","fee":"","operator":"","nameSource":"junction"},"sourceId":"osm"},{"id":"osm:node:5180985598","latitude":54.0933459,"longitude":-0.2048701,"name":"High Street near Scarborough Road","properties":{"access":"unknown","bicycle_pa":"stands","capacity":6,"covered":"no","fee":"","operator":"","nameSource":"junction"},"sourceId":"osm"},{"id":"osm:node:5180985601","latitude":54.0931603,"longitude":-0.2050337,"name":"High Street near Scarborough Road","properties":{"access":"unknown","bicycle_pa":"stands","capacity":6,"covered":"no","fee":"","operator":"","nameSource":"junction"},"sourceId":"osm"},{"id":"osm:node:5720977127","latitude":54.0796601,"longitude":-0.1971506,"name":"Neptune Street near Horsforth Avenue","properties":{"access":"unknown","bicycle_pa":"stands","capacity":6,"covered":"no","fee":"","operator":"","nameSource":"junction"},"sourceId":"osm"},{"id":"osm:node:6254297518","latitude":54.0847659,"longitude":-0.1862634,"name":"Promenade near Lansdowne Road","properties":{"access":"unknown","bicycle_pa":"stands","capacity":30,"covered":"yes","fee":"","operator":"","nameSource":"junction"},"sourceId":"osm"},{"id":"osm:node:6254365533","latitude":54.0796978,"longitude":-0.1959944,"name":"South Marine Drive by Southcliffe Bar","properties":{"access":"unknown","bicycle_pa":"stands","capacity":10,"covered":"no","fee":"","operator":"","nameSource":"landmark"},"sourceId":"osm"}],"schemaVersion":2}
