{"key":"12/2045/1348","points":[{"id":"osm:node:12643405721","latitude":52.2273967,"longitude":-0.2421545,"name":"Cambridge Road near Belland Hill","properties":{"access":"yes","bicycle_pa":"stands","capacity":4,"covered":"","fee":"no","operator":"","nameSource":"junction"},"sourceId":"osm"},{"id":"osm:node:13112731913","latitude":52.2261548,"longitude":-0.2461141,"name":"School Plaza by Wintringham Primary Academy","properties":{"access":"yes","bicycle_pa":"stands","capacity":8,"covered":"no","fee":"no","operator":"","nameSource":"landmark"},"sourceId":"osm"},{"id":"osm:node:13112743779","latitude":52.231057,"longitude":-0.2469583,"name":"Station Square cycle parking","properties":{"access":"customers","bicycle_pa":"stands","capacity":0,"covered":"yes","fee":"no","operator":"Thameslink","nameSource":"street"},"sourceId":"osm"},{"id":"osm:node:13451240262","latitude":52.2517669,"longitude":-0.2498471,"name":"High Street by Paxton Pits Nature Reserve Visitor Centre Cafe","properties":{"access":"yes","bicycle_pa":"stands","capacity":6,"covered":"no","fee":"no","operator":"","nameSource":"landmark"},"sourceId":"osm"},{"id":"osm:node:942090645","latitude":52.231331,"longitude":-0.2475835,"name":"Hawkesden Road by Caffè Rosso","properties":{"access":"unknown","bicycle_pa":"","capacity":65,"covered":"","fee":"","operator":"","nameSource":"landmark"},"sourceId":"osm"},{"id":"osm:node:942090681","latitude":52.2318561,"longitude":-0.2472812,"name":"Hawkesden Road near Swift Close","properties":{"access":"unknown","bicycle_pa":"","capacity":15,"covered":"","fee":"","operator":"","nameSource":"junction"},"sourceId":"osm"},{"id":"osm:way:1301009093","latitude":52.2257805,"longitude":-0.24558094000000003,"name":"Ash Way by Wintringham Primary Academy","properties":{"access":"private","bicycle_pa":"","capacity":0,"covered":"","fee":"","operator":"","nameSource":"landmark"},"sourceId":"osm"},{"id":"osm:way:1301009094","latitude":52.22588459999999,"longitude":-0.2454529,"name":"Ash Way by Wintringham Primary Academy","properties":{"access":"private","bicycle_pa":"","capacity":0,"covered":"","fee":"","operator":"","nameSource":"landmark"},"sourceId":"osm"}],"schemaVersion":2}
