{"key":"12/2045/1353","points":[{"id":"osm:node:1081946168","latitude":51.9794365,"longitude":-0.2279486,"name":"Leys Avenue near Eastcheap","properties":{"access":"unknown","bicycle_pa":"stands","capacity":4,"covered":"no","fee":"","operator":"","nameSource":"junction"},"sourceId":"osm"},{"id":"osm:node:1081950741","latitude":51.9789182,"longitude":-0.2262321,"name":"Leys Avenue near The Wynd","properties":{"access":"unknown","bicycle_pa":"stands","capacity":4,"covered":"no","fee":"","operator":"","nameSource":"junction"},"sourceId":"osm"},{"id":"osm:node:1081953195","latitude":51.9822747,"longitude":-0.2242822,"name":"Norton Way North near Nevells Road","properties":{"access":"unknown","bicycle_pa":"stands","capacity":6,"covered":"no","fee":"","operator":"","nameSource":"junction"},"sourceId":"osm"},{"id":"osm:node:1081957650","latitude":51.9784218,"longitude":-0.2287174,"name":"Eastcheap near Central Approach","properties":{"access":"unknown","bicycle_pa":"front_wheel","capacity":19,"covered":"no","fee":"","operator":"","nameSource":"junction"},"sourceId":"osm"},{"id":"osm:node:1081962750","latitude":51.9788297,"longitude":-0.2282465,"name":"Eastcheap near Leys Avenue","properties":{"access":"unknown","bicycle_pa":"stands","capacity":4,"covered":"no","fee":"","operator":"","nameSource":"junction"},"sourceId":"osm"},{"id":"osm:node:12051051289","latitude":51.9970772,"longitude":-0.2227015,"name":"Gaunts Way cycle parking","properties":{"access":"yes","bicycle_pa":"stands","capacity":10,"covered":"no","fee":"no","operator":"","nameSource":"street"},"sourceId":"osm"},{"id":"osm:node:12068343093","latitude":51.9704048,"longitude":-0.2108297,"name":"Hadleigh by Jackman's Peri Peri","properties":{"access":"unknown","bicycle_pa":"stands","capacity":8,"covered":"no","fee":"no","operator":"","nameSource":"landmark"},"sourceId":"osm"},{"id":"osm:node:12068343094","latitude":51.9702503,"longitude":-0.2108082,"name":"Radburn Way near Yardley","properties":{"access":"unknown","bicycle_pa":"stands","capacity":6,"covered":"no","fee":"no","operator":"","nameSource":"junction"},"sourceId":"osm"},{"id":"osm:node:12068343095","latitude":51.9701949,"longitude":-0.2107961,"name":"Radburn Way near Yardley","properties":{"access":"unknown","bicycle_pa":"stands","capacity":6,"covered":"no","fee":"no","operator":"","nameSource":"junction"},"sourceId":"osm"},{"id":"osm:node:12453396932","latitude":51.9844118,"longitude":-0.2242541,"name":"Icknield Way by Letchworth Lido","properties":{"access":"unknown","bicycle_pa":"two-tier","capacity":20,"covered":"yes","fee":"","operator":"","nameSource":"landmark"},"sourceId":"osm"},{"id":"osm:node:13361039866","latitude":51.9777428,"longitude":-0.2287205,"name":"Eastcheap near Arena Parade","properties":{"access":"unknown","bicycle_pa":"stands","capacity":6,"covered":"no","fee":"","operator":"","nameSource":"junction"},"sourceId":"osm"},{"id":"osm:node:13361434401","latitude":51.9777758,"longitude":-0.2271955,"name":"Commerce Avenue near Central Approach","properties":{"access":"unknown","bicycle_pa":"stands","capacity":8,"covered":"no","fee":"","operator":"","nameSource":"junction"},"sourceId":"osm"},{"id":"osm:node:13698359587","latitude":51.9886514,"longitude":-0.1875943,"name":"Simpson Drive near High Street","properties":{"access":"unknown","bicycle_pa":"stands","capacity":8,"covered":"no","fee":"","operator":"","nameSource":"junction"},"sourceId":"osm"},{"id":"osm:node:13915479838","latitude":51.9792595,"longitude":-0.2280652,"name":"Eastcheap near Leys Avenue","properties":{"access":"yes","bicycle_pa":"stands","capacity":2,"covered":"no","fee":"","operator":"","nameSource":"junction"},"sourceId":"osm"},{"id":"osm:node:2710765543","latitude":51.992882,"longitude":-0.1871941,"name":"Mallard Court by Baldock","properties":{"access":"unknown","bicycle_pa":"shed","capacity":0,"covered":"yes","fee":"","operator":"","nameSource":"landmark"},"sourceId":"osm"},{"id":"osm:node:321795983","latitude":51.9643669,"longitude":-0.2211092,"name":"Lordship Centre by Lordship Food Market","properties":{"access":"unknown","bicycle_pa":"","capacity":5,"covered":"","fee":"","operator":"","nameSource":"landmark"},"sourceId":"osm"},{"id":"osm:node:3401990241","latitude":51.9796142,"longitude":-0.2293695,"name":"Station Place near Station Road","properties":{"access":"unknown","bicycle_pa":"stands","capacity":52,"covered":"yes","fee":"no","operator":"","nameSource":"junction"},"sourceId":"osm"},{"id":"osm:node:5871099617","latitude":51.9813598,"longitude":-0.2040021,"name":"Third Avenue near Second Avenue","properties":{"access":"customers","bicycle_pa":"stands","capacity":6,"covered":"yes","fee":"no","operator":"","nameSource":"junction"},"sourceId":"osm"},{"id":"osm:node:5871108256","latitude":51.9826512,"longitude":-0.202156,"name":"Baldock Road by Halfords","properties":{"access":"unknown","bicycle_pa":"stands","capacity":3,"covered":"yes","fee":"","operator":"","nameSource":"landmark"},"sourceId":"osm"},{"id":"osm:node:5871108257","latitude":51.9827497,"longitude":-0.2020912,"name":"Baldock Road by Halfords","properties":{"access":"unknown","bicycle_pa":"wall_loops","capacity":3,"covered":"no","fee":"","operator":"","nameSource":"landmark"},"sourceId":"osm"},{"id":"osm:node:6797262540","latitude":51.9774501,"longitude":-0.2093625,"name":"Baldock Road near Dunhams Lane","properties":{"access":"unknown","bicycle_pa":"stands","capacity":6,"covered":"no","fee":"","operator":"","nameSource":"junction"},"sourceId":"osm"},{"id":"osm:node:7798495118","latitude":51.9510046,"longitude":-0.2482776,"name":"Mill Close near Purwell Lane","properties":{"access":"yes","bicycle_pa":"stands","capacity":18,"covered":"no","fee":"","operator":"","nameSource":"junction"},"sourceId":"osm"},{"id":"osm:node:8261600846","latitude":51.9795925,"longitude":-0.2255879,"name":"The Wynd near Openshaw Way","properties":{"access":"unknown","bicycle_pa":"stands","capacity":14,"covered":"no","fee":"no","operator":"","nameSource":"junction"},"sourceId":"osm"},{"id":"osm:node:8286916289","latitude":51.9563345,"longitude":-0.2552235,"name":"Allwoods Place near Hampden Road","properties":{"access":"yes","bicycle_pa":"ground_slots","capacity":30,"covered":"yes","fee":"","operator":"","nameSource":"junction"},"sourceId":"osm"},{"id":"osm:node:960135430","latitude":51.988532,"longitude":-0.187421,"name":"High Street near Simpson Drive","properties":{"access":"unknown","bicycle_pa":"stands","capacity":16,"covered":"no","fee":"","operator":"","nameSource":"junction"},"sourceId":"osm"},{"id":"osm:node:960136087","latitude":51.9880742,"longitude":-0.1876062,"name":"High Street near Pepper Alley","properties":{"access":"unknown","bicycle_pa":"stands","capacity":10,"covered":"no","fee":"","operator":"","nameSource":"junction"},"sourceId":"osm"},{"id":"osm:node:960136455","latitude":51.9893702,"longitude":-0.1884827,"name":"High Street near Hitchin Street","properties":{"access":"unknown","bicycle_pa":"stands","capacity":14,"covered":"no","fee":"","operator":"","nameSource":"junction"},"sourceId":"osm"},{"id":"osm:node:960140631","latitude":51.9904681,"longitude":-0.1878379,"name":"Whitehorse Street near Sun Street","properties":{"access":"unknown","bicycle_pa":"stands","capacity":10,"covered":"no","fee":"","operator":"","nameSource":"junction"},"sourceId":"osm"},{"id":"osm:node:998144658","latitude":51.9768447,"longitude":-0.2297125,"name":"Broadway near Gernon Road","properties":{"access":"unknown","bicycle_pa":"stands","capacity":14,"covered":"no","fee":"","operator":"","nameSource":"junction"},"sourceId":"osm"},{"id":"osm:node:998152781","latitude":51.9792715,"longitude":-0.2271062,"name":"The Arcade near Leys Avenue","properties":{"access":"unknown","bicycle_pa":"stands","capacity":4,"covered":"no","fee":"","operator":"","nameSource":"junction"},"sourceId":"osm"},{"id":"osm:node:998161640","latitude":51.978893,"longitude":-0.225844,"name":"The Wynd near Leys Avenue","properties":{"access":"unknown","bicycle_pa":"stands","capacity":4,"covered":"no","fee":"","operator":"","nameSource":"junction"},"sourceId":"osm"},{"id":"osm:node:998161642","latitude":51.978781,"longitude":-0.2255989,"name":"Leys Avenue near The Wynd","properties":{"access":"unknown","bicycle_pa":"stands","capacity":8,"covered":"no","fee":"","operator":"","nameSource":"junction"},"sourceId":"osm"},{"id":"osm:node:998173971","latitude":51.9792715,"longitude":-0.2256403,"name":"Openshaw Way near The Wynd","properties":{"access":"unknown","bicycle_pa":"stands","capacity":4,"covered":"no","fee":"no","operator":"","nameSource":"junction"},"sourceId":"osm"},{"id":"osm:node:998173979","latitude":51.9796544,"longitude":-0.229569,"name":"Station Place near Bridge Road","properties":{"access":"unknown","bicycle_pa":"stands","capacity":22,"covered":"yes","fee":"no","operator":"","nameSource":"junction"},"sourceId":"osm"}],"schemaVersion":2}
