{"key":"12/2045/1354","points":[{"id":"osm:node:10962655347","latitude":51.9059809,"longitude":-0.2182299,"name":"Gunnels Wood Road by Costco Optical","properties":{"access":"unknown","bicycle_pa":"stands","capacity":10,"covered":"yes","fee":"","operator":"","nameSource":"landmark"},"sourceId":"osm"},{"id":"osm:node:11704241157","latitude":51.9128098,"longitude":-0.2087913,"name":"High Street near Walkern Road","properties":{"access":"yes","bicycle_pa":"stands","capacity":6,"covered":"no","fee":"no","operator":"","nameSource":"junction"},"sourceId":"osm"},{"id":"osm:node:11704285764","latitude":51.9027782,"longitude":-0.1998845,"name":"Park Place cycle parking","properties":{"access":"yes","bicycle_pa":"stands","capacity":4,"covered":"no","fee":"no","operator":"","nameSource":"street"},"sourceId":"osm"},{"id":"osm:node:11704288839","latitude":51.9034686,"longitude":-0.2050069,"name":"The Forum cycle parking","properties":{"access":"yes","bicycle_pa":"stands","capacity":12,"covered":"no","fee":"no","operator":"","nameSource":"street"},"sourceId":"osm"},{"id":"osm:node:11999442427","latitude":51.9252843,"longitude":-0.2122958,"name":"Lister Close cycle parking","properties":{"access":"unknown","bicycle_pa":"stands","capacity":12,"covered":"no","fee":"no","operator":"","nameSource":"street"},"sourceId":"osm"},{"id":"osm:node:12094359927","latitude":51.8994572,"longitude":-0.208814,"name":"Kings Way by David Lloyd Clubs","properties":{"access":"unknown","bicycle_pa":"stands","capacity":10,"covered":"no","fee":"","operator":"","nameSource":"landmark"},"sourceId":"osm"},{"id":"osm:node:12094359928","latitude":51.8997253,"longitude":-0.2090185,"name":"Kings Way by Boom Battle Bar","properties":{"access":"unknown","bicycle_pa":"stands","capacity":6,"covered":"no","fee":"","operator":"","nameSource":"landmark"},"sourceId":"osm"},{"id":"osm:node:12094360277","latitude":51.9005634,"longitude":-0.2089769,"name":"Kings Way by McDonald's","properties":{"access":"unknown","bicycle_pa":"stands","capacity":6,"covered":"no","fee":"","operator":"","nameSource":"landmark"},"sourceId":"osm"},{"id":"osm:node:12881935857","latitude":51.8916264,"longitude":-0.1976971,"name":"Marks & Spencer cycle parking","properties":{"access":"yes","bicycle_pa":"stands","capacity":28,"covered":"yes","fee":"no","operator":"","nameSource":"landmark"},"sourceId":"osm"},{"id":"osm:node:13123620909","latitude":51.9022892,"longitude":-0.2067793,"name":"A602 near Swingate","properties":{"access":"customers","bicycle_pa":"shed","capacity":83,"covered":"yes","fee":"yes","operator":"Spokesafe","nameSource":"junction"},"sourceId":"osm"},{"id":"osm:node:1510041481","latitude":51.8931901,"longitude":-0.1992504,"name":"Great North Road by ScS","properties":{"access":"unknown","bicycle_pa":"stands","capacity":14,"covered":"no","fee":"","operator":"","nameSource":"landmark"},"sourceId":"osm"},{"id":"osm:node:1733445029","latitude":51.9033498,"longitude":-0.1814833,"name":"Bicycle parking, Fairlands playground","properties":{"access":"unknown","bicycle_pa":"","capacity":3,"covered":"no","fee":"","operator":"","nameSource":"source"},"sourceId":"osm"},{"id":"osm:node:442634970","latitude":51.9107113,"longitude":-0.2074714,"name":"Albert Street near Middle Row","properties":{"access":"unknown","bicycle_pa":"","capacity":3,"covered":"","fee":"","operator":"","nameSource":"junction"},"sourceId":"osm"},{"id":"osm:node:559757040","latitude":51.9006849,"longitude":-0.209497,"name":"Kings Way by Frankie & Benny's","properties":{"access":"unknown","bicycle_pa":"stands","capacity":6,"covered":"no","fee":"","operator":"","nameSource":"landmark"},"sourceId":"osm"},{"id":"osm:node:559757200","latitude":51.9023373,"longitude":-0.2032033,"name":"Danestrete near Westgate","properties":{"access":"unknown","bicycle_pa":"","capacity":5,"covered":"","fee":"","operator":"","nameSource":"junction"},"sourceId":"osm"},{"id":"osm:node:659786632","latitude":51.8925646,"longitude":-0.1994693,"name":"London Road by Costa","properties":{"access":"unknown","bicycle_pa":"stands","capacity":12,"covered":"no","fee":"","operator":"","nameSource":"landmark"},"sourceId":"osm"},{"id":"osm:node:659786641","latitude":51.8938965,"longitude":-0.2001024,"name":"London Road by Miller & Carter","properties":{"access":"unknown","bicycle_pa":"stands","capacity":16,"covered":"no","fee":"","operator":"","nameSource":"landmark"},"sourceId":"osm"},{"id":"osm:node:659786650","latitude":51.8932192,"longitude":-0.1990818,"name":"Great North Road by ScS","properties":{"access":"unknown","bicycle_pa":"stands","capacity":0,"covered":"no","fee":"","operator":"","nameSource":"landmark"},"sourceId":"osm"},{"id":"osm:node:659786709","latitude":51.8942715,"longitude":-0.197861,"name":"Monkswood Way by The Food Warehouse","properties":{"access":"unknown","bicycle_pa":"","capacity":0,"covered":"","fee":"","operator":"","nameSource":"landmark"},"sourceId":"osm"},{"id":"osm:node:769351761","latitude":51.9028413,"longitude":-0.1784624,"name":"Bedwell cycle parking","properties":{"access":"unknown","bicycle_pa":"stands","capacity":8,"covered":"no","fee":"","operator":"","nameSource":"place"},"sourceId":"osm"},{"id":"osm:way:44027846","latitude":51.90178136000001,"longitude":-0.2067292,"name":"A602 near Lytton Way","properties":{"access":"unknown","bicycle_pa":"","capacity":32,"covered":"yes","fee":"","operator":"","nameSource":"junction"},"sourceId":"osm"},{"id":"osm:way:44027847","latitude":51.90187466,"longitude":-0.20677719999999997,"name":"A602 near Lytton Way","properties":{"access":"unknown","bicycle_pa":"","capacity":32,"covered":"yes","fee":"","operator":"","nameSource":"junction"},"sourceId":"osm"},{"id":"osm:way:547043414","latitude":51.89228582,"longitude":-0.20051482000000004,"name":"London Road cycle parking","properties":{"access":"customers","bicycle_pa":"stands","capacity":10,"covered":"yes","fee":"","operator":"","nameSource":"street"},"sourceId":"osm"}],"schemaVersion":2}
