{"key":"12/2045/1355","points":[{"id":"osm:node:11619745224","latitude":51.8845183,"longitude":-0.1934733,"name":"London Road by Tesco","properties":{"access":"unknown","bicycle_pa":"","capacity":0,"covered":"","fee":"","operator":"","nameSource":"landmark"},"sourceId":"osm"},{"id":"osm:node:12554142671","latitude":51.8877214,"longitude":-0.2081314,"name":"Gridserve Stevenage Electric Forecourt by Stevenage Supercharger","properties":{"access":"customers","bicycle_pa":"stands","capacity":12,"covered":"yes","fee":"no","operator":"","nameSource":"landmark"},"sourceId":"osm"},{"id":"osm:node:13592398312","latitude":51.8479932,"longitude":-0.2214404,"name":"Codicote Heights near Rabley Heath Road","properties":{"access":"unknown","bicycle_pa":"","capacity":0,"covered":"","fee":"","operator":"","nameSource":"junction"},"sourceId":"osm"},{"id":"osm:node:7151787676","latitude":51.866621,"longitude":-0.1855932,"name":"Westland Road cycle parking","properties":{"access":"yes","bicycle_pa":"stands","capacity":1,"covered":"no","fee":"no","operator":"","nameSource":"street"},"sourceId":"osm"},{"id":"osm:node:9981215328","latitude":51.8672034,"longitude":-0.2160995,"name":"Park Lane cycle parking","properties":{"access":"customers","bicycle_pa":"wall_loops","capacity":6,"covered":"no","fee":"no","operator":"","nameSource":"street"},"sourceId":"osm"},{"id":"osm:node:998241003","latitude":51.8670235,"longitude":-0.1872945,"name":"Station Approach near Park Lane","properties":{"access":"unknown","bicycle_pa":"stands","capacity":10,"covered":"yes","fee":"","operator":"","nameSource":"junction"},"sourceId":"osm"},{"id":"osm:node:998241038","latitude":51.8669063,"longitude":-0.1877148,"name":"Station Approach near Park Lane","properties":{"access":"unknown","bicycle_pa":"front_wheel","capacity":10,"covered":"no","fee":"","operator":"","nameSource":"junction"},"sourceId":"osm"}],"schemaVersion":2}
