{"key":"12/2045/1357","points":[{"id":"osm:node:10719309452","latitude":51.7631211,"longitude":-0.2377912,"name":"Hatfield Tunnel by McDonald's","properties":{"access":"yes","bicycle_pa":"stands","capacity":6,"covered":"no","fee":"no","operator":"","nameSource":"landmark"},"sourceId":"osm"},{"id":"osm:node:10719309453","latitude":51.7600496,"longitude":-0.2442542,"name":"Comet Way by Element Bar & Kitchen","properties":{"access":"unknown","bicycle_pa":"stands","capacity":6,"covered":"","fee":"","operator":"","nameSource":"landmark"},"sourceId":"osm"},{"id":"osm:node:11001511933","latitude":51.7363899,"longitude":-0.2107432,"name":"Dixons Hill Road near Marshmoor Lane","properties":{"access":"customers","bicycle_pa":"stands","capacity":9,"covered":"yes","fee":"","operator":"","nameSource":"junction"},"sourceId":"osm"},{"id":"osm:node:11046847873","latitude":51.7530759,"longitude":-0.2388531,"name":"Learning Resources Centre cycle parking","properties":{"access":"unknown","bicycle_pa":"stands","capacity":20,"covered":"no","fee":"","operator":"","nameSource":"landmark"},"sourceId":"osm"},{"id":"osm:node:11046847874","latitude":51.7533169,"longitude":-0.2392252,"name":"C.P. Snow Walk cycle parking","properties":{"access":"unknown","bicycle_pa":"stands","capacity":10,"covered":"","fee":"","operator":"","nameSource":"street"},"sourceId":"osm"},{"id":"osm:node:11046847875","latitude":51.7534182,"longitude":-0.242029,"name":"C.P. Snow Walk near Buttler Walk","properties":{"access":"unknown","bicycle_pa":"stands","capacity":20,"covered":"yes","fee":"","operator":"","nameSource":"junction"},"sourceId":"osm"},{"id":"osm:node:11046847876","latitude":51.7526918,"longitude":-0.2429674,"name":"College Lane cycle parking","properties":{"access":"unknown","bicycle_pa":"stands","capacity":40,"covered":"yes","fee":"","operator":"","nameSource":"street"},"sourceId":"osm"},{"id":"osm:node:11046847877","latitude":51.7506001,"longitude":-0.2430106,"name":"Broad Way by UH Day Nursery","properties":{"access":"unknown","bicycle_pa":"stands","capacity":8,"covered":"yes","fee":"","operator":"","nameSource":"landmark"},"sourceId":"osm"},{"id":"osm:node:11046847878","latitude":51.7536849,"longitude":-0.2413812,"name":"C.P. Snow Walk cycle parking","properties":{"access":"unknown","bicycle_pa":"stands","capacity":10,"covered":"yes","fee":"","operator":"","nameSource":"street"},"sourceId":"osm"},{"id":"osm:node:11046862657","latitude":51.7609306,"longitude":-0.2495117,"name":"Hertfordshire Sports Village cycle parking","properties":{"access":"unknown","bicycle_pa":"stands","capacity":24,"covered":"no","fee":"","operator":"","nameSource":"landmark"},"sourceId":"osm"},{"id":"osm:node:11046862658","latitude":51.7614267,"longitude":-0.2478943,"name":"Weston Auditorium cycle parking","properties":{"access":"unknown","bicycle_pa":"stands","capacity":0,"covered":"no","fee":"","operator":"","nameSource":"landmark"},"sourceId":"osm"},{"id":"osm:node:11046862659","latitude":51.7609849,"longitude":-0.2493762,"name":"Hertfordshire Sports Village cycle parking","properties":{"access":"unknown","bicycle_pa":"stands","capacity":24,"covered":"no","fee":"","operator":"","nameSource":"landmark"},"sourceId":"osm"},{"id":"osm:node:11046862660","latitude":51.7610464,"longitude":-0.2492241,"name":"de Havilland Food Hall cycle parking","properties":{"access":"unknown","bicycle_pa":"stands","capacity":24,"covered":"no","fee":"","operator":"","nameSource":"landmark"},"sourceId":"osm"},{"id":"osm:node:11046862661","latitude":51.7611009,"longitude":-0.2490914,"name":"de Havilland Food Hall cycle parking","properties":{"access":"unknown","bicycle_pa":"stands","capacity":24,"covered":"no","fee":"","operator":"","nameSource":"landmark"},"sourceId":"osm"},{"id":"osm:node:11299058555","latitude":51.764244,"longitude":-0.2260598,"name":"White Lion Square by Royal Mail Hatfield Delivery Office","properties":{"access":"yes","bicycle_pa":"stands","capacity":0,"covered":"no","fee":"no","operator":"","nameSource":"landmark"},"sourceId":"osm"},{"id":"osm:node:11299058556","latitude":51.7637792,"longitude":-0.2264675,"name":"White Lion Square near Town Centre","properties":{"access":"yes","bicycle_pa":"stands","capacity":0,"covered":"no","fee":"no","operator":"","nameSource":"junction"},"sourceId":"osm"},{"id":"osm:node:11299058557","latitude":51.7637443,"longitude":-0.2266458,"name":"Robin Hood Lane by Erol's Cafe","properties":{"access":"yes","bicycle_pa":"stands","capacity":0,"covered":"no","fee":"no","operator":"","nameSource":"landmark"},"sourceId":"osm"},{"id":"osm:node:11299058573","latitude":51.7641318,"longitude":-0.2272494,"name":"Robin Hood Lane near The Common","properties":{"access":"unknown","bicycle_pa":"stands","capacity":0,"covered":"","fee":"","operator":"","nameSource":"junction"},"sourceId":"osm"},{"id":"osm:node:11300965889","latitude":51.7626904,"longitude":-0.2407524,"name":"Parkhouse Court by Turkish Kitchen","properties":{"access":"unknown","bicycle_pa":"","capacity":0,"covered":"","fee":"","operator":"","nameSource":"landmark"},"sourceId":"osm"},{"id":"osm:node:11345545321","latitude":51.7486879,"longitude":-0.2338215,"name":"High View near McDonald Court","properties":{"access":"unknown","bicycle_pa":"","capacity":0,"covered":"","fee":"","operator":"","nameSource":"junction"},"sourceId":"osm"},{"id":"osm:node:11461134503","latitude":51.762438,"longitude":-0.2264132,"name":"Market Place by Best-one","properties":{"access":"yes","bicycle_pa":"stands","capacity":0,"covered":"no","fee":"no","operator":"","nameSource":"landmark"},"sourceId":"osm"},{"id":"osm:node:11466687791","latitude":51.7637761,"longitude":-0.2414019,"name":"Parkhouse Court by Bishops Veterinary Surgery","properties":{"access":"unknown","bicycle_pa":"","capacity":0,"covered":"","fee":"","operator":"","nameSource":"landmark"},"sourceId":"osm"},{"id":"osm:node:11538281586","latitude":51.7640064,"longitude":-0.2252967,"name":"Town Centre near White Lion Square","properties":{"access":"unknown","bicycle_pa":"stands","capacity":0,"covered":"","fee":"","operator":"","nameSource":"junction"},"sourceId":"osm"},{"id":"osm:node:11538281590","latitude":51.7639692,"longitude":-0.2246389,"name":"Town Centre by Coronation Gardens","properties":{"access":"yes","bicycle_pa":"stands","capacity":0,"covered":"no","fee":"no","operator":"","nameSource":"landmark"},"sourceId":"osm"},{"id":"osm:node:11862589506","latitude":51.7706917,"longitude":-0.2243255,"name":"Birchwood Avenue by Simmons","properties":{"access":"yes","bicycle_pa":"stands","capacity":6,"covered":"no","fee":"no","operator":"","nameSource":"landmark"},"sourceId":"osm"},{"id":"osm:node:11862589507","latitude":51.7692834,"longitude":-0.2305259,"name":"Crawford Road by Birchwood Cafe","properties":{"access":"yes","bicycle_pa":"stands","capacity":4,"covered":"no","fee":"no","operator":"","nameSource":"landmark"},"sourceId":"osm"},{"id":"osm:node:11862591304","latitude":51.7739954,"longitude":-0.2215331,"name":"Longmead by Birchwood Leisure Centre","properties":{"access":"yes","bicycle_pa":"stands","capacity":6,"covered":"no","fee":"no","operator":"","nameSource":"landmark"},"sourceId":"osm"},{"id":"osm:node:11862591306","latitude":51.7765172,"longitude":-0.2213366,"name":"Tesco Click and Collect by Timpson","properties":{"access":"customers","bicycle_pa":"stands","capacity":18,"covered":"yes","fee":"no","operator":"Teso","nameSource":"landmark"},"sourceId":"osm"},{"id":"osm:node:1196645377","latitude":51.7621093,"longitude":-0.2441928,"name":"Bishop Square cycle parking","properties":{"access":"unknown","bicycle_pa":"","capacity":30,"covered":"no","fee":"","operator":"","nameSource":"street"},"sourceId":"osm"},{"id":"osm:node:1196677699","latitude":51.7704975,"longitude":-0.2432991,"name":"Hearle Way cycle parking","properties":{"access":"unknown","bicycle_pa":"rack","capacity":20,"covered":"","fee":"","operator":"","nameSource":"street"},"sourceId":"osm"},{"id":"osm:node:12420876104","latitude":51.7630663,"longitude":-0.2244493,"name":"Queensway near Kennelwood Lane","properties":{"access":"yes","bicycle_pa":"stands","capacity":8,"covered":"no","fee":"no","operator":"","nameSource":"junction"},"sourceId":"osm"},{"id":"osm:node:4407513493","latitude":51.7621537,"longitude":-0.2266711,"name":"Market Place by Citizens Advice","properties":{"access":"yes","bicycle_pa":"stands","capacity":0,"covered":"yes","fee":"no","operator":"","nameSource":"landmark"},"sourceId":"osm"},{"id":"osm:node:6328179259","latitude":51.7702245,"longitude":-0.2434566,"name":"Hearle Way cycle parking","properties":{"access":"unknown","bicycle_pa":"","capacity":0,"covered":"","fee":"","operator":"","nameSource":"street"},"sourceId":"osm"},{"id":"osm:node:6329298501","latitude":51.7631057,"longitude":-0.2406294,"name":"Parkhouse Court by Aldi","properties":{"access":"unknown","bicycle_pa":"stands","capacity":14,"covered":"no","fee":"","operator":"","nameSource":"landmark"},"sourceId":"osm"},{"id":"osm:node:6334397057","latitude":51.7692278,"longitude":-0.2377767,"name":"Mosquito Way cycle parking","properties":{"access":"private","bicycle_pa":"","capacity":0,"covered":"","fee":"","operator":"","nameSource":"street"},"sourceId":"osm"},{"id":"osm:node:6341882334","latitude":51.7620954,"longitude":-0.2445503,"name":"Bishop Square cycle parking","properties":{"access":"unknown","bicycle_pa":"","capacity":0,"covered":"no","fee":"","operator":"","nameSource":"street"},"sourceId":"osm"},{"id":"osm:node:6342190901","latitude":51.7722277,"longitude":-0.2511636,"name":"Frobisher Way cycle parking","properties":{"access":"unknown","bicycle_pa":"","capacity":0,"covered":"","fee":"","operator":"","nameSource":"street"},"sourceId":"osm"},{"id":"osm:node:6348310678","latitude":51.7708027,"longitude":-0.2430305,"name":"DHL cycle parking","properties":{"access":"unknown","bicycle_pa":"rack","capacity":0,"covered":"yes","fee":"","operator":"","nameSource":"landmark"},"sourceId":"osm"},{"id":"osm:node:6369188213","latitude":51.7673505,"longitude":-0.2471257,"name":"Oxford Place near Salisbury Hall Drive","properties":{"access":"unknown","bicycle_pa":"","capacity":0,"covered":"yes","fee":"","operator":"","nameSource":"junction"},"sourceId":"osm"},{"id":"osm:node:672465925","latitude":51.7631553,"longitude":-0.2279256,"name":"Town Centre by Savers","properties":{"access":"unknown","bicycle_pa":"stands","capacity":0,"covered":"no","fee":"","operator":"","nameSource":"landmark"},"sourceId":"osm"},{"id":"osm:node:673314378","latitude":51.7618804,"longitude":-0.2399742,"name":"Hatfield Tunnel by Wagamama","properties":{"access":"unknown","bicycle_pa":"stands","capacity":0,"covered":"yes","fee":"","operator":"","nameSource":"landmark"},"sourceId":"osm"},{"id":"osm:node:676945231","latitude":51.7628848,"longitude":-0.2301591,"name":"The Common by Bradley James Hair","properties":{"access":"yes","bicycle_pa":"stands","capacity":6,"covered":"no","fee":"no","operator":"","nameSource":"landmark"},"sourceId":"osm"},{"id":"osm:node:676945313","latitude":51.7644348,"longitude":-0.2257537,"name":"Wellfield Road near The Common","properties":{"access":"yes","bicycle_pa":"stands","capacity":10,"covered":"no","fee":"no","operator":"","nameSource":"junction"},"sourceId":"osm"},{"id":"osm:node:6854972701","latitude":51.7616079,"longitude":-0.2504102,"name":"Albatross Way by Premier","properties":{"access":"unknown","bicycle_pa":"stands","capacity":0,"covered":"no","fee":"","operator":"","nameSource":"landmark"},"sourceId":"osm"},{"id":"osm:node:7064963737","latitude":51.7574471,"longitude":-0.2368912,"name":"Aldykes near Hill Ley","properties":{"access":"unknown","bicycle_pa":"stands","capacity":0,"covered":"","fee":"","operator":"","nameSource":"junction"},"sourceId":"osm"},{"id":"osm:node:8199700866","latitude":51.7605314,"longitude":-0.2414996,"name":"Hatfield Tunnel near A1(M)","properties":{"access":"yes","bicycle_pa":"stands","capacity":14,"covered":"no","fee":"no","operator":"","nameSource":"junction"},"sourceId":"osm"},{"id":"osm:node:8199700867","latitude":51.7602925,"longitude":-0.2409686,"name":"Hatfield Tunnel near A1(M)","properties":{"access":"yes","bicycle_pa":"stands","capacity":10,"covered":"no","fee":"no","operator":"","nameSource":"junction"},"sourceId":"osm"},{"id":"osm:node:9276458573","latitude":51.7519518,"longitude":-0.2417872,"name":"Buttler Walk near Butler Walk","properties":{"access":"unknown","bicycle_pa":"rack","capacity":16,"covered":"no","fee":"","operator":"","nameSource":"junction"},"sourceId":"osm"},{"id":"osm:node:9277301946","latitude":51.7532132,"longitude":-0.2381888,"name":"Indells cycle parking","properties":{"access":"unknown","bicycle_pa":"stands","capacity":20,"covered":"no","fee":"","operator":"","nameSource":"street"},"sourceId":"osm"},{"id":"osm:node:9277301947","latitude":51.7532035,"longitude":-0.2388209,"name":"Learning Resources Centre cycle parking","properties":{"access":"unknown","bicycle_pa":"stands","capacity":20,"covered":"no","fee":"","operator":"","nameSource":"landmark"},"sourceId":"osm"},{"id":"osm:node:9333120038","latitude":51.7537516,"longitude":-0.2426779,"name":"College Lane cycle parking","properties":{"access":"unknown","bicycle_pa":"stands","capacity":10,"covered":"yes","fee":"","operator":"","nameSource":"street"},"sourceId":"osm"},{"id":"osm:node:9554368962","latitude":51.7530772,"longitude":-0.2382947,"name":"Learning Resources Centre cycle parking","properties":{"access":"unknown","bicycle_pa":"stands","capacity":20,"covered":"no","fee":"","operator":"","nameSource":"landmark"},"sourceId":"osm"},{"id":"osm:way:1002185434","latitude":51.75017635714285,"longitude":-0.2377783428571429,"name":"Hilltop cycle parking","properties":{"access":"customers","bicycle_pa":"shed","capacity":0,"covered":"yes","fee":"no","operator":"","nameSource":"place"},"sourceId":"osm"},{"id":"osm:way:1005435976","latitude":51.752552650000005,"longitude":-0.23538475,"name":"Roberts Way near Robert's Way","properties":{"access":"customers","bicycle_pa":"shed","capacity":52,"covered":"yes","fee":"no","operator":"","nameSource":"junction"},"sourceId":"osm"},{"id":"osm:way:1029332669","latitude":51.752064383333334,"longitude":-0.23537165000000002,"name":"Roberts Way cycle parking","properties":{"access":"customers","bicycle_pa":"shed","capacity":0,"covered":"yes","fee":"no","operator":"","nameSource":"street"},"sourceId":"osm"},{"id":"osm:way:492125582","latitude":51.759430359999996,"longitude":-0.22926476,"name":"Briars Lane near Holliers Way","properties":{"access":"private","bicycle_pa":"","capacity":0,"covered":"yes","fee":"","operator":"","nameSource":"junction"},"sourceId":"osm"},{"id":"osm:way:492131053","latitude":51.75091365263159,"longitude":-0.2386091263157895,"name":"The Oval MUGA cycle parking","properties":{"access":"customers","bicycle_pa":"shed","capacity":0,"covered":"yes","fee":"no","operator":"","nameSource":"landmark"},"sourceId":"osm"},{"id":"osm:way:492131058","latitude":51.752393,"longitude":-0.23502385714285717,"name":"Roberts Way near Robert's Way","properties":{"access":"customers","bicycle_pa":"shed","capacity":56,"covered":"yes","fee":"no","operator":"","nameSource":"junction"},"sourceId":"osm"},{"id":"osm:way:492131061","latitude":51.752356,"longitude":-0.23538306666666667,"name":"Roberts Way cycle parking","properties":{"access":"customers","bicycle_pa":"shed","capacity":56,"covered":"yes","fee":"no","operator":"","nameSource":"street"},"sourceId":"osm"},{"id":"osm:way:492133645","latitude":51.762338240000005,"longitude":-0.24657429999999997,"name":"Mosquito Way cycle parking","properties":{"access":"unknown","bicycle_pa":"","capacity":56,"covered":"yes","fee":"","operator":"","nameSource":"street"},"sourceId":"osm"},{"id":"osm:way:677503560","latitude":51.769062919999996,"longitude":-0.23525939999999998,"name":"Hatfield Avenue cycle parking","properties":{"access":"private","bicycle_pa":"stands","capacity":0,"covered":"yes","fee":"","operator":"","nameSource":"street"},"sourceId":"osm"},{"id":"osm:way:691293589","latitude":51.76366466,"longitude":-0.21564942,"name":"Great North Road near Arm and Sword Lane","properties":{"access":"yes","bicycle_pa":"stands","capacity":0,"covered":"yes","fee":"no","operator":"","nameSource":"junction"},"sourceId":"osm"},{"id":"osm:way:691293590","latitude":51.763294900000005,"longitude":-0.21573805999999998,"name":"Great North Road near Arm and Sword Lane","properties":{"access":"yes","bicycle_pa":"rack","capacity":0,"covered":"yes","fee":"no","operator":"","nameSource":"junction"},"sourceId":"osm"},{"id":"osm:way:691293604","latitude":51.763816399999996,"longitude":-0.21541536,"name":"Great North Road near Arm and Sword Lane","properties":{"access":"yes","bicycle_pa":"stands","capacity":0,"covered":"yes","fee":"no","operator":"","nameSource":"junction"},"sourceId":"osm"},{"id":"osm:way:692639879","latitude":51.766145359999996,"longitude":-0.21819062000000003,"name":"St Albans Road East near Beaconsfield Road","properties":{"access":"unknown","bicycle_pa":"stands","capacity":0,"covered":"yes","fee":"","operator":"","nameSource":"junction"},"sourceId":"osm"},{"id":"osm:way:692639885","latitude":51.76601075999999,"longitude":-0.21821297999999997,"name":"Endymion Mews near Endymion Road","properties":{"access":"unknown","bicycle_pa":"stands","capacity":0,"covered":"yes","fee":"","operator":"","nameSource":"junction"},"sourceId":"osm"},{"id":"osm:way:825482617","latitude":51.76255335999999,"longitude":-0.2286981,"name":"Dog Kennel Lane by McDonald's","properties":{"access":"customers","bicycle_pa":"stands","capacity":0,"covered":"yes","fee":"no","operator":"Asda","nameSource":"landmark"},"sourceId":"osm"},{"id":"osm:way:825482624","latitude":51.7627377,"longitude":-0.22945365999999998,"name":"The Common by Asda","properties":{"access":"customers","bicycle_pa":"stands","capacity":0,"covered":"yes","fee":"no","operator":"Asda","nameSource":"landmark"},"sourceId":"osm"},{"id":"osm:way:976794802","latitude":51.751046759999994,"longitude":-0.2358234,"name":"Campus Accommodation Green cycle parking","properties":{"access":"customers","bicycle_pa":"shed","capacity":64,"covered":"yes","fee":"no","operator":"","nameSource":"landmark"},"sourceId":"osm"},{"id":"osm:way:976794854","latitude":51.751824174999996,"longitude":-0.23594625,"name":"Campus Accommodation Green cycle parking","properties":{"access":"customers","bicycle_pa":"shed","capacity":64,"covered":"yes","fee":"no","operator":"","nameSource":"landmark"},"sourceId":"osm"},{"id":"osm:way:987242115","latitude":51.75069977999999,"longitude":-0.23792808000000001,"name":"The Oval MUGA cycle parking","properties":{"access":"customers","bicycle_pa":"shed","capacity":0,"covered":"yes","fee":"no","operator":"","nameSource":"landmark"},"sourceId":"osm"},{"id":"osm:way:988387393","latitude":51.750373493333335,"longitude":-0.2373158466666667,"name":"Hawthornes cycle parking","properties":{"access":"customers","bicycle_pa":"shed","capacity":0,"covered":"yes","fee":"","operator":"","nameSource":"street"},"sourceId":"osm"},{"id":"osm:way:988387395","latitude":51.750545620000004,"longitude":-0.23680363333333332,"name":"Hawthornes cycle parking","properties":{"access":"customers","bicycle_pa":"shed","capacity":0,"covered":"yes","fee":"no","operator":"","nameSource":"street"},"sourceId":"osm"},{"id":"osm:way:989711633","latitude":51.75145714285714,"longitude":-0.23497321428571433,"name":"Roberts Way cycle parking","properties":{"access":"customers","bicycle_pa":"shed","capacity":64,"covered":"yes","fee":"no","operator":"","nameSource":"street"},"sourceId":"osm"},{"id":"osm:way:989711634","latitude":51.751427099999994,"longitude":-0.23515257142857143,"name":"Roberts Way cycle parking","properties":{"access":"customers","bicycle_pa":"shed","capacity":44,"covered":"yes","fee":"no","operator":"","nameSource":"street"},"sourceId":"osm"},{"id":"osm:way:995746879","latitude":51.75055066,"longitude":-0.23548784,"name":"Roberts Way cycle parking","properties":{"access":"customers","bicycle_pa":"shed","capacity":0,"covered":"yes","fee":"no","operator":"","nameSource":"street"},"sourceId":"osm"},{"id":"osm:way:996680103","latitude":51.7520225125,"longitude":-0.2351480625,"name":"Roberts Way cycle parking","properties":{"access":"customers","bicycle_pa":"shed","capacity":0,"covered":"yes","fee":"no","operator":"","nameSource":"street"},"sourceId":"osm"},{"id":"osm:way:996684053","latitude":51.751674060000006,"longitude":-0.23466550000000003,"name":"Roberts Way cycle parking","properties":{"access":"customers","bicycle_pa":"shed","capacity":32,"covered":"yes","fee":"no","operator":"","nameSource":"street"},"sourceId":"osm"},{"id":"osm:way:998224366","latitude":51.750447185714286,"longitude":-0.23601997142857142,"name":"Hawthornes cycle parking","properties":{"access":"customers","bicycle_pa":"shed","capacity":0,"covered":"yes","fee":"no","operator":"","nameSource":"street"},"sourceId":"osm"}],"schemaVersion":2}
