{"key":"12/2045/1360","points":[{"id":"osm:node:10213894372","latitude":51.6135329,"longitude":-0.1759162,"name":"Grand Arcade near High Road","properties":{"access":"unknown","bicycle_pa":"stands","capacity":6,"covered":"no","fee":"","operator":"","nameSource":"junction"},"sourceId":"osm"},{"id":"osm:node:10275588485","latitude":51.5856516,"longitude":-0.2311834,"name":"Station Road near Watford Way","properties":{"access":"unknown","bicycle_pa":"stands","capacity":10,"covered":"","fee":"","operator":"","nameSource":"junction"},"sourceId":"osm"},{"id":"osm:node:10275588486","latitude":51.5818873,"longitude":-0.2271316,"name":"Hendon Way near Cheyne Walk","properties":{"access":"unknown","bicycle_pa":"stands","capacity":4,"covered":"","fee":"","operator":"","nameSource":"junction"},"sourceId":"osm"},{"id":"osm:node:10275588487","latitude":51.5825668,"longitude":-0.2243145,"name":"Queen's Road near Wykeham Road","properties":{"access":"unknown","bicycle_pa":"","capacity":8,"covered":"","fee":"","operator":"","nameSource":"junction"},"sourceId":"osm"},{"id":"osm:node:10275588488","latitude":51.5869733,"longitude":-0.2205664,"name":"Brent Street near Foster Street","properties":{"access":"unknown","bicycle_pa":"stands","capacity":4,"covered":"no","fee":"","operator":"","nameSource":"junction"},"sourceId":"osm"},{"id":"osm:node:10275588489","latitude":51.58769,"longitude":-0.2220172,"name":"Brampton Grove near Brampton Lane","properties":{"access":"unknown","bicycle_pa":"stands","capacity":2,"covered":"","fee":"","operator":"","nameSource":"junction"},"sourceId":"osm"},{"id":"osm:node:10275588490","latitude":51.5866572,"longitude":-0.2188296,"name":"Belle Vue Road near Bell Lane","properties":{"access":"unknown","bicycle_pa":"stands","capacity":6,"covered":"","fee":"","operator":"","nameSource":"junction"},"sourceId":"osm"},{"id":"osm:node:10275588491","latitude":51.5847725,"longitude":-0.2221618,"name":"Heriot Road near Sydney Grove","properties":{"access":"unknown","bicycle_pa":"stands","capacity":2,"covered":"","fee":"","operator":"","nameSource":"junction"},"sourceId":"osm"},{"id":"osm:node:10275588492","latitude":51.5876467,"longitude":-0.2210958,"name":"Brent Street near Brampton Grove","properties":{"access":"unknown","bicycle_pa":"stands","capacity":4,"covered":"","fee":"","operator":"","nameSource":"junction"},"sourceId":"osm"},{"id":"osm:node:10275588685","latitude":51.5862495,"longitude":-0.2199719,"name":"Bell Lane near Brent Street","properties":{"access":"unknown","bicycle_pa":"stands","capacity":4,"covered":"no","fee":"","operator":"","nameSource":"junction"},"sourceId":"osm"},{"id":"osm:node:10275588686","latitude":51.585576,"longitude":-0.2198957,"name":"Heriot Road near Brent Street","properties":{"access":"unknown","bicycle_pa":"stands","capacity":2,"covered":"","fee":"","operator":"","nameSource":"junction"},"sourceId":"osm"},{"id":"osm:node:10275588831","latitude":51.605529,"longitude":-0.1847532,"name":"Seymour Road by Victoria Park","properties":{"access":"unknown","bicycle_pa":"","capacity":8,"covered":"","fee":"","operator":"","nameSource":"landmark"},"sourceId":"osm"},{"id":"osm:node:10275588832","latitude":51.6110012,"longitude":-0.1782479,"name":"Woodberry Grove near Rosemont Avenue","properties":{"access":"unknown","bicycle_pa":"stands","capacity":4,"covered":"","fee":"","operator":"","nameSource":"junction"},"sourceId":"osm"},{"id":"osm:node:10275588833","latitude":51.6137775,"longitude":-0.1762202,"name":"Castle Road near High Road","properties":{"access":"unknown","bicycle_pa":"stands","capacity":2,"covered":"no","fee":"","operator":"","nameSource":"junction"},"sourceId":"osm"},{"id":"osm:node:10275588853","latitude":51.5959636,"longitude":-0.2428678,"name":"Heritage Avenue by DelisquareD","properties":{"access":"unknown","bicycle_pa":"stands","capacity":8,"covered":"","fee":"","operator":"","nameSource":"landmark"},"sourceId":"osm"},{"id":"osm:node:10275588854","latitude":51.5961511,"longitude":-0.2424793,"name":"Heritage Avenue by DelisquareD","properties":{"access":"unknown","bicycle_pa":"stands","capacity":10,"covered":"","fee":"","operator":"","nameSource":"landmark"},"sourceId":"osm"},{"id":"osm:node:10275588855","latitude":51.5957556,"longitude":-0.2409677,"name":"Boulevard Drive by Flood Hazard Research Centre","properties":{"access":"unknown","bicycle_pa":"stands","capacity":10,"covered":"","fee":"","operator":"","nameSource":"landmark"},"sourceId":"osm"},{"id":"osm:node:10275588946","latitude":51.6138708,"longitude":-0.1767878,"name":"Ballards Lane near Grand Arcade","properties":{"access":"unknown","bicycle_pa":"stands","capacity":2,"covered":"no","fee":"","operator":"","nameSource":"junction"},"sourceId":"osm"},{"id":"osm:node:10275588947","latitude":51.6139823,"longitude":-0.1767467,"name":"Ballards Lane near Grand Arcade","properties":{"access":"unknown","bicycle_pa":"stands","capacity":10,"covered":"no","fee":"","operator":"","nameSource":"junction"},"sourceId":"osm"},{"id":"osm:node:10275588994","latitude":51.5950655,"longitude":-0.2415716,"name":"Aerodrome Road cycle parking","properties":{"access":"unknown","bicycle_pa":"stands","capacity":4,"covered":"","fee":"","operator":"","nameSource":"street"},"sourceId":"osm"},{"id":"osm:node:10275588995","latitude":51.5957923,"longitude":-0.2412932,"name":"Boulevard Drive by Flood Hazard Research Centre","properties":{"access":"unknown","bicycle_pa":"stands","capacity":6,"covered":"","fee":"","operator":"","nameSource":"landmark"},"sourceId":"osm"},{"id":"osm:node:10275588996","latitude":51.5957501,"longitude":-0.2409151,"name":"Boulevard Drive near Aviation Drive","properties":{"access":"unknown","bicycle_pa":"stands","capacity":10,"covered":"","fee":"","operator":"","nameSource":"junction"},"sourceId":"osm"},{"id":"osm:node:10275589054","latitude":51.6061412,"longitude":-0.1866927,"name":"Ballards Lane near Gruneisen Road","properties":{"access":"unknown","bicycle_pa":"stands","capacity":4,"covered":"no","fee":"","operator":"","nameSource":"junction"},"sourceId":"osm"},{"id":"osm:node:10275589055","latitude":51.611565,"longitude":-0.1786956,"name":"Ballards Lane near Hutton Grove","properties":{"access":"unknown","bicycle_pa":"stands","capacity":6,"covered":"no","fee":"","operator":"","nameSource":"junction"},"sourceId":"osm"},{"id":"osm:node:10275589056","latitude":51.6146326,"longitude":-0.176605,"name":"Ballards Lane near Tally Ho Corner","properties":{"access":"unknown","bicycle_pa":"stands","capacity":8,"covered":"no","fee":"","operator":"","nameSource":"junction"},"sourceId":"osm"},{"id":"osm:node:10275589057","latitude":51.6156294,"longitude":-0.1766212,"name":"Friern Park near High Road","properties":{"access":"unknown","bicycle_pa":"stands","capacity":6,"covered":"no","fee":"","operator":"","nameSource":"junction"},"sourceId":"osm"},{"id":"osm:node:10275589058","latitude":51.6152253,"longitude":-0.1765706,"name":"Ballards Lane near High Road","properties":{"access":"unknown","bicycle_pa":"stands","capacity":4,"covered":"no","fee":"","operator":"","nameSource":"junction"},"sourceId":"osm"},{"id":"osm:node:10275589059","latitude":51.6139654,"longitude":-0.1767483,"name":"Ballards Lane near Grand Arcade","properties":{"access":"unknown","bicycle_pa":"stands","capacity":2,"covered":"no","fee":"","operator":"","nameSource":"junction"},"sourceId":"osm"},{"id":"osm:node:10275589060","latitude":51.6136779,"longitude":-0.1768565,"name":"Ballards Lane near Grand Arcade","properties":{"access":"unknown","bicycle_pa":"stands","capacity":2,"covered":"no","fee":"","operator":"","nameSource":"junction"},"sourceId":"osm"},{"id":"osm:node:10275589061","latitude":51.6136861,"longitude":-0.1761811,"name":"Castle Road near High Road","properties":{"access":"unknown","bicycle_pa":"stands","capacity":2,"covered":"no","fee":"","operator":"","nameSource":"junction"},"sourceId":"osm"},{"id":"osm:node:10275589342","latitude":51.5950865,"longitude":-0.2419931,"name":"Aerodrome Road near Heritage Avenue","properties":{"access":"unknown","bicycle_pa":"","capacity":6,"covered":"","fee":"","operator":"","nameSource":"junction"},"sourceId":"osm"},{"id":"osm:node:10275589452","latitude":51.5839082,"longitude":-0.2280246,"name":"Watford Way by KWIK STOP FOOD & WINE","properties":{"access":"unknown","bicycle_pa":"stands","capacity":2,"covered":"no","fee":"","operator":"","nameSource":"landmark"},"sourceId":"osm"},{"id":"osm:node:10275589453","latitude":51.5839259,"longitude":-0.2280406,"name":"Watford Way by KWIK STOP FOOD & WINE","properties":{"access":"unknown","bicycle_pa":"stands","capacity":2,"covered":"no","fee":"","operator":"","nameSource":"landmark"},"sourceId":"osm"},{"id":"osm:node:10275589454","latitude":51.5833043,"longitude":-0.2277728,"name":"Watford Way by Subway","properties":{"access":"unknown","bicycle_pa":"stands","capacity":2,"covered":"","fee":"","operator":"","nameSource":"landmark"},"sourceId":"osm"},{"id":"osm:node:10275589455","latitude":51.583312,"longitude":-0.2277838,"name":"Watford Way by Subway","properties":{"access":"unknown","bicycle_pa":"stands","capacity":2,"covered":"no","fee":"","operator":"","nameSource":"landmark"},"sourceId":"osm"},{"id":"osm:node:10275589456","latitude":51.5828762,"longitude":-0.2274464,"name":"Vivian Avenue near Central Circus","properties":{"access":"unknown","bicycle_pa":"stands","capacity":6,"covered":"","fee":"","operator":"","nameSource":"junction"},"sourceId":"osm"},{"id":"osm:node:10275589457","latitude":51.5829411,"longitude":-0.2267197,"name":"Watford Way near Central Circus","properties":{"access":"unknown","bicycle_pa":"stands","capacity":12,"covered":"no","fee":"","operator":"","nameSource":"junction"},"sourceId":"osm"},{"id":"osm:node:10275589458","latitude":51.5824981,"longitude":-0.2273781,"name":"Vivian Avenue near Central Circus","properties":{"access":"unknown","bicycle_pa":"stands","capacity":4,"covered":"","fee":"","operator":"","nameSource":"junction"},"sourceId":"osm"},{"id":"osm:node:10275589459","latitude":51.5861623,"longitude":-0.22023,"name":"Bell Lane near Brent Street","properties":{"access":"unknown","bicycle_pa":"stands","capacity":6,"covered":"no","fee":"","operator":"","nameSource":"junction"},"sourceId":"osm"},{"id":"osm:node:10275589716","latitude":51.6057333,"longitude":-0.1872402,"name":"The Ridgeway near Ballards Lane","properties":{"access":"unknown","bicycle_pa":"stands","capacity":6,"covered":"no","fee":"","operator":"","nameSource":"junction"},"sourceId":"osm"},{"id":"osm:node:10275589717","latitude":51.6139522,"longitude":-0.1762925,"name":"Ballards Lane by Silk Route","properties":{"access":"unknown","bicycle_pa":"stands","capacity":2,"covered":"no","fee":"","operator":"","nameSource":"landmark"},"sourceId":"osm"},{"id":"osm:node:10275612711","latitude":51.595901,"longitude":-0.2425323,"name":"Heritage Avenue by DelisquareD","properties":{"access":"unknown","bicycle_pa":"stands","capacity":8,"covered":"","fee":"","operator":"","nameSource":"landmark"},"sourceId":"osm"},{"id":"osm:node:10275612712","latitude":51.5965922,"longitude":-0.2425795,"name":"Heritage Avenue near Grahame Park Way","properties":{"access":"unknown","bicycle_pa":"stands","capacity":10,"covered":"no","fee":"","operator":"","nameSource":"junction"},"sourceId":"osm"},{"id":"osm:node:10275614256","latitude":51.5958743,"longitude":-0.2427508,"name":"Heritage Avenue by Diprinci","properties":{"access":"unknown","bicycle_pa":"stands","capacity":8,"covered":"","fee":"","operator":"","nameSource":"landmark"},"sourceId":"osm"},{"id":"osm:node:10275614257","latitude":51.5961107,"longitude":-0.2428228,"name":"Heritage Avenue by DelisquareD","properties":{"access":"unknown","bicycle_pa":"stands","capacity":8,"covered":"","fee":"","operator":"","nameSource":"landmark"},"sourceId":"osm"},{"id":"osm:node:10275614258","latitude":51.5972137,"longitude":-0.2447189,"name":"Valentina Avenue near Grahame Park Way","properties":{"access":"unknown","bicycle_pa":"stands","capacity":10,"covered":"yes","fee":"","operator":"","nameSource":"junction"},"sourceId":"osm"},{"id":"osm:node:10275614259","latitude":51.5960514,"longitude":-0.2423493,"name":"Boulevard Drive by GP Private","properties":{"access":"unknown","bicycle_pa":"stands","capacity":10,"covered":"","fee":"","operator":"","nameSource":"landmark"},"sourceId":"osm"},{"id":"osm:node:10275614260","latitude":51.5959406,"longitude":-0.2423864,"name":"Boulevard Drive by GP Private","properties":{"access":"unknown","bicycle_pa":"stands","capacity":10,"covered":"","fee":"","operator":"","nameSource":"landmark"},"sourceId":"osm"},{"id":"osm:node:10275614261","latitude":51.595854,"longitude":-0.2419103,"name":"Boulevard Drive by GP Private","properties":{"access":"unknown","bicycle_pa":"stands","capacity":6,"covered":"","fee":"","operator":"","nameSource":"landmark"},"sourceId":"osm"},{"id":"osm:node:10277991315","latitude":51.5808319,"longitude":-0.2624674,"name":"Church Lane near Burgess Avenue","properties":{"access":"unknown","bicycle_pa":"","capacity":2,"covered":"","fee":"","operator":"","nameSource":"junction"},"sourceId":"osm"},{"id":"osm:node:10277991393","latitude":51.5938153,"longitude":-0.2488416,"name":"Chronicle Avenue by Colindale Park","properties":{"access":"unknown","bicycle_pa":"wall_loops","capacity":3,"covered":"","fee":"","operator":"","nameSource":"landmark"},"sourceId":"osm"},{"id":"osm:node:10277991416","latitude":51.5807769,"longitude":-0.2624695,"name":"Church Lane near Burgess Avenue","properties":{"access":"unknown","bicycle_pa":"","capacity":2,"covered":"","fee":"","operator":"","nameSource":"junction"},"sourceId":"osm"},{"id":"osm:node:10277991417","latitude":51.5804116,"longitude":-0.2624952,"name":"Church Lane near Burgess Avenue","properties":{"access":"unknown","bicycle_pa":"","capacity":2,"covered":"","fee":"","operator":"","nameSource":"junction"},"sourceId":"osm"},{"id":"osm:node:10277991418","latitude":51.5743582,"longitude":-0.2622365,"name":"Queensbury Road near Church Lane","properties":{"access":"unknown","bicycle_pa":"","capacity":2,"covered":"","fee":"","operator":"","nameSource":"junction"},"sourceId":"osm"},{"id":"osm:node:10277991419","latitude":51.5742803,"longitude":-0.2622141,"name":"Church Lane near Mallard Way","properties":{"access":"unknown","bicycle_pa":"","capacity":2,"covered":"","fee":"","operator":"","nameSource":"junction"},"sourceId":"osm"},{"id":"osm:node:10277991481","latitude":51.5882264,"longitude":-0.2628669,"name":"Hay Lane near Haydon Close","properties":{"access":"unknown","bicycle_pa":"stands","capacity":2,"covered":"","fee":"","operator":"","nameSource":"junction"},"sourceId":"osm"},{"id":"osm:node:10277991482","latitude":51.5882149,"longitude":-0.2631264,"name":"Hay Lane near Haydon Close","properties":{"access":"unknown","bicycle_pa":"stands","capacity":2,"covered":"","fee":"","operator":"","nameSource":"junction"},"sourceId":"osm"},{"id":"osm:node:10277991493","latitude":51.5945993,"longitude":-0.2571709,"name":"Annesley Avenue cycle parking","properties":{"access":"unknown","bicycle_pa":"stands","capacity":8,"covered":"yes","fee":"","operator":"","nameSource":"street"},"sourceId":"osm"},{"id":"osm:node:10277991494","latitude":51.5935482,"longitude":-0.25239,"name":"Mornington Close near Colindale Avenue","properties":{"access":"unknown","bicycle_pa":"stands","capacity":18,"covered":"yes","fee":"","operator":"","nameSource":"junction"},"sourceId":"osm"},{"id":"osm:node:10277991495","latitude":51.5933282,"longitude":-0.2521374,"name":"Mornington Close cycle parking","properties":{"access":"unknown","bicycle_pa":"stands","capacity":20,"covered":"yes","fee":"","operator":"","nameSource":"street"},"sourceId":"osm"},{"id":"osm:node:10277991496","latitude":51.5948101,"longitude":-0.2503501,"name":"Charcot Road near Colindale Avenue","properties":{"access":"unknown","bicycle_pa":"stands","capacity":10,"covered":"no","fee":"","operator":"","nameSource":"junction"},"sourceId":"osm"},{"id":"osm:node:10277991497","latitude":51.59437,"longitude":-0.2495819,"name":"Chronicle Avenue near Telegraph Avenue","properties":{"access":"unknown","bicycle_pa":"stands","capacity":6,"covered":"yes","fee":"","operator":"","nameSource":"junction"},"sourceId":"osm"},{"id":"osm:node:10277991519","latitude":51.5750387,"longitude":-0.2623411,"name":"Church Lane near Reeves Avenue","properties":{"access":"unknown","bicycle_pa":"stands","capacity":4,"covered":"","fee":"","operator":"","nameSource":"junction"},"sourceId":"osm"},{"id":"osm:node:10277991520","latitude":51.5747753,"longitude":-0.2622869,"name":"Church Lane near Queensbury Road","properties":{"access":"unknown","bicycle_pa":"stands","capacity":4,"covered":"","fee":"","operator":"","nameSource":"junction"},"sourceId":"osm"},{"id":"osm:node:10277991521","latitude":51.5741964,"longitude":-0.2622009,"name":"Church Lane near Mallard Way","properties":{"access":"unknown","bicycle_pa":"","capacity":2,"covered":"","fee":"","operator":"","nameSource":"junction"},"sourceId":"osm"},{"id":"osm:node:10277991522","latitude":51.572899,"longitude":-0.2621485,"name":"Church Lane near Lavender Avenue","properties":{"access":"unknown","bicycle_pa":"stands","capacity":4,"covered":"","fee":"","operator":"","nameSource":"junction"},"sourceId":"osm"},{"id":"osm:node:10277991817","latitude":51.5803618,"longitude":-0.2625062,"name":"Church Lane near Burgess Avenue","properties":{"access":"unknown","bicycle_pa":"","capacity":2,"covered":"","fee":"","operator":"","nameSource":"junction"},"sourceId":"osm"},{"id":"osm:node:10277991849","latitude":51.6013366,"longitude":-0.2495952,"name":"Heybourne Crescent near Lanacre Avenue","properties":{"access":"unknown","bicycle_pa":"stands","capacity":10,"covered":"","fee":"","operator":"","nameSource":"junction"},"sourceId":"osm"},{"id":"osm:node:10277991850","latitude":51.5950449,"longitude":-0.2499506,"name":"Colindale Avenue near Charcot Road","properties":{"access":"unknown","bicycle_pa":"stands","capacity":10,"covered":"no","fee":"","operator":"","nameSource":"junction"},"sourceId":"osm"},{"id":"osm:node:10277991884","latitude":51.6096948,"longitude":-0.2118068,"name":"Bittacy Hill near Sanders Lane","properties":{"access":"unknown","bicycle_pa":"stands","capacity":6,"covered":"","fee":"","operator":"","nameSource":"junction"},"sourceId":"osm"},{"id":"osm:node:10277991911","latitude":51.5809293,"longitude":-0.262411,"name":"Church Lane near Burgess Avenue","properties":{"access":"unknown","bicycle_pa":"stands","capacity":2,"covered":"no","fee":"","operator":"","nameSource":"junction"},"sourceId":"osm"},{"id":"osm:node:10277991912","latitude":51.5744231,"longitude":-0.2622433,"name":"Queensbury Road near Church Lane","properties":{"access":"unknown","bicycle_pa":"","capacity":2,"covered":"","fee":"","operator":"","nameSource":"junction"},"sourceId":"osm"},{"id":"osm:node:10277991932","latitude":51.5881934,"longitude":-0.2633786,"name":"Hay Lane near Haydon Close","properties":{"access":"unknown","bicycle_pa":"stands","capacity":2,"covered":"","fee":"","operator":"","nameSource":"junction"},"sourceId":"osm"},{"id":"osm:node:10277991968","latitude":51.5657533,"longitude":-0.2502976,"name":"North Circular Road near Randall Avenue","properties":{"access":"unknown","bicycle_pa":"stands","capacity":6,"covered":"","fee":"","operator":"","nameSource":"junction"},"sourceId":"osm"},{"id":"osm:node:10277992118","latitude":51.599744,"longitude":-0.1947643,"name":"Arcadia Avenue near Regent's Park Road","properties":{"access":"unknown","bicycle_pa":"stands","capacity":14,"covered":"","fee":"","operator":"","nameSource":"junction"},"sourceId":"osm"},{"id":"osm:node:10277993453","latitude":51.59485,"longitude":-0.2502419,"name":"Colindale Avenue near Charcot Road","properties":{"access":"unknown","bicycle_pa":"stands","capacity":10,"covered":"no","fee":"","operator":"","nameSource":"junction"},"sourceId":"osm"},{"id":"osm:node:10277993454","latitude":51.5938157,"longitude":-0.2514806,"name":"Mornington Close near Colindale Avenue","properties":{"access":"unknown","bicycle_pa":"stands","capacity":28,"covered":"yes","fee":"","operator":"","nameSource":"junction"},"sourceId":"osm"},{"id":"osm:node:10277993455","latitude":51.5953634,"longitude":-0.2502668,"name":"Colindale Avenue near Charcot Road","properties":{"access":"unknown","bicycle_pa":"stands","capacity":24,"covered":"no","fee":"","operator":"","nameSource":"junction"},"sourceId":"osm"},{"id":"osm:node:10277993456","latitude":51.5956446,"longitude":-0.2482809,"name":"Colindale Avenue near Pasteur Close","properties":{"access":"unknown","bicycle_pa":"stands","capacity":6,"covered":"","fee":"","operator":"","nameSource":"junction"},"sourceId":"osm"},{"id":"osm:node:10277995491","latitude":51.6161273,"longitude":-0.2446643,"name":"The Broadway near Goodwyn Avenue","properties":{"access":"unknown","bicycle_pa":"wall_loops","capacity":10,"covered":"","fee":"","operator":"","nameSource":"junction"},"sourceId":"osm"},{"id":"osm:node:10277995492","latitude":51.6150964,"longitude":-0.2461563,"name":"The Broadway by Baw","properties":{"access":"unknown","bicycle_pa":"stands","capacity":4,"covered":"","fee":"","operator":"","nameSource":"landmark"},"sourceId":"osm"},{"id":"osm:node:10277995493","latitude":51.615905,"longitude":-0.2420111,"name":"Daws Lane near Albert Road","properties":{"access":"unknown","bicycle_pa":"stands","capacity":4,"covered":"","fee":"","operator":"","nameSource":"junction"},"sourceId":"osm"},{"id":"osm:node:10277995505","latitude":51.600762,"longitude":-0.1928204,"name":"Station Road near Siamese Mews","properties":{"access":"unknown","bicycle_pa":"stands","capacity":10,"covered":"yes","fee":"","operator":"","nameSource":"junction"},"sourceId":"osm"},{"id":"osm:node:10277995506","latitude":51.5997353,"longitude":-0.1953776,"name":"Arcadia Avenue near Regent's Park Road","properties":{"access":"unknown","bicycle_pa":"stands","capacity":8,"covered":"no","fee":"","operator":"","nameSource":"junction"},"sourceId":"osm"},{"id":"osm:node:10277995662","latitude":51.6155313,"longitude":-0.2454177,"name":"Flower Lane near The Broadway","properties":{"access":"unknown","bicycle_pa":"stands","capacity":2,"covered":"","fee":"","operator":"","nameSource":"junction"},"sourceId":"osm"},{"id":"osm:node:10277995663","latitude":51.6158935,"longitude":-0.245128,"name":"The Broadway near Goodwyn Avenue","properties":{"access":"unknown","bicycle_pa":"stands","capacity":4,"covered":"","fee":"","operator":"","nameSource":"junction"},"sourceId":"osm"},{"id":"osm:node:10277995671","latitude":51.5919007,"longitude":-0.1793944,"name":"East End Road near Ossulton Way","properties":{"access":"unknown","bicycle_pa":"stands","capacity":6,"covered":"no","fee":"","operator":"","nameSource":"junction"},"sourceId":"osm"},{"id":"osm:node:10277995672","latitude":51.5916602,"longitude":-0.1792079,"name":"Ossulton Way near East End Road","properties":{"access":"unknown","bicycle_pa":"stands","capacity":4,"covered":"","fee":"","operator":"","nameSource":"junction"},"sourceId":"osm"},{"id":"osm:node:10277995673","latitude":51.5915552,"longitude":-0.1776125,"name":"East End Road near Park Farm Close","properties":{"access":"unknown","bicycle_pa":"stands","capacity":2,"covered":"no","fee":"","operator":"","nameSource":"junction"},"sourceId":"osm"},{"id":"osm:node:10277995674","latitude":51.5856117,"longitude":-0.1811773,"name":"Falloden Way near Kingsley Way","properties":{"access":"unknown","bicycle_pa":"stands","capacity":10,"covered":"no","fee":"","operator":"","nameSource":"junction"},"sourceId":"osm"},{"id":"osm:node:10277995679","latitude":51.599709,"longitude":-0.1946829,"name":"Arcadia Avenue near Regent's Park Road","properties":{"access":"unknown","bicycle_pa":"stands","capacity":8,"covered":"","fee":"","operator":"","nameSource":"junction"},"sourceId":"osm"},{"id":"osm:node:10277996582","latitude":51.616138,"longitude":-0.2447548,"name":"The Broadway near Goodwyn Avenue","properties":{"access":"unknown","bicycle_pa":"stands","capacity":6,"covered":"","fee":"","operator":"","nameSource":"junction"},"sourceId":"osm"},{"id":"osm:node:10277996583","latitude":51.616185,"longitude":-0.2449419,"name":"The Broadway near Goodwyn Avenue","properties":{"access":"unknown","bicycle_pa":"stands","capacity":4,"covered":"","fee":"","operator":"","nameSource":"junction"},"sourceId":"osm"},{"id":"osm:node:10277996584","latitude":51.615718,"longitude":-0.2405482,"name":"Daws Lane near Birkbeck Road","properties":{"access":"unknown","bicycle_pa":"stands","capacity":4,"covered":"","fee":"","operator":"","nameSource":"junction"},"sourceId":"osm"},{"id":"osm:node:10277996585","latitude":51.6089676,"longitude":-0.2226833,"name":"Pursley Road near Salcombe Gardens","properties":{"access":"unknown","bicycle_pa":"stands","capacity":4,"covered":"no","fee":"","operator":"","nameSource":"junction"},"sourceId":"osm"},{"id":"osm:node:10277996586","latitude":51.6084671,"longitude":-0.2100169,"name":"Brittacy Hill near Bittacy Business Centre","properties":{"access":"unknown","bicycle_pa":"","capacity":6,"covered":"yes","fee":"","operator":"","nameSource":"junction"},"sourceId":"osm"},{"id":"osm:node:10277996596","latitude":51.5915476,"longitude":-0.1775416,"name":"East End Road near Park Farm Close","properties":{"access":"unknown","bicycle_pa":"stands","capacity":2,"covered":"no","fee":"","operator":"","nameSource":"junction"},"sourceId":"osm"},{"id":"osm:node:10278000918","latitude":51.6007947,"longitude":-0.1928905,"name":"Station Road near Siamese Mews","properties":{"access":"unknown","bicycle_pa":"stands","capacity":10,"covered":"yes","fee":"","operator":"","nameSource":"junction"},"sourceId":"osm"},{"id":"osm:node:10278000919","latitude":51.5998428,"longitude":-0.1967685,"name":"Hendon Lane near College Terrace","properties":{"access":"unknown","bicycle_pa":"stands","capacity":2,"covered":"no","fee":"","operator":"","nameSource":"junction"},"sourceId":"osm"},{"id":"osm:node:10278000920","latitude":51.599855,"longitude":-0.1967441,"name":"Hendon Lane near College Terrace","properties":{"access":"unknown","bicycle_pa":"stands","capacity":2,"covered":"no","fee":"","operator":"","nameSource":"junction"},"sourceId":"osm"},{"id":"osm:node:10278000921","latitude":51.6006877,"longitude":-0.1946018,"name":"Regent's Park Road near Lichfield Grove","properties":{"access":"unknown","bicycle_pa":"stands","capacity":8,"covered":"no","fee":"","operator":"","nameSource":"junction"},"sourceId":"osm"},{"id":"osm:node:10278000922","latitude":51.5995708,"longitude":-0.1969354,"name":"Hendon Lane near College Terrace","properties":{"access":"unknown","bicycle_pa":"stands","capacity":8,"covered":"no","fee":"","operator":"","nameSource":"junction"},"sourceId":"osm"},{"id":"osm:node:10278000923","latitude":51.6026146,"longitude":-0.1921487,"name":"Ballards Lane near Popes Drive","properties":{"access":"unknown","bicycle_pa":"stands","capacity":4,"covered":"no","fee":"","operator":"","nameSource":"junction"},"sourceId":"osm"},{"id":"osm:node:10278000924","latitude":51.5990288,"longitude":-0.1834256,"name":"Squires Lane near Vineyard Grove","properties":{"access":"unknown","bicycle_pa":"","capacity":2,"covered":"","fee":"","operator":"","nameSource":"junction"},"sourceId":"osm"},{"id":"osm:node:10280248217","latitude":51.5834514,"longitude":-0.1995856,"name":"Finchley Road by Shiraz Patisserie","properties":{"access":"unknown","bicycle_pa":"stands","capacity":4,"covered":"","fee":"","operator":"","nameSource":"landmark"},"sourceId":"osm"},{"id":"osm:node:10280248218","latitude":51.5840805,"longitude":-0.1999921,"name":"Finchley Road near Hayes Crescent","properties":{"access":"unknown","bicycle_pa":"stands","capacity":6,"covered":"no","fee":"","operator":"","nameSource":"junction"},"sourceId":"osm"},{"id":"osm:node:10280248219","latitude":51.5851438,"longitude":-0.1997761,"name":"Finchley Road near Hallswelle Road","properties":{"access":"unknown","bicycle_pa":"stands","capacity":8,"covered":"no","fee":"","operator":"","nameSource":"junction"},"sourceId":"osm"},{"id":"osm:node:10280248220","latitude":51.5800119,"longitude":-0.1983662,"name":"Finchley Road near St George's Road","properties":{"access":"unknown","bicycle_pa":"stands","capacity":2,"covered":"","fee":"","operator":"","nameSource":"junction"},"sourceId":"osm"},{"id":"osm:node:10280248221","latitude":51.5818531,"longitude":-0.1991171,"name":"Finchley Road near Temple Fortune Lane","properties":{"access":"unknown","bicycle_pa":"stands","capacity":2,"covered":"","fee":"","operator":"","nameSource":"junction"},"sourceId":"osm"},{"id":"osm:node:10280248222","latitude":51.5804458,"longitude":-0.1985488,"name":"Clifton Gardens near Finchley Road","properties":{"access":"unknown","bicycle_pa":"stands","capacity":4,"covered":"","fee":"","operator":"","nameSource":"junction"},"sourceId":"osm"},{"id":"osm:node:10280248223","latitude":51.5899209,"longitude":-0.2225384,"name":"Sunny Place by Jun","properties":{"access":"unknown","bicycle_pa":"stands","capacity":2,"covered":"","fee":"","operator":"","nameSource":"landmark"},"sourceId":"osm"},{"id":"osm:node:10280248224","latitude":51.5898147,"longitude":-0.2225654,"name":"Sunny Place by Its Pizza Time","properties":{"access":"unknown","bicycle_pa":"stands","capacity":2,"covered":"","fee":"","operator":"","nameSource":"landmark"},"sourceId":"osm"},{"id":"osm:node:10280248225","latitude":51.5898192,"longitude":-0.2226048,"name":"Sunny Place by Its Pizza Time","properties":{"access":"unknown","bicycle_pa":"stands","capacity":2,"covered":"","fee":"","operator":"","nameSource":"landmark"},"sourceId":"osm"},{"id":"osm:node:10280248226","latitude":51.5900819,"longitude":-0.2215664,"name":"Parson Street near Brent Street","properties":{"access":"unknown","bicycle_pa":"stands","capacity":4,"covered":"no","fee":"","operator":"","nameSource":"junction"},"sourceId":"osm"},{"id":"osm:node:10280248227","latitude":51.5896918,"longitude":-0.2197105,"name":"Linfield Close near Tenterden Grove","properties":{"access":"unknown","bicycle_pa":"stands","capacity":4,"covered":"","fee":"","operator":"","nameSource":"junction"},"sourceId":"osm"},{"id":"osm:node:10280248228","latitude":51.5880784,"longitude":-0.2213832,"name":"Brent Street near Victoria Road","properties":{"access":"unknown","bicycle_pa":"stands","capacity":6,"covered":"","fee":"","operator":"","nameSource":"junction"},"sourceId":"osm"},{"id":"osm:node:10280252422","latitude":51.5902749,"longitude":-0.225435,"name":"Prince of Wales Close cycle parking","properties":{"access":"private","bicycle_pa":"shed","capacity":6,"covered":"yes","fee":"","operator":"Cyclehoop Rentals","nameSource":"street"},"sourceId":"osm"},{"id":"osm:node:10280252423","latitude":51.5901115,"longitude":-0.2236001,"name":"Sunny Gardens Road near Church Road","properties":{"access":"unknown","bicycle_pa":"stands","capacity":8,"covered":"","fee":"","operator":"","nameSource":"junction"},"sourceId":"osm"},{"id":"osm:node:10280258433","latitude":51.5733524,"longitude":-0.2000591,"name":"Golders Green Road near Armitage Road","properties":{"access":"unknown","bicycle_pa":"stands","capacity":2,"covered":"no","fee":"","operator":"","nameSource":"junction"},"sourceId":"osm"},{"id":"osm:node:10280258434","latitude":51.5731083,"longitude":-0.1994119,"name":"Golders Green Road near Armitage Road","properties":{"access":"unknown","bicycle_pa":"stands","capacity":6,"covered":"no","fee":"","operator":"","nameSource":"junction"},"sourceId":"osm"},{"id":"osm:node:10280258435","latitude":51.5745465,"longitude":-0.2019048,"name":"Golders Green Road near Powis Gardens","properties":{"access":"unknown","bicycle_pa":"stands","capacity":6,"covered":"no","fee":"","operator":"","nameSource":"junction"},"sourceId":"osm"},{"id":"osm:node:10280259038","latitude":51.5729887,"longitude":-0.1995611,"name":"Golders Green Road near Armitage Road","properties":{"access":"unknown","bicycle_pa":"stands","capacity":6,"covered":"no","fee":"","operator":"","nameSource":"junction"},"sourceId":"osm"},{"id":"osm:node:10280259039","latitude":51.5741447,"longitude":-0.2012355,"name":"Golders Green Road near The Riding","properties":{"access":"unknown","bicycle_pa":"stands","capacity":2,"covered":"no","fee":"","operator":"","nameSource":"junction"},"sourceId":"osm"},{"id":"osm:node:10280259395","latitude":51.6133957,"longitude":-0.2488289,"name":"M1 by Çoban's Grill","properties":{"access":"unknown","bicycle_pa":"stands","capacity":6,"covered":"yes","fee":"","operator":"","nameSource":"landmark"},"sourceId":"osm"},{"id":"osm:node:10280259396","latitude":51.6133737,"longitude":-0.2487464,"name":"M1 by Çoban's Grill","properties":{"access":"unknown","bicycle_pa":"two-tier","capacity":48,"covered":"yes","fee":"","operator":"","nameSource":"landmark"},"sourceId":"osm"},{"id":"osm:node:10280260198","latitude":51.5768738,"longitude":-0.2256027,"name":"Prince Charles Drive cycle parking","properties":{"access":"unknown","bicycle_pa":"wall_loops","capacity":6,"covered":"yes","fee":"","operator":"","nameSource":"street"},"sourceId":"osm"},{"id":"osm:node:10280260199","latitude":51.5736782,"longitude":-0.215172,"name":"Marble Drive near Pearl Close","properties":{"access":"unknown","bicycle_pa":"stands","capacity":4,"covered":"no","fee":"","operator":"","nameSource":"junction"},"sourceId":"osm"},{"id":"osm:node:10280260291","latitude":51.5946347,"longitude":-0.2599233,"name":"The Hyde near A5","properties":{"access":"unknown","bicycle_pa":"stands","capacity":10,"covered":"","fee":"","operator":"","nameSource":"junction"},"sourceId":"osm"},{"id":"osm:node:10280261079","latitude":51.591313,"longitude":-0.1774313,"name":"Park Farm Close near East End Road","properties":{"access":"unknown","bicycle_pa":"stands","capacity":8,"covered":"","fee":"","operator":"","nameSource":"junction"},"sourceId":"osm"},{"id":"osm:node:10280261103","latitude":51.5726347,"longitude":-0.1984946,"name":"Golders Green Road by Boots","properties":{"access":"unknown","bicycle_pa":"stands","capacity":6,"covered":"","fee":"","operator":"","nameSource":"landmark"},"sourceId":"osm"},{"id":"osm:node:10280261629","latitude":51.5831949,"longitude":-0.1994875,"name":"Finchley Road by TGJones","properties":{"access":"unknown","bicycle_pa":"stands","capacity":4,"covered":"","fee":"","operator":"","nameSource":"landmark"},"sourceId":"osm"},{"id":"osm:node:10280261630","latitude":51.5822138,"longitude":-0.1994531,"name":"Bridge Lane near Finchley Road","properties":{"access":"unknown","bicycle_pa":"stands","capacity":4,"covered":"","fee":"","operator":"","nameSource":"junction"},"sourceId":"osm"},{"id":"osm:node:10280261631","latitude":51.5821848,"longitude":-0.1993251,"name":"Bridge Lane near Finchley Road","properties":{"access":"unknown","bicycle_pa":"stands","capacity":4,"covered":"","fee":"","operator":"","nameSource":"junction"},"sourceId":"osm"},{"id":"osm:node:10280261632","latitude":51.5884255,"longitude":-0.2283337,"name":"The Burroughs near Egerton Gardens","properties":{"access":"unknown","bicycle_pa":"stands","capacity":2,"covered":"","fee":"","operator":"","nameSource":"junction"},"sourceId":"osm"},{"id":"osm:node:10280261714","latitude":51.5792261,"longitude":-0.1980501,"name":"Alyth Gardens near Finchley Road","properties":{"access":"unknown","bicycle_pa":"stands","capacity":4,"covered":"","fee":"","operator":"","nameSource":"junction"},"sourceId":"osm"},{"id":"osm:node:10280261763","latitude":51.5977055,"longitude":-0.192027,"name":"The Avenue near Sylvan Avenue","properties":{"access":"unknown","bicycle_pa":"stands","capacity":6,"covered":"","fee":"","operator":"","nameSource":"junction"},"sourceId":"osm"},{"id":"osm:node:10280261764","latitude":51.5932855,"longitude":-0.189357,"name":"Basing Way near Eger Close","properties":{"access":"private","bicycle_pa":"shed","capacity":6,"covered":"yes","fee":"","operator":"Cyclehoop Rentals","nameSource":"junction"},"sourceId":"osm"},{"id":"osm:node:10280261768","latitude":51.57349,"longitude":-0.200291,"name":"Golders Green Road near Armitage Road","properties":{"access":"unknown","bicycle_pa":"stands","capacity":4,"covered":"no","fee":"","operator":"","nameSource":"junction"},"sourceId":"osm"},{"id":"osm:node:10280261769","latitude":51.573375,"longitude":-0.1998119,"name":"Golders Green Road near Armitage Road","properties":{"access":"unknown","bicycle_pa":"stands","capacity":6,"covered":"no","fee":"","operator":"","nameSource":"junction"},"sourceId":"osm"},{"id":"osm:node:10280261912","latitude":51.5881941,"longitude":-0.2285142,"name":"The Burroughs near Egerton Gardens","properties":{"access":"unknown","bicycle_pa":"stands","capacity":12,"covered":"","fee":"","operator":"","nameSource":"junction"},"sourceId":"osm"},{"id":"osm:node:10280261944","latitude":51.5937734,"longitude":-0.1886521,"name":"Basing Way near Moat Crescent","properties":{"access":"private","bicycle_pa":"shed","capacity":6,"covered":"yes","fee":"","operator":"Cyclehoop Rentals","nameSource":"junction"},"sourceId":"osm"},{"id":"osm:node:10280261945","latitude":51.5936723,"longitude":-0.188559,"name":"Basing Way near Moat Crescent","properties":{"access":"private","bicycle_pa":"shed","capacity":6,"covered":"yes","fee":"","operator":"Cyclehoop Rentals","nameSource":"junction"},"sourceId":"osm"},{"id":"osm:node:10280261946","latitude":51.5966355,"longitude":-0.1921201,"name":"East End Road near Holmwood Gardens","properties":{"access":"unknown","bicycle_pa":"stands","capacity":8,"covered":"","fee":"","operator":"","nameSource":"junction"},"sourceId":"osm"},{"id":"osm:node:10280262729","latitude":51.5759323,"longitude":-0.2049042,"name":"Golders Green Road near Sneath Avenue","properties":{"access":"unknown","bicycle_pa":"stands","capacity":10,"covered":"yes","fee":"","operator":"","nameSource":"junction"},"sourceId":"osm"},{"id":"osm:node:10280264513","latitude":51.5933221,"longitude":-0.189934,"name":"Basing Way near Eger Close","properties":{"access":"private","bicycle_pa":"shed","capacity":6,"covered":"yes","fee":"","operator":"Cyclehoop Rentals","nameSource":"junction"},"sourceId":"osm"},{"id":"osm:node:10280268821","latitude":51.5674147,"longitude":-0.2171476,"name":"Swannell Way cycle parking","properties":{"access":"unknown","bicycle_pa":"two-tier","capacity":14,"covered":"yes","fee":"","operator":"","nameSource":"street"},"sourceId":"osm"},{"id":"osm:node:10280269137","latitude":51.5933275,"longitude":-0.1899425,"name":"Basing Way near Eger Close","properties":{"access":"private","bicycle_pa":"shed","capacity":6,"covered":"yes","fee":"","operator":"Cyclehoop Rentals","nameSource":"junction"},"sourceId":"osm"},{"id":"osm:node:10280269138","latitude":51.597255,"longitude":-0.1920631,"name":"The Avenue by Kiosk","properties":{"access":"unknown","bicycle_pa":"stands","capacity":4,"covered":"","fee":"","operator":"","nameSource":"landmark"},"sourceId":"osm"},{"id":"osm:node:10280269139","latitude":51.5939036,"longitude":-0.1877645,"name":"Basing Way cycle parking","properties":{"access":"private","bicycle_pa":"shed","capacity":6,"covered":"yes","fee":"","operator":"Cyclehoop Rentals","nameSource":"street"},"sourceId":"osm"},{"id":"osm:node:10280269975","latitude":51.5951395,"longitude":-0.1988457,"name":"North Crescent near Regent's Park Road","properties":{"access":"unknown","bicycle_pa":"stands","capacity":2,"covered":"no","fee":"","operator":"","nameSource":"junction"},"sourceId":"osm"},{"id":"osm:node:10280269976","latitude":51.5951626,"longitude":-0.1988316,"name":"North Crescent near Regent's Park Road","properties":{"access":"unknown","bicycle_pa":"stands","capacity":2,"covered":"no","fee":"","operator":"","nameSource":"junction"},"sourceId":"osm"},{"id":"osm:node:10280270570","latitude":51.5928747,"longitude":-0.2587964,"name":"A5 near Annesley Avenue","properties":{"access":"unknown","bicycle_pa":"","capacity":16,"covered":"","fee":"","operator":"","nameSource":"junction"},"sourceId":"osm"},{"id":"osm:node:10280270629","latitude":51.5966991,"longitude":-0.1946327,"name":"East End Road near Templars Crescent","properties":{"access":"customers","bicycle_pa":"stands","capacity":8,"covered":"no","fee":"","operator":"","nameSource":"junction"},"sourceId":"osm"},{"id":"osm:node:10280270713","latitude":51.5655782,"longitude":-0.2022016,"name":"Nant Road near Granville Road","properties":{"access":"private","bicycle_pa":"shed","capacity":6,"covered":"yes","fee":"","operator":"Cyclehoop Rentals","nameSource":"junction"},"sourceId":"osm"},{"id":"osm:node:10280272945","latitude":51.5649303,"longitude":-0.263198,"name":"Old Church Lane near Blackbird Hill","properties":{"access":"unknown","bicycle_pa":"stands","capacity":2,"covered":"","fee":"","operator":"","nameSource":"junction"},"sourceId":"osm"},{"id":"osm:node:10280272947","latitude":51.5644552,"longitude":-0.2623901,"name":"Blackbird Hill near Barnhill Road","properties":{"access":"unknown","bicycle_pa":"stands","capacity":2,"covered":"","fee":"","operator":"","nameSource":"junction"},"sourceId":"osm"},{"id":"osm:node:10280272952","latitude":51.6151832,"longitude":-0.1907825,"name":"Lullington Garth near Argyle Road","properties":{"access":"unknown","bicycle_pa":"stands","capacity":2,"covered":"no","fee":"","operator":"","nameSource":"junction"},"sourceId":"osm"},{"id":"osm:node:10280272953","latitude":51.6095019,"longitude":-0.1888321,"name":"Nether Street near Huntly Drive","properties":{"access":"unknown","bicycle_pa":"stands","capacity":12,"covered":"","fee":"","operator":"","nameSource":"junction"},"sourceId":"osm"},{"id":"osm:node:10280273712","latitude":51.6134039,"longitude":-0.2487311,"name":"Brockenhurst Gardens near Station Road","properties":{"access":"unknown","bicycle_pa":"stands","capacity":7,"covered":"yes","fee":"","operator":"","nameSource":"junction"},"sourceId":"osm"},{"id":"osm:node:10280273716","latitude":51.5952045,"longitude":-0.2605367,"name":"The Hyde near Capitol Way","properties":{"access":"unknown","bicycle_pa":"stands","capacity":8,"covered":"","fee":"","operator":"","nameSource":"junction"},"sourceId":"osm"},{"id":"osm:node:10280275856","latitude":51.6134099,"longitude":-0.2487879,"name":"M1 by Çoban's Grill","properties":{"access":"unknown","bicycle_pa":"stands","capacity":14,"covered":"yes","fee":"","operator":"","nameSource":"landmark"},"sourceId":"osm"},{"id":"osm:node:10280275857","latitude":51.6134256,"longitude":-0.2488063,"name":"M1 by Çoban's Grill","properties":{"access":"unknown","bicycle_pa":"two-tier","capacity":31,"covered":"yes","fee":"","operator":"","nameSource":"landmark"},"sourceId":"osm"},{"id":"osm:node:10280275858","latitude":51.6133918,"longitude":-0.248779,"name":"M1 by Çoban's Grill","properties":{"access":"unknown","bicycle_pa":"stands","capacity":16,"covered":"yes","fee":"","operator":"","nameSource":"landmark"},"sourceId":"osm"},{"id":"osm:node:10280275859","latitude":51.6134139,"longitude":-0.2487467,"name":"M1 by Çoban's Grill","properties":{"access":"unknown","bicycle_pa":"two-tier","capacity":8,"covered":"yes","fee":"","operator":"","nameSource":"landmark"},"sourceId":"osm"},{"id":"osm:node:10280275860","latitude":51.6134282,"longitude":-0.2487575,"name":"M1 by Çoban's Grill","properties":{"access":"unknown","bicycle_pa":"two-tier","capacity":8,"covered":"yes","fee":"","operator":"","nameSource":"landmark"},"sourceId":"osm"},{"id":"osm:node:10280277474","latitude":51.564656,"longitude":-0.2012485,"name":"Granville Road cycle parking","properties":{"access":"private","bicycle_pa":"shed","capacity":6,"covered":"yes","fee":"","operator":"Cyclehoop Rentals","nameSource":"street"},"sourceId":"osm"},{"id":"osm:node:10280277475","latitude":51.5642981,"longitude":-0.2008529,"name":"Granville Road cycle parking","properties":{"access":"private","bicycle_pa":"shed","capacity":6,"covered":"yes","fee":"","operator":"Cyclehoop Rentals","nameSource":"street"},"sourceId":"osm"},{"id":"osm:node:10280277704","latitude":51.5928195,"longitude":-0.2587324,"name":"A5 near Annesley Avenue","properties":{"access":"unknown","bicycle_pa":"","capacity":14,"covered":"","fee":"","operator":"","nameSource":"junction"},"sourceId":"osm"},{"id":"osm:node:10280277705","latitude":51.5929418,"longitude":-0.2588736,"name":"A5 near Annesley Avenue","properties":{"access":"unknown","bicycle_pa":"","capacity":14,"covered":"","fee":"","operator":"","nameSource":"junction"},"sourceId":"osm"},{"id":"osm:node:10280278812","latitude":51.5736563,"longitude":-0.2152753,"name":"Marble Drive near Pearl Close","properties":{"access":"unknown","bicycle_pa":"stands","capacity":4,"covered":"no","fee":"","operator":"","nameSource":"junction"},"sourceId":"osm"},{"id":"osm:node:10280281635","latitude":51.5951768,"longitude":-0.260598,"name":"The Hyde near Capitol Way","properties":{"access":"unknown","bicycle_pa":"stands","capacity":8,"covered":"","fee":"","operator":"","nameSource":"junction"},"sourceId":"osm"},{"id":"osm:node:10280281636","latitude":51.5932616,"longitude":-0.2582985,"name":"Annesley Avenue near Mannock Close","properties":{"access":"unknown","bicycle_pa":"stands","capacity":8,"covered":"","fee":"","operator":"","nameSource":"junction"},"sourceId":"osm"},{"id":"osm:node:10280285437","latitude":51.5650366,"longitude":-0.263483,"name":"Blackbird Hill near Old Church Lane","properties":{"access":"unknown","bicycle_pa":"stands","capacity":6,"covered":"","fee":"","operator":"","nameSource":"junction"},"sourceId":"osm"},{"id":"osm:node:10280285604","latitude":51.5648116,"longitude":-0.263129,"name":"Blackbird Hill near Old Church Lane","properties":{"access":"unknown","bicycle_pa":"stands","capacity":2,"covered":"","fee":"","operator":"","nameSource":"junction"},"sourceId":"osm"},{"id":"osm:node:10280285606","latitude":51.6150733,"longitude":-0.1908119,"name":"Lullington Garth near Argyle Road","properties":{"access":"unknown","bicycle_pa":"stands","capacity":2,"covered":"no","fee":"","operator":"","nameSource":"junction"},"sourceId":"osm"},{"id":"osm:node:10280285621","latitude":51.6151954,"longitude":-0.190819,"name":"Lullington Garth near Argyle Road","properties":{"access":"unknown","bicycle_pa":"stands","capacity":2,"covered":"no","fee":"","operator":"","nameSource":"junction"},"sourceId":"osm"},{"id":"osm:node:10280288919","latitude":51.6150877,"longitude":-0.1908793,"name":"Lullington Garth near Argyle Road","properties":{"access":"unknown","bicycle_pa":"stands","capacity":2,"covered":"no","fee":"","operator":"","nameSource":"junction"},"sourceId":"osm"},{"id":"osm:node:10280288920","latitude":51.6151427,"longitude":-0.1910568,"name":"Lullington Garth near Argyle Road","properties":{"access":"unknown","bicycle_pa":"stands","capacity":2,"covered":"no","fee":"","operator":"","nameSource":"junction"},"sourceId":"osm"},{"id":"osm:node:10280294709","latitude":51.5973737,"longitude":-0.1976968,"name":"Spencer Courtyard near Regent's Park Road","properties":{"access":"unknown","bicycle_pa":"stands","capacity":4,"covered":"","fee":"","operator":"","nameSource":"junction"},"sourceId":"osm"},{"id":"osm:node:10280294710","latitude":51.5965496,"longitude":-0.1981872,"name":"Regent's Park Road near Cyprus Road","properties":{"access":"unknown","bicycle_pa":"stands","capacity":4,"covered":"no","fee":"","operator":"","nameSource":"junction"},"sourceId":"osm"},{"id":"osm:node:10280294711","latitude":51.596252,"longitude":-0.1983,"name":"Regent's Park Road near Cyprus Road","properties":{"access":"unknown","bicycle_pa":"stands","capacity":4,"covered":"no","fee":"","operator":"","nameSource":"junction"},"sourceId":"osm"},{"id":"osm:node:10280297150","latitude":51.5768215,"longitude":-0.2255913,"name":"Prince Charles Drive cycle parking","properties":{"access":"unknown","bicycle_pa":"upright_stands","capacity":6,"covered":"yes","fee":"","operator":"","nameSource":"street"},"sourceId":"osm"},{"id":"osm:node:10280297151","latitude":51.5723664,"longitude":-0.2253307,"name":"Tilling Road by Next","properties":{"access":"unknown","bicycle_pa":"stands","capacity":20,"covered":"no","fee":"","operator":"","nameSource":"landmark"},"sourceId":"osm"},{"id":"osm:node:10281975210","latitude":51.603045,"longitude":-0.1915394,"name":"Ballards Lane near Redbourne Avenue","properties":{"access":"unknown","bicycle_pa":"stands","capacity":4,"covered":"no","fee":"","operator":"","nameSource":"junction"},"sourceId":"osm"},{"id":"osm:node:10281975211","latitude":51.6046999,"longitude":-0.1885952,"name":"Long Lane near Ballards Lane","properties":{"access":"unknown","bicycle_pa":"stands","capacity":4,"covered":"no","fee":"","operator":"","nameSource":"junction"},"sourceId":"osm"},{"id":"osm:node:10281997709","latitude":51.6028669,"longitude":-0.1917905,"name":"Ballards Lane near Redbourne Avenue","properties":{"access":"unknown","bicycle_pa":"stands","capacity":4,"covered":"no","fee":"","operator":"","nameSource":"junction"},"sourceId":"osm"},{"id":"osm:node:10281997710","latitude":51.603656,"longitude":-0.1905247,"name":"The Grove near Ballards Lane","properties":{"access":"unknown","bicycle_pa":"stands","capacity":4,"covered":"no","fee":"","operator":"","nameSource":"junction"},"sourceId":"osm"},{"id":"osm:node:10281997772","latitude":51.6161742,"longitude":-0.260407,"name":"Deans Lane near Dean's Drive","properties":{"access":"unknown","bicycle_pa":"stands","capacity":4,"covered":"","fee":"","operator":"","nameSource":"junction"},"sourceId":"osm"},{"id":"osm:node:10281997773","latitude":51.6168432,"longitude":-0.2604459,"name":"Hale Lane near Deans Lane","properties":{"access":"unknown","bicycle_pa":"stands","capacity":4,"covered":"","fee":"","operator":"","nameSource":"junction"},"sourceId":"osm"},{"id":"osm:node:10281997774","latitude":51.6168854,"longitude":-0.2609997,"name":"Hale Lane near Greencroft","properties":{"access":"unknown","bicycle_pa":"stands","capacity":4,"covered":"no","fee":"","operator":"","nameSource":"junction"},"sourceId":"osm"},{"id":"osm:node:10281997809","latitude":51.6045187,"longitude":-0.1886574,"name":"Long Lane near Ballards Lane","properties":{"access":"unknown","bicycle_pa":"stands","capacity":2,"covered":"no","fee":"","operator":"","nameSource":"junction"},"sourceId":"osm"},{"id":"osm:node:10281998317","latitude":51.6163919,"longitude":-0.2604887,"name":"Deans Lane near Dean's Drive","properties":{"access":"unknown","bicycle_pa":"stands","capacity":4,"covered":"","fee":"","operator":"","nameSource":"junction"},"sourceId":"osm"},{"id":"osm:node:10281998318","latitude":51.6167939,"longitude":-0.259954,"name":"Deans Lane near Hale Lane","properties":{"access":"unknown","bicycle_pa":"stands","capacity":4,"covered":"no","fee":"","operator":"","nameSource":"junction"},"sourceId":"osm"},{"id":"osm:node:10281998418","latitude":51.5722801,"longitude":-0.1947634,"name":"Finchley Road near North End Road","properties":{"access":"unknown","bicycle_pa":"stands","capacity":8,"covered":"yes","fee":"","operator":"","nameSource":"junction"},"sourceId":"osm"},{"id":"osm:node:10281998942","latitude":51.5719384,"longitude":-0.1964965,"name":"Golders Green Crescent near Golders Green Road","properties":{"access":"unknown","bicycle_pa":"stands","capacity":4,"covered":"no","fee":"","operator":"","nameSource":"junction"},"sourceId":"osm"},{"id":"osm:node:10282005120","latitude":51.5720283,"longitude":-0.1968919,"name":"Golders Green Road near Hodford Road","properties":{"access":"unknown","bicycle_pa":"stands","capacity":4,"covered":"no","fee":"","operator":"","nameSource":"junction"},"sourceId":"osm"},{"id":"osm:node:10282005121","latitude":51.5726918,"longitude":-0.1955439,"name":"Finchley Road near Rotherwick Road","properties":{"access":"unknown","bicycle_pa":"stands","capacity":26,"covered":"yes","fee":"","operator":"","nameSource":"junction"},"sourceId":"osm"},{"id":"osm:node:10282006223","latitude":51.587955,"longitude":-0.2518335,"name":"Edgware Road near Wakemans Hill Avenue","properties":{"access":"unknown","bicycle_pa":"stands","capacity":4,"covered":"","fee":"","operator":"","nameSource":"junction"},"sourceId":"osm"},{"id":"osm:node:10282006236","latitude":51.6027773,"longitude":-0.2497396,"name":"Clayton Field near Acklington Drive","properties":{"access":"unknown","bicycle_pa":"stands","capacity":10,"covered":"","fee":"","operator":"","nameSource":"junction"},"sourceId":"osm"},{"id":"osm:node:10282006419","latitude":51.5863191,"longitude":-0.1832038,"name":"Hill Rise near Market Place","properties":{"access":"unknown","bicycle_pa":"stands","capacity":4,"covered":"","fee":"","operator":"","nameSource":"junction"},"sourceId":"osm"},{"id":"osm:node:10282006430","latitude":51.5988,"longitude":-0.2258352,"name":"Sunny Gardens Road near Great North Way","properties":{"access":"unknown","bicycle_pa":"stands","capacity":6,"covered":"","fee":"","operator":"","nameSource":"junction"},"sourceId":"osm"},{"id":"osm:node:10282006528","latitude":51.6023168,"longitude":-0.2356511,"name":"Page Street near Watford Way","properties":{"access":"unknown","bicycle_pa":"stands","capacity":4,"covered":"","fee":"","operator":"","nameSource":"junction"},"sourceId":"osm"},{"id":"osm:node:10282007441","latitude":51.6180016,"longitude":-0.1857069,"name":"Station Approach near Station Close","properties":{"access":"unknown","bicycle_pa":"stands","capacity":4,"covered":"","fee":"","operator":"","nameSource":"junction"},"sourceId":"osm"},{"id":"osm:node:10282007528","latitude":51.5824643,"longitude":-0.2309012,"name":"Rundell Crescent near Foscote Road","properties":{"access":"unknown","bicycle_pa":"stands","capacity":6,"covered":"","fee":"","operator":"","nameSource":"junction"},"sourceId":"osm"},{"id":"osm:node:10282007529","latitude":51.5826985,"longitude":-0.2284692,"name":"Alderton Crescent near Allington Road","properties":{"access":"unknown","bicycle_pa":"stands","capacity":4,"covered":"","fee":"","operator":"","nameSource":"junction"},"sourceId":"osm"},{"id":"osm:node:10282007530","latitude":51.5810127,"longitude":-0.2223481,"name":"Cheyne Walk cycle parking","properties":{"access":"unknown","bicycle_pa":"","capacity":4,"covered":"","fee":"","operator":"","nameSource":"street"},"sourceId":"osm"},{"id":"osm:node:10282007776","latitude":51.582463,"longitude":-0.2296538,"name":"Crespigny Road near Vivian Avenue","properties":{"access":"unknown","bicycle_pa":"stands","capacity":4,"covered":"","fee":"","operator":"","nameSource":"junction"},"sourceId":"osm"},{"id":"osm:node:10282007890","latitude":51.5788086,"longitude":-0.2628943,"name":"Church Lane near Slough Lane","properties":{"access":"unknown","bicycle_pa":"stands","capacity":4,"covered":"","fee":"","operator":"","nameSource":"junction"},"sourceId":"osm"},{"id":"osm:node:10282007894","latitude":51.5783026,"longitude":-0.2075226,"name":"Alba Gardens near Golders Green Road","properties":{"access":"unknown","bicycle_pa":"stands","capacity":4,"covered":"","fee":"","operator":"","nameSource":"junction"},"sourceId":"osm"},{"id":"osm:node:10282008839","latitude":51.5800769,"longitude":-0.2385693,"name":"Station Road near Algernon Road","properties":{"access":"unknown","bicycle_pa":"stands","capacity":16,"covered":"","fee":"","operator":"","nameSource":"junction"},"sourceId":"osm"},{"id":"osm:node:10282010483","latitude":51.5783474,"longitude":-0.2078359,"name":"Alba Gardens near Golders Green Road","properties":{"access":"unknown","bicycle_pa":"stands","capacity":4,"covered":"no","fee":"","operator":"","nameSource":"junction"},"sourceId":"osm"},{"id":"osm:node:10282015754","latitude":51.5868933,"longitude":-0.2508302,"name":"Edgware Road near Woodfield Avenue","properties":{"access":"unknown","bicycle_pa":"stands","capacity":10,"covered":"","fee":"","operator":"","nameSource":"junction"},"sourceId":"osm"},{"id":"osm:node:10282024123","latitude":51.5690847,"longitude":-0.2292906,"name":"Geron Way near Edgware Road","properties":{"access":"unknown","bicycle_pa":"stands","capacity":8,"covered":"","fee":"","operator":"","nameSource":"junction"},"sourceId":"osm"},{"id":"osm:node:10282024124","latitude":51.5677407,"longitude":-0.2277172,"name":"Edgware Road near Humber Road","properties":{"access":"unknown","bicycle_pa":"stands","capacity":8,"covered":"no","fee":"no","operator":"","nameSource":"junction"},"sourceId":"osm"},{"id":"osm:node:10282027014","latitude":51.5694791,"longitude":-0.256768,"name":"Birchen Grove cycle parking","properties":{"access":"unknown","bicycle_pa":"stands","capacity":6,"covered":"no","fee":"","operator":"","nameSource":"street"},"sourceId":"osm"},{"id":"osm:node:10282027023","latitude":51.5924315,"longitude":-0.234006,"name":"Greyhound Hill near Watford Way","properties":{"access":"unknown","bicycle_pa":"stands","capacity":4,"covered":"","fee":"","operator":"","nameSource":"junction"},"sourceId":"osm"},{"id":"osm:node:10282034409","latitude":51.5919979,"longitude":-0.257203,"name":"Colindale Avenue near The Hyde","properties":{"access":"unknown","bicycle_pa":"stands","capacity":4,"covered":"","fee":"","operator":"","nameSource":"junction"},"sourceId":"osm"},{"id":"osm:node:10655298328","latitude":51.5758216,"longitude":-0.2408741,"name":"Shearwater Drive near Sorrel Mead","properties":{"access":"unknown","bicycle_pa":"stands","capacity":4,"covered":"no","fee":"no","operator":"","nameSource":"junction"},"sourceId":"osm"},{"id":"osm:node:10655298329","latitude":51.5756809,"longitude":-0.2408617,"name":"Shearwater Drive near Sorrel Mead","properties":{"access":"unknown","bicycle_pa":"stands","capacity":4,"covered":"no","fee":"no","operator":"","nameSource":"junction"},"sourceId":"osm"},{"id":"osm:node:10655298330","latitude":51.5757458,"longitude":-0.2410581,"name":"Shearwater Drive near Sorrel Mead","properties":{"access":"unknown","bicycle_pa":"stands","capacity":12,"covered":"no","fee":"no","operator":"","nameSource":"junction"},"sourceId":"osm"},{"id":"osm:node:10655363140","latitude":51.5765947,"longitude":-0.239074,"name":"Stanley Road near Sorrel Mead","properties":{"access":"unknown","bicycle_pa":"stands","capacity":8,"covered":"no","fee":"","operator":"","nameSource":"junction"},"sourceId":"osm"},{"id":"osm:node:10655398609","latitude":51.5776417,"longitude":-0.2406918,"name":"Damsel Walk near Perryfield Way","properties":{"access":"unknown","bicycle_pa":"stands","capacity":6,"covered":"","fee":"","operator":"","nameSource":"junction"},"sourceId":"osm"},{"id":"osm:node:10655398610","latitude":51.5777265,"longitude":-0.2405036,"name":"Damsel Walk near West Hendon Broadway","properties":{"access":"unknown","bicycle_pa":"stands","capacity":4,"covered":"","fee":"","operator":"","nameSource":"junction"},"sourceId":"osm"},{"id":"osm:node:10655398611","latitude":51.5778032,"longitude":-0.2403236,"name":"Damsel Walk near West Hendon Broadway","properties":{"access":"unknown","bicycle_pa":"stands","capacity":4,"covered":"","fee":"","operator":"","nameSource":"junction"},"sourceId":"osm"},{"id":"osm:node:10655398612","latitude":51.5778199,"longitude":-0.240283,"name":"Damsel Walk near West Hendon Broadway","properties":{"access":"unknown","bicycle_pa":"stands","capacity":4,"covered":"","fee":"","operator":"","nameSource":"junction"},"sourceId":"osm"},{"id":"osm:node:10736980370","latitude":51.5857483,"longitude":-0.1806325,"name":"Lyttleton Road near Ossulton Way","properties":{"access":"unknown","bicycle_pa":"stands","capacity":10,"covered":"","fee":"","operator":"","nameSource":"junction"},"sourceId":"osm"},{"id":"osm:node:10780450558","latitude":51.5691555,"longitude":-0.2225219,"name":"Brent Terrace cycle parking","properties":{"access":"yes","bicycle_pa":"stands","capacity":10,"covered":"no","fee":"no","operator":"","nameSource":"street"},"sourceId":"osm"},{"id":"osm:node:10832100821","latitude":51.5997061,"longitude":-0.1973117,"name":"Hendon Lane near College Terrace","properties":{"access":"unknown","bicycle_pa":"stands","capacity":10,"covered":"no","fee":"","operator":"","nameSource":"junction"},"sourceId":"osm"},{"id":"osm:node:10969651218","latitude":51.5910268,"longitude":-0.257882,"name":"Windover Avenue by B&M","properties":{"access":"unknown","bicycle_pa":"stands","capacity":8,"covered":"no","fee":"","operator":"","nameSource":"landmark"},"sourceId":"osm"},{"id":"osm:node:11035847002","latitude":51.6053181,"longitude":-0.1848669,"name":"The Ridgeway by Victoria Park","properties":{"access":"unknown","bicycle_pa":"stands","capacity":4,"covered":"no","fee":"","operator":"","nameSource":"landmark"},"sourceId":"osm"},{"id":"osm:node:11063156212","latitude":51.6073093,"longitude":-0.1852052,"name":"Ballards Lane near Essex Park","properties":{"access":"yes","bicycle_pa":"stands","capacity":4,"covered":"no","fee":"","operator":"","nameSource":"junction"},"sourceId":"osm"},{"id":"osm:node:11171706605","latitude":51.5959269,"longitude":-0.2468452,"name":"Sanday Drive cycle parking","properties":{"access":"unknown","bicycle_pa":"stands","capacity":28,"covered":"yes","fee":"no","operator":"","nameSource":"street"},"sourceId":"osm"},{"id":"osm:node:11171779718","latitude":51.5940964,"longitude":-0.2475798,"name":"Lundy Close near Sanday Drive","properties":{"access":"unknown","bicycle_pa":"stands","capacity":14,"covered":"yes","fee":"no","operator":"","nameSource":"junction"},"sourceId":"osm"},{"id":"osm:node:11171784585","latitude":51.5956357,"longitude":-0.2487211,"name":"Aerial Square near Colindale Avenue","properties":{"access":"unknown","bicycle_pa":"stands","capacity":10,"covered":"no","fee":"no","operator":"","nameSource":"junction"},"sourceId":"osm"},{"id":"osm:node:11171784590","latitude":51.5940576,"longitude":-0.2474283,"name":"Lundy Close near Sanday Drive","properties":{"access":"unknown","bicycle_pa":"stands","capacity":8,"covered":"no","fee":"no","operator":"","nameSource":"junction"},"sourceId":"osm"},{"id":"osm:node:11171784591","latitude":51.593337,"longitude":-0.2463454,"name":"Bute Close near Hoy Close","properties":{"access":"unknown","bicycle_pa":"stands","capacity":8,"covered":"no","fee":"no","operator":"","nameSource":"junction"},"sourceId":"osm"},{"id":"osm:node:11171784592","latitude":51.5932808,"longitude":-0.2458622,"name":"Bute Close near Hoy Close","properties":{"access":"unknown","bicycle_pa":"stands","capacity":6,"covered":"no","fee":"no","operator":"","nameSource":"junction"},"sourceId":"osm"},{"id":"osm:node:11171784596","latitude":51.5950158,"longitude":-0.2487584,"name":"Aerial Square near Sanday Drive","properties":{"access":"unknown","bicycle_pa":"stands","capacity":12,"covered":"yes","fee":"no","operator":"","nameSource":"junction"},"sourceId":"osm"},{"id":"osm:node:11171784598","latitude":51.5959338,"longitude":-0.2480757,"name":"Colindale Avenue near Booth Road","properties":{"access":"unknown","bicycle_pa":"stands","capacity":8,"covered":"no","fee":"no","operator":"","nameSource":"junction"},"sourceId":"osm"},{"id":"osm:node:11171784602","latitude":51.5960809,"longitude":-0.2477088,"name":"Colindale Avenue near Booth Road","properties":{"access":"unknown","bicycle_pa":"stands","capacity":20,"covered":"no","fee":"no","operator":"","nameSource":"junction"},"sourceId":"osm"},{"id":"osm:node:11618861558","latitude":51.5693098,"longitude":-0.2257605,"name":"Brent Cross West cycle parking","properties":{"access":"yes","bicycle_pa":"shed","capacity":0,"covered":"yes","fee":"","operator":"","nameSource":"landmark"},"sourceId":"osm"},{"id":"osm:node:11867544915","latitude":51.5816622,"longitude":-0.24447,"name":"The Hyde cycle parking","properties":{"access":"unknown","bicycle_pa":"stands","capacity":12,"covered":"no","fee":"","operator":"","nameSource":"street"},"sourceId":"osm"},{"id":"osm:node:11867572000","latitude":51.5815035,"longitude":-0.2451404,"name":"The Hyde cycle parking","properties":{"access":"private","bicycle_pa":"rack","capacity":0,"covered":"yes","fee":"","operator":"","nameSource":"street"},"sourceId":"osm"},{"id":"osm:node:11884111496","latitude":51.5713208,"longitude":-0.2198755,"name":"Claremont Way near Choral Street","properties":{"access":"yes","bicycle_pa":"stands","capacity":6,"covered":"no","fee":"","operator":"","nameSource":"junction"},"sourceId":"osm"},{"id":"osm:node:11947787038","latitude":51.6014542,"longitude":-0.2089696,"name":"Hawthorn Mews near Holders Hill Road","properties":{"access":"unknown","bicycle_pa":"stands","capacity":6,"covered":"no","fee":"no","operator":"","nameSource":"junction"},"sourceId":"osm"},{"id":"osm:node:11947939044","latitude":51.6058502,"longitude":-0.2079314,"name":"Brittacy Hill near New Road","properties":{"access":"unknown","bicycle_pa":"stands","capacity":8,"covered":"no","fee":"no","operator":"","nameSource":"junction"},"sourceId":"osm"},{"id":"osm:node:11947944499","latitude":51.6087841,"longitude":-0.2097804,"name":"Brittacy Hill near Bittacy Business Centre","properties":{"access":"unknown","bicycle_pa":"stands","capacity":8,"covered":"no","fee":"no","operator":"","nameSource":"junction"},"sourceId":"osm"},{"id":"osm:node:11947944711","latitude":51.6091179,"longitude":-0.2103104,"name":"Brittacy Hill near Royal Engineers Way","properties":{"access":"unknown","bicycle_pa":"stands","capacity":10,"covered":"no","fee":"no","operator":"","nameSource":"junction"},"sourceId":"osm"},{"id":"osm:node:12029271769","latitude":51.5882748,"longitude":-0.2215507,"name":"Brent Street near Chapel Walk","properties":{"access":"yes","bicycle_pa":"stands","capacity":6,"covered":"no","fee":"no","operator":"","nameSource":"junction"},"sourceId":"osm"},{"id":"osm:node:12029290018","latitude":51.575295,"longitude":-0.2135051,"name":"Hamilton Road near Woodville Gardens","properties":{"access":"yes","bicycle_pa":"stands","capacity":4,"covered":"no","fee":"no","operator":"","nameSource":"junction"},"sourceId":"osm"},{"id":"osm:node:12029433608","latitude":51.5931438,"longitude":-0.1788396,"name":"Hamilton Road near Benedict Way","properties":{"access":"unknown","bicycle_pa":"shed","capacity":0,"covered":"yes","fee":"yes","operator":"LBBarnet","nameSource":"junction"},"sourceId":"osm"},{"id":"osm:node:12029440433","latitude":51.5932916,"longitude":-0.1759474,"name":"Manor Park Road near Sedgemere Avenue","properties":{"access":"unknown","bicycle_pa":"shed","capacity":6,"covered":"yes","fee":"yes","operator":"LBBarnet","nameSource":"junction"},"sourceId":"osm"},{"id":"osm:node:12029444957","latitude":51.5926842,"longitude":-0.1797356,"name":"Hamilton Road near Cecilia Close","properties":{"access":"unknown","bicycle_pa":"shed","capacity":6,"covered":"yes","fee":"yes","operator":"LBBarnet","nameSource":"junction"},"sourceId":"osm"},{"id":"osm:node:12207081725","latitude":51.5713118,"longitude":-0.2195249,"name":"Claremont Way near Claremont Road","properties":{"access":"yes","bicycle_pa":"stands","capacity":8,"covered":"no","fee":"no","operator":"","nameSource":"junction"},"sourceId":"osm"},{"id":"osm:node:12368040474","latitude":51.5825472,"longitude":-0.2267728,"name":"Hendon Way near Central Circus","properties":{"access":"unknown","bicycle_pa":"","capacity":4,"covered":"","fee":"","operator":"","nameSource":"junction"},"sourceId":"osm"},{"id":"osm:node:13363967438","latitude":51.5684315,"longitude":-0.2271527,"name":"Geron Way by Decathlon","properties":{"access":"yes","bicycle_pa":"stands","capacity":30,"covered":"yes","fee":"no","operator":"","nameSource":"landmark"},"sourceId":"osm"},{"id":"osm:node:13894857162","latitude":51.5859985,"longitude":-0.1829417,"name":"Falloden Way near Hill Rise","properties":{"access":"unknown","bicycle_pa":"stands","capacity":4,"covered":"","fee":"","operator":"","nameSource":"junction"},"sourceId":"osm"},{"id":"osm:node:1435921837","latitude":51.6179924,"longitude":-0.1766062,"name":"Avenue Road near High Road","properties":{"access":"unknown","bicycle_pa":"stands","capacity":2,"covered":"no","fee":"","operator":"","nameSource":"junction"},"sourceId":"osm"},{"id":"osm:node:1670987930","latitude":51.6112693,"longitude":-0.1771364,"name":"Rosemont Avenue cycle parking","properties":{"access":"unknown","bicycle_pa":"","capacity":20,"covered":"no","fee":"","operator":"","nameSource":"street"},"sourceId":"osm"},{"id":"osm:node:2358967375","latitude":51.6164815,"longitude":-0.1768555,"name":"Lodge Lane near High Road","properties":{"access":"unknown","bicycle_pa":"stands","capacity":4,"covered":"no","fee":"","operator":"","nameSource":"junction"},"sourceId":"osm"},{"id":"osm:node:2358967390","latitude":51.6163815,"longitude":-0.176877,"name":"Lodge Lane near High Road","properties":{"access":"unknown","bicycle_pa":"stands","capacity":2,"covered":"no","fee":"","operator":"","nameSource":"junction"},"sourceId":"osm"},{"id":"osm:node:268226375","latitude":51.6143159,"longitude":-0.1766605,"name":"Ballards Lane near Tally Ho Corner","properties":{"access":"unknown","bicycle_pa":"","capacity":4,"covered":"","fee":"","operator":"","nameSource":"junction"},"sourceId":"osm"},{"id":"osm:node:268501757","latitude":51.6111736,"longitude":-0.1795606,"name":"Ballards Lane near Hutton Grove","properties":{"access":"unknown","bicycle_pa":"stands","capacity":8,"covered":"yes","fee":"","operator":"","nameSource":"junction"},"sourceId":"osm"},{"id":"osm:node:279371762","latitude":51.6022247,"longitude":-0.1926582,"name":"Ballards Lane near Hervey Close","properties":{"access":"unknown","bicycle_pa":"half-sheffield","capacity":12,"covered":"no","fee":"","operator":"","nameSource":"junction"},"sourceId":"osm"},{"id":"osm:node:284239869","latitude":51.6038624,"longitude":-0.1899014,"name":"Ballards Lane near Falkland Avenue","properties":{"access":"unknown","bicycle_pa":"stands","capacity":4,"covered":"no","fee":"","operator":"","nameSource":"junction"},"sourceId":"osm"},{"id":"osm:node:291187041","latitude":51.6132236,"longitude":-0.177024,"name":"Nether Street near Ballards Lane","properties":{"access":"unknown","bicycle_pa":"stands","capacity":8,"covered":"no","fee":"","operator":"","nameSource":"junction"},"sourceId":"osm"},{"id":"osm:node:3955397749","latitude":51.5891207,"longitude":-0.2298859,"name":"Grove Park cycle parking","properties":{"access":"unknown","bicycle_pa":"stands","capacity":3,"covered":"yes","fee":"","operator":"","nameSource":"landmark"},"sourceId":"osm"},{"id":"osm:node:4077414231","latitude":51.5683234,"longitude":-0.191385,"name":"West Heath Avenue near Golders Park Close","properties":{"access":"unknown","bicycle_pa":"","capacity":8,"covered":"","fee":"","operator":"","nameSource":"junction"},"sourceId":"osm"},{"id":"osm:node:4347080396","latitude":51.5776732,"longitude":-0.2396056,"name":"Perryfield Way near West Hendon Broadway","properties":{"access":"unknown","bicycle_pa":"stands","capacity":0,"covered":"","fee":"","operator":"","nameSource":"junction"},"sourceId":"osm"},{"id":"osm:node:4579937320","latitude":51.6132144,"longitude":-0.2485472,"name":"Station Road near Brockenhurst Gardens","properties":{"access":"yes","bicycle_pa":"anchors","capacity":20,"covered":"yes","fee":"no","operator":"","nameSource":"junction"},"sourceId":"osm"},{"id":"osm:node:4997949828","latitude":51.613123,"longitude":-0.1766343,"name":"Nether Street near Ballards Lane","properties":{"access":"unknown","bicycle_pa":"stands","capacity":0,"covered":"no","fee":"","operator":"","nameSource":"junction"},"sourceId":"osm"},{"id":"osm:node:4997949829","latitude":51.6174504,"longitude":-0.1769203,"name":"Woodside Park Road near High Road","properties":{"access":"unknown","bicycle_pa":"stands","capacity":2,"covered":"no","fee":"","operator":"","nameSource":"junction"},"sourceId":"osm"},{"id":"osm:node:4998011421","latitude":51.6166153,"longitude":-0.1766967,"name":"Torrington Park near High Road","properties":{"access":"unknown","bicycle_pa":"stands","capacity":2,"covered":"no","fee":"","operator":"","nameSource":"junction"},"sourceId":"osm"},{"id":"osm:node:5528087654","latitude":51.5928598,"longitude":-0.2425622,"name":"Lismore Boulevard near Thonrey Close","properties":{"access":"unknown","bicycle_pa":"stands","capacity":10,"covered":"","fee":"","operator":"","nameSource":"junction"},"sourceId":"osm"},{"id":"osm:node:5564444323","latitude":51.6012294,"longitude":-0.2090687,"name":"Holders Hill Road near Hawthorn Mews","properties":{"access":"unknown","bicycle_pa":"stands","capacity":3,"covered":"","fee":"","operator":"","nameSource":"junction"},"sourceId":"osm"},{"id":"osm:node:5762034736","latitude":51.6145378,"longitude":-0.2473569,"name":"The Broadway by Boots","properties":{"access":"yes","bicycle_pa":"stands","capacity":4,"covered":"no","fee":"","operator":"","nameSource":"landmark"},"sourceId":"osm"},{"id":"osm:node:6816780282","latitude":51.5902622,"longitude":-0.2279151,"name":"Scholars Courtyard by Scholars Courtyard","properties":{"access":"unknown","bicycle_pa":"","capacity":0,"covered":"yes","fee":"","operator":"","nameSource":"landmark"},"sourceId":"osm"},{"id":"osm:node:768187791","latitude":51.589217,"longitude":-0.2298584,"name":"Grove Park cycle parking","properties":{"access":"unknown","bicycle_pa":"stands","capacity":15,"covered":"yes","fee":"","operator":"","nameSource":"landmark"},"sourceId":"osm"},{"id":"osm:node:7686957885","latitude":51.5711631,"longitude":-0.195252,"name":"Finchley Road near Rodborough Road","properties":{"access":"unknown","bicycle_pa":"","capacity":0,"covered":"no","fee":"","operator":"","nameSource":"junction"},"sourceId":"osm"},{"id":"osm:node:7686957985","latitude":51.5720593,"longitude":-0.1956106,"name":"Finchley Road near Golders Green Road","properties":{"access":"unknown","bicycle_pa":"stands","capacity":0,"covered":"no","fee":"","operator":"","nameSource":"junction"},"sourceId":"osm"},{"id":"osm:node:7686958085","latitude":51.5705944,"longitude":-0.1951488,"name":"Finchley Road near Rodborough Road","properties":{"access":"unknown","bicycle_pa":"","capacity":0,"covered":"no","fee":"","operator":"","nameSource":"junction"},"sourceId":"osm"},{"id":"osm:node:7686958585","latitude":51.5715206,"longitude":-0.193643,"name":"North End Road near West Heath Drive","properties":{"access":"yes","bicycle_pa":"stands","capacity":6,"covered":"no","fee":"","operator":"","nameSource":"junction"},"sourceId":"osm"},{"id":"osm:node:7686958685","latitude":51.5714201,"longitude":-0.1937387,"name":"North End Road near West Heath Drive","properties":{"access":"unknown","bicycle_pa":"stands","capacity":6,"covered":"no","fee":"","operator":"","nameSource":"junction"},"sourceId":"osm"},{"id":"osm:node:7850068882","latitude":51.6059624,"longitude":-0.1771092,"name":"Bow Lane by Finchley Memorial Hospital","properties":{"access":"unknown","bicycle_pa":"stands","capacity":0,"covered":"","fee":"no","operator":"","nameSource":"landmark"},"sourceId":"osm"},{"id":"osm:node:7965873949","latitude":51.6132565,"longitude":-0.1775421,"name":"Nether Street near Regent Close","properties":{"access":"unknown","bicycle_pa":"stands","capacity":4,"covered":"no","fee":"","operator":"","nameSource":"junction"},"sourceId":"osm"},{"id":"osm:node:8442871546","latitude":51.5679875,"longitude":-0.184152,"name":"North End Road near Hampstead Way","properties":{"access":"yes","bicycle_pa":"rack","capacity":4,"covered":"no","fee":"","operator":"","nameSource":"junction"},"sourceId":"osm"},{"id":"osm:node:9173377579","latitude":51.5890041,"longitude":-0.2297324,"name":"St Josephs Grove by Grove Park","properties":{"access":"unknown","bicycle_pa":"stands","capacity":3,"covered":"yes","fee":"","operator":"","nameSource":"landmark"},"sourceId":"osm"},{"id":"osm:node:9260085846","latitude":51.5905473,"longitude":-0.2300953,"name":"Scholars Courtyard cycle parking","properties":{"access":"unknown","bicycle_pa":"shed","capacity":0,"covered":"","fee":"","operator":"","nameSource":"street"},"sourceId":"osm"},{"id":"osm:node:930490147","latitude":51.6180067,"longitude":-0.1849698,"name":"Woodside Park Road near Hoptree Close","properties":{"access":"unknown","bicycle_pa":"","capacity":0,"covered":"yes","fee":"","operator":"","nameSource":"junction"},"sourceId":"osm"},{"id":"osm:node:9434227183","latitude":51.5888449,"longitude":-0.2293635,"name":"The Burroughs by Hendon Library","properties":{"access":"unknown","bicycle_pa":"stands","capacity":3,"covered":"yes","fee":"","operator":"","nameSource":"landmark"},"sourceId":"osm"},{"id":"osm:node:9434227184","latitude":51.5895279,"longitude":-0.2290733,"name":"Scholars Courtyard cycle parking","properties":{"access":"unknown","bicycle_pa":"","capacity":3,"covered":"","fee":"","operator":"","nameSource":"street"},"sourceId":"osm"}],"schemaVersion":2}
