{"key":"12/2045/1366","points":[{"id":"osm:node:1137640020","latitude":51.2381055,"longitude":-0.1817276,"name":"Law Courts","properties":{"access":"unknown","bicycle_pa":"","capacity":5,"covered":"","fee":"","operator":"","nameSource":"source"},"sourceId":"osm"},{"id":"osm:node:1178159769","latitude":51.2349741,"longitude":-0.2079537,"name":"Creamy & Bites cycle parking","properties":{"access":"unknown","bicycle_pa":"stands","capacity":10,"covered":"no","fee":"","operator":"","nameSource":"landmark"},"sourceId":"osm"},{"id":"osm:node:1203812784","latitude":51.2382919,"longitude":-0.2102593,"name":"West Street near London Road","properties":{"access":"unknown","bicycle_pa":"stands","capacity":4,"covered":"","fee":"","operator":"","nameSource":"junction"},"sourceId":"osm"},{"id":"osm:node:1204144754","latitude":51.2376541,"longitude":-0.2064264,"name":"High Street near Brewery Yard","properties":{"access":"unknown","bicycle_pa":"stands","capacity":4,"covered":"no","fee":"","operator":"","nameSource":"junction"},"sourceId":"osm"},{"id":"osm:node:1217887626","latitude":51.23726,"longitude":-0.2074406,"name":"Cage Yard by The Cage","properties":{"access":"unknown","bicycle_pa":"","capacity":0,"covered":"","fee":"","operator":"","nameSource":"landmark"},"sourceId":"osm"},{"id":"osm:node:1217913896","latitude":51.2361136,"longitude":-0.2055185,"name":"Bell Street near Bancroft Road","properties":{"access":"unknown","bicycle_pa":"stands","capacity":40,"covered":"no","fee":"","operator":"","nameSource":"junction"},"sourceId":"osm"},{"id":"osm:node:13452468103","latitude":51.2351155,"longitude":-0.2084012,"name":"Creamy & Bites cycle parking","properties":{"access":"unknown","bicycle_pa":"stands","capacity":10,"covered":"no","fee":"","operator":"","nameSource":"landmark"},"sourceId":"osm"},{"id":"osm:node:1503551467","latitude":51.2408734,"longitude":-0.1762135,"name":"Oxford Road near Chestnut Mead","properties":{"access":"unknown","bicycle_pa":"wall_loops","capacity":0,"covered":"","fee":"","operator":"","nameSource":"junction"},"sourceId":"osm"},{"id":"osm:node:1521906933","latitude":51.2417573,"longitude":-0.2035861,"name":"Douglas Road by Reigate Station Car Park","properties":{"access":"unknown","bicycle_pa":"","capacity":0,"covered":"","fee":"","operator":"","nameSource":"landmark"},"sourceId":"osm"},{"id":"osm:node:324815555","latitude":51.2417564,"longitude":-0.2039662,"name":"Station","properties":{"access":"unknown","bicycle_pa":"stands","capacity":50,"covered":"yes","fee":"","operator":"","nameSource":"source"},"sourceId":"osm"},{"id":"osm:way:1318071113","latitude":51.2560397,"longitude":-0.19211935,"name":"North Downs Way by Junction 8","properties":{"access":"unknown","bicycle_pa":"yes","capacity":8,"covered":"no","fee":"","operator":"","nameSource":"landmark"},"sourceId":"osm"},{"id":"osm:way:904159955","latitude":51.24175894,"longitude":-0.20397401999999998,"name":"Douglas Road by Reigate","properties":{"access":"yes","bicycle_pa":"shed","capacity":24,"covered":"","fee":"no","operator":"","nameSource":"landmark"},"sourceId":"osm"}],"schemaVersion":2}
