{"key":"12/2045/1368","points":[{"id":"osm:node:4912566045","latitude":51.1680453,"longitude":-0.1849824,"name":"Tesco Extra - Gatwick cycle parking","properties":{"access":"permissive","bicycle_pa":"stands","capacity":4,"covered":"no","fee":"","operator":"","nameSource":"landmark"},"sourceId":"osm"},{"id":"osm:node:5601613726","latitude":51.1333342,"longitude":-0.1795751,"name":"Faraday Court cycle parking","properties":{"access":"unknown","bicycle_pa":"","capacity":0,"covered":"","fee":"","operator":"","nameSource":"street"},"sourceId":"osm"},{"id":"osm:way:1208063594","latitude":51.12747943333334,"longitude":-0.18200778333333334,"name":"Crompton Way cycle parking","properties":{"access":"private","bicycle_pa":"shed","capacity":0,"covered":"yes","fee":"","operator":"","nameSource":"street"},"sourceId":"osm"},{"id":"osm:way:1265178079","latitude":51.1269604,"longitude":-0.20360922,"name":"Hare Lane cycle parking","properties":{"access":"customers","bicycle_pa":"shed","capacity":0,"covered":"yes","fee":"no","operator":"","nameSource":"street"},"sourceId":"osm"},{"id":"osm:way:1418181748","latitude":51.1274849,"longitude":-0.18207698,"name":"Crompton Way cycle parking","properties":{"access":"private","bicycle_pa":"shed","capacity":0,"covered":"yes","fee":"","operator":"","nameSource":"street"},"sourceId":"osm"}],"schemaVersion":2}
