{"key":"12/2002/1271","points":[{"id":"osm:node:12770717235","latitude":56.1857677,"longitude":-3.9649607,"name":"Station Road near Stirling Road","properties":{"access":"yes","bicycle_pa":"stands","capacity":6,"covered":"no","fee":"no","operator":"","nameSource":"junction"},"sourceId":"osm"},{"id":"osm:node:1520276385","latitude":56.1855355,"longitude":-3.9653611,"name":"Stirling Road near Station Road","properties":{"access":"yes","bicycle_pa":"stands","capacity":8,"covered":"no","fee":"no","operator":"","nameSource":"junction"},"sourceId":"osm"},{"id":"osm:node:432337778","latitude":56.1853167,"longitude":-3.9663259,"name":"Glebe Place near Springfield Terrace","properties":{"access":"unknown","bicycle_pa":"","capacity":0,"covered":"","fee":"","operator":"","nameSource":"junction"},"sourceId":"osm"},{"id":"osm:node:5408519718","latitude":56.1883525,"longitude":-3.964056,"name":"High Street near B8064","properties":{"access":"yes","bicycle_pa":"stands","capacity":12,"covered":"no","fee":"no","operator":"","nameSource":"junction"},"sourceId":"osm"},{"id":"osm:node:9585702914","latitude":56.1821917,"longitude":-3.9653298,"name":"Stirling Road by Dunblane Centre","properties":{"access":"yes","bicycle_pa":"","capacity":0,"covered":"","fee":"no","operator":"","nameSource":"landmark"},"sourceId":"osm"},{"id":"osm:node:9585705171","latitude":56.1859784,"longitude":-3.9655976,"name":"Station Road near Stirling Road","properties":{"access":"unknown","bicycle_pa":"two-tier","capacity":24,"covered":"yes","fee":"no","operator":"Scotrail","nameSource":"junction"},"sourceId":"osm"}],"schemaVersion":1}
