{"key":"12/2022/1250","points":[{"id":"osm:node:13789912184","latitude":57.1976999,"longitude":-2.203976,"name":"International Gate cycle parking","properties":{"access":"unknown","bicycle_pa":"stands","capacity":16,"covered":"","fee":"","operator":"","nameSource":"street"},"sourceId":"osm"},{"id":"osm:node:6321497693","latitude":57.1852571,"longitude":-2.2135018,"name":"SRUC - Aberdeen Campus cycle parking","properties":{"access":"unknown","bicycle_pa":"stands","capacity":22,"covered":"no","fee":"","operator":"","nameSource":"landmark"},"sourceId":"osm"},{"id":"osm:node:9253560798","latitude":57.1848528,"longitude":-2.2127541,"name":"Sutton Circle by SRUC - Aberdeen Campus","properties":{"access":"unknown","bicycle_pa":"","capacity":0,"covered":"","fee":"","operator":"","nameSource":"landmark"},"sourceId":"osm"},{"id":"osm:way:1230546494","latitude":57.19265246,"longitude":-2.21315298,"name":"Craibstone cycle parking","properties":{"access":"yes","bicycle_pa":"rack","capacity":12,"covered":"yes","fee":"no","operator":"","nameSource":"landmark"},"sourceId":"osm"},{"id":"osm:way:1230554700","latitude":57.19262722,"longitude":-2.2132204,"name":"Craibstone cycle parking","properties":{"access":"yes","bicycle_pa":"lockers","capacity":9,"covered":"","fee":"yes","operator":"","nameSource":"landmark"},"sourceId":"osm"},{"id":"osm:way:1349645392","latitude":57.192883159999994,"longitude":-2.20355432,"name":"Walton Road cycle parking","properties":{"access":"private","bicycle_pa":"shed","capacity":0,"covered":"yes","fee":"","operator":"","nameSource":"street"},"sourceId":"osm"},{"id":"osm:way:1349645395","latitude":57.19349222857143,"longitude":-2.2035419571428574,"name":"Chapel of Stoneywood cycle parking","properties":{"access":"private","bicycle_pa":"shed","capacity":0,"covered":"yes","fee":"","operator":"","nameSource":"place"},"sourceId":"osm"},{"id":"osm:way:1349864992","latitude":57.1934832,"longitude":-2.2163454600000003,"name":"Chapel of Stoneywood cycle parking","properties":{"access":"customers","bicycle_pa":"shed","capacity":0,"covered":"yes","fee":"","operator":"","nameSource":"place"},"sourceId":"osm"},{"id":"osm:way:1349864994","latitude":57.194491466666655,"longitude":-2.216521333333333,"name":"Harvest Avenue cycle parking","properties":{"access":"customers","bicycle_pa":"shed","capacity":0,"covered":"yes","fee":"","operator":"","nameSource":"street"},"sourceId":"osm"},{"id":"osm:way:1414716227","latitude":57.212114459999995,"longitude":-2.2004507799999997,"name":"Kirkton Drive cycle parking","properties":{"access":"private","bicycle_pa":"shed","capacity":0,"covered":"yes","fee":"","operator":"","nameSource":"street"},"sourceId":"osm"},{"id":"osm:way:1472935481","latitude":57.189158580000004,"longitude":-2.20591874,"name":"A96 cycle parking","properties":{"access":"private","bicycle_pa":"shed","capacity":0,"covered":"yes","fee":"","operator":"","nameSource":"street"},"sourceId":"osm"},{"id":"osm:way:1482342587","latitude":57.19927233999999,"longitude":-2.205196,"name":"Brent Road by Herz","properties":{"access":"yes","bicycle_pa":"stands","capacity":12,"covered":"yes","fee":"","operator":"Aberdeen International Airport","nameSource":"landmark"},"sourceId":"osm"}],"schemaVersion":2}
