{"key":"12/2022/1325","points":[{"id":"osm:node:10011922344","latitude":53.4737547,"longitude":-2.2389854,"name":"Charles Street near York Street","properties":{"access":"unknown","bicycle_pa":"stands","capacity":6,"covered":"no","fee":"","operator":"","nameSource":"junction"},"sourceId":"osm"},{"id":"osm:node:10011958115","latitude":53.4809013,"longitude":-2.2343623,"name":"Newton Street near Piccadilly","properties":{"access":"unknown","bicycle_pa":"stands","capacity":4,"covered":"no","fee":"","operator":"","nameSource":"junction"},"sourceId":"osm"},{"id":"osm:node:10011958116","latitude":53.4841069,"longitude":-2.2384671,"name":"Nicholas Croft near High Street","properties":{"access":"unknown","bicycle_pa":"stands","capacity":10,"covered":"no","fee":"","operator":"","nameSource":"junction"},"sourceId":"osm"},{"id":"osm:node:10012048418","latitude":53.484583,"longitude":-2.2400585,"name":"Dantzic Street near Shudehill","properties":{"access":"yes","bicycle_pa":"stands","capacity":2,"covered":"no","fee":"no","operator":"","nameSource":"junction"},"sourceId":"osm"},{"id":"osm:node:10012048419","latitude":53.4849483,"longitude":-2.2452144,"name":"Victoria Street near Cathedral Approach","properties":{"access":"unknown","bicycle_pa":"stands","capacity":12,"covered":"no","fee":"","operator":"","nameSource":"junction"},"sourceId":"osm"},{"id":"osm:node:10012048422","latitude":53.4869733,"longitude":-2.238799,"name":"Dantzic Street near Mayes Street","properties":{"access":"unknown","bicycle_pa":"stands","capacity":14,"covered":"no","fee":"","operator":"","nameSource":"junction"},"sourceId":"osm"},{"id":"osm:node:10012048423","latitude":53.486347,"longitude":-2.2392133,"name":"Dantzic Street near Hanover Street","properties":{"access":"unknown","bicycle_pa":"stands","capacity":0,"covered":"","fee":"","operator":"","nameSource":"junction"},"sourceId":"osm"},{"id":"osm:node:10013611309","latitude":53.4786295,"longitude":-2.238213,"name":"Portland Street near Chorlton Street","properties":{"access":"yes","bicycle_pa":"stands","capacity":4,"covered":"no","fee":"","operator":"","nameSource":"junction"},"sourceId":"osm"},{"id":"osm:node:10013611311","latitude":53.4783699,"longitude":-2.2386307,"name":"Portland Street near Charlotte Street","properties":{"access":"yes","bicycle_pa":"stands","capacity":8,"covered":"no","fee":"","operator":"","nameSource":"junction"},"sourceId":"osm"},{"id":"osm:node:10013611313","latitude":53.4755666,"longitude":-2.2436673,"name":"Chepstow Street South near Great Bridgewater Street","properties":{"access":"unknown","bicycle_pa":"stands","capacity":6,"covered":"no","fee":"","operator":"","nameSource":"junction"},"sourceId":"osm"},{"id":"osm:node:10013611315","latitude":53.4755838,"longitude":-2.2439306,"name":"Chepstow Street North near Chepstow Street","properties":{"access":"unknown","bicycle_pa":"stands","capacity":4,"covered":"no","fee":"","operator":"","nameSource":"junction"},"sourceId":"osm"},{"id":"osm:node:10013611316","latitude":53.4750856,"longitude":-2.2439412,"name":"Great Bridgewater Street near Chepstow Street","properties":{"access":"unknown","bicycle_pa":"stands","capacity":12,"covered":"no","fee":"","operator":"","nameSource":"junction"},"sourceId":"osm"},{"id":"osm:node:10018787966","latitude":53.4815598,"longitude":-2.2287759,"name":"Tariff Street by Urban Exchange","properties":{"access":"yes","bicycle_pa":"stands","capacity":6,"covered":"yes","fee":"","operator":"","nameSource":"landmark"},"sourceId":"osm"},{"id":"osm:node:10018841548","latitude":53.4815604,"longitude":-2.2210986,"name":"Old Mill Street by Little Learning Ladder","properties":{"access":"yes","bicycle_pa":"stands","capacity":6,"covered":"no","fee":"","operator":"","nameSource":"landmark"},"sourceId":"osm"},{"id":"osm:node:10019050205","latitude":53.4856945,"longitude":-2.2278722,"name":"George Leigh Street near Bengal Street","properties":{"access":"yes","bicycle_pa":"stands","capacity":2,"covered":"no","fee":"","operator":"","nameSource":"junction"},"sourceId":"osm"},{"id":"osm:node:10019083422","latitude":53.4868227,"longitude":-2.2292813,"name":"Cassidy Close by Wing Yip Superstore","properties":{"access":"unknown","bicycle_pa":"wall_loops","capacity":0,"covered":"no","fee":"","operator":"","nameSource":"landmark"},"sourceId":"osm"},{"id":"osm:node:10022962216","latitude":53.4769924,"longitude":-2.2338457,"name":"Aytoun Street near Whitworth Street","properties":{"access":"unknown","bicycle_pa":"stands","capacity":10,"covered":"no","fee":"","operator":"","nameSource":"junction"},"sourceId":"osm"},{"id":"osm:node:10023030117","latitude":53.4782519,"longitude":-2.2338265,"name":"Aytoun Street near Auburn Street","properties":{"access":"unknown","bicycle_pa":"stands","capacity":8,"covered":"no","fee":"","operator":"","nameSource":"junction"},"sourceId":"osm"},{"id":"osm:node:10023331343","latitude":53.4583697,"longitude":-2.2019497,"name":"Stockport Road by Pakistani Community Centre","properties":{"access":"unknown","bicycle_pa":"stands","capacity":6,"covered":"no","fee":"","operator":"","nameSource":"landmark"},"sourceId":"osm"},{"id":"osm:node:10023342855","latitude":53.4599418,"longitude":-2.2043339,"name":"Birch Lane near Plymouth Grove","properties":{"access":"unknown","bicycle_pa":"stands","capacity":12,"covered":"no","fee":"","operator":"","nameSource":"junction"},"sourceId":"osm"},{"id":"osm:node:10023366076","latitude":53.4659342,"longitude":-2.2159046,"name":"Stockport Road by Home and Furniture - St Ann's Hospice","properties":{"access":"unknown","bicycle_pa":"stands","capacity":12,"covered":"no","fee":"","operator":"","nameSource":"landmark"},"sourceId":"osm"},{"id":"osm:node:10023366381","latitude":53.4655688,"longitude":-2.2153022,"name":"Stockport Road by The Salvation Army","properties":{"access":"unknown","bicycle_pa":"stands","capacity":10,"covered":"no","fee":"","operator":"","nameSource":"landmark"},"sourceId":"osm"},{"id":"osm:node:10025812711","latitude":53.4834595,"longitude":-2.2434605,"name":"Corporation Street near Cross Street","properties":{"access":"unknown","bicycle_pa":"stands","capacity":8,"covered":"no","fee":"","operator":"","nameSource":"junction"},"sourceId":"osm"},{"id":"osm:node:10038101184","latitude":53.47972,"longitude":-2.2304178,"name":"Ducie Street near Jutland Street","properties":{"access":"yes","bicycle_pa":"stands","capacity":4,"covered":"no","fee":"","operator":"","nameSource":"junction"},"sourceId":"osm"},{"id":"osm:node:10048225073","latitude":53.474783,"longitude":-2.2273908,"name":"Baring Street near Buxton Street","properties":{"access":"unknown","bicycle_pa":"stands","capacity":8,"covered":"no","fee":"","operator":"","nameSource":"junction"},"sourceId":"osm"},{"id":"osm:node:10048228715","latitude":53.4743317,"longitude":-2.2262732,"name":"Mancunian Way cycle parking","properties":{"access":"unknown","bicycle_pa":"stands","capacity":8,"covered":"no","fee":"","operator":"","nameSource":"street"},"sourceId":"osm"},{"id":"osm:node:10048236129","latitude":53.474386,"longitude":-2.2233708,"name":"Hoyle Street near Chapelfield Road","properties":{"access":"unknown","bicycle_pa":"stands","capacity":8,"covered":"no","fee":"","operator":"","nameSource":"junction"},"sourceId":"osm"},{"id":"osm:node:10050783942","latitude":53.4796003,"longitude":-2.2307755,"name":"Ducie Street near Dale Street","properties":{"access":"unknown","bicycle_pa":"stands","capacity":8,"covered":"no","fee":"","operator":"","nameSource":"junction"},"sourceId":"osm"},{"id":"osm:node:10052330087","latitude":53.4841466,"longitude":-2.2019249,"name":"Rowsley Street cycle parking","properties":{"access":"unknown","bicycle_pa":"stands","capacity":8,"covered":"no","fee":"","operator":"","nameSource":"street"},"sourceId":"osm"},{"id":"osm:node:10052330095","latitude":53.4841517,"longitude":-2.2021528,"name":"Rowsley Street cycle parking","properties":{"access":"unknown","bicycle_pa":"stands","capacity":0,"covered":"no","fee":"","operator":"","nameSource":"street"},"sourceId":"osm"},{"id":"osm:node:10052330105","latitude":53.4834443,"longitude":-2.2119284,"name":"Holt Town near Cavalier Street","properties":{"access":"yes","bicycle_pa":"stands","capacity":10,"covered":"no","fee":"","operator":"","nameSource":"junction"},"sourceId":"osm"},{"id":"osm:node:10056634477","latitude":53.4845079,"longitude":-2.2235274,"name":"New Union Street near New Islington","properties":{"access":"unknown","bicycle_pa":"stands","capacity":2,"covered":"no","fee":"no","operator":"","nameSource":"junction"},"sourceId":"osm"},{"id":"osm:node:10056649559","latitude":53.4833739,"longitude":-2.2344242,"name":"Oldham Street near Hilton Street","properties":{"access":"unknown","bicycle_pa":"stands","capacity":4,"covered":"no","fee":"","operator":"","nameSource":"junction"},"sourceId":"osm"},{"id":"osm:node:10056649562","latitude":53.4827016,"longitude":-2.2226992,"name":"Keepers Quay cycle parking","properties":{"access":"unknown","bicycle_pa":"stands","capacity":6,"covered":"no","fee":"","operator":"","nameSource":"street"},"sourceId":"osm"},{"id":"osm:node:10056649570","latitude":53.4829897,"longitude":-2.2232179,"name":"Keepers Quay by Flawd","properties":{"access":"unknown","bicycle_pa":"stands","capacity":6,"covered":"no","fee":"","operator":"","nameSource":"landmark"},"sourceId":"osm"},{"id":"osm:node:10173498168","latitude":53.486798,"longitude":-2.2281145,"name":"Oldham Road near Radium Street","properties":{"access":"yes","bicycle_pa":"stands","capacity":8,"covered":"no","fee":"no","operator":"","nameSource":"junction"},"sourceId":"osm"},{"id":"osm:node:10174719255","latitude":53.4830623,"longitude":-2.2548562,"name":"New Bailey Street near Gore Street","properties":{"access":"yes","bicycle_pa":"stands","capacity":0,"covered":"yes","fee":"","operator":"TfGM","nameSource":"junction"},"sourceId":"osm"},{"id":"osm:node:10269966837","latitude":53.4777912,"longitude":-2.2565583,"name":"Science and Industry Museum cycle parking","properties":{"access":"unknown","bicycle_pa":"wall_loops","capacity":4,"covered":"","fee":"","operator":"","nameSource":"street"},"sourceId":"osm"},{"id":"osm:node:10269966838","latitude":53.4778008,"longitude":-2.2566233,"name":"Goods Yard Street cycle parking","properties":{"access":"unknown","bicycle_pa":"wall_loops","capacity":4,"covered":"","fee":"","operator":"","nameSource":"street"},"sourceId":"osm"},{"id":"osm:node:10269967472","latitude":53.4814161,"longitude":-2.2292971,"name":"Tariff Street near Laystall Street","properties":{"access":"unknown","bicycle_pa":"stands","capacity":8,"covered":"no","fee":"","operator":"","nameSource":"junction"},"sourceId":"osm"},{"id":"osm:node:10538029876","latitude":53.486095,"longitude":-2.2294899,"name":"Oldham Road near Sherratt Street","properties":{"access":"unknown","bicycle_pa":"stands","capacity":8,"covered":"no","fee":"","operator":"","nameSource":"junction"},"sourceId":"osm"},{"id":"osm:node:10538029887","latitude":53.4858649,"longitude":-2.2309137,"name":"Oldham Road near Cornell Street","properties":{"access":"unknown","bicycle_pa":"stands","capacity":12,"covered":"no","fee":"","operator":"","nameSource":"junction"},"sourceId":"osm"},{"id":"osm:node:10735047417","latitude":53.4868503,"longitude":-2.2273818,"name":"Oldham Road near Radium Street","properties":{"access":"unknown","bicycle_pa":"","capacity":0,"covered":"","fee":"","operator":"","nameSource":"junction"},"sourceId":"osm"},{"id":"osm:node:11076761716","latitude":53.4666681,"longitude":-2.2317977,"name":"Brunswick Street near Rumford Street","properties":{"access":"private","bicycle_pa":"shed","capacity":0,"covered":"yes","fee":"","operator":"","nameSource":"junction"},"sourceId":"osm"},{"id":"osm:node:11112595982","latitude":53.4783955,"longitude":-2.2571381,"name":"Goods Yard Street near Water Street","properties":{"access":"yes","bicycle_pa":"stands","capacity":8,"covered":"no","fee":"no","operator":"","nameSource":"junction"},"sourceId":"osm"},{"id":"osm:node:11167484437","latitude":53.4612882,"longitude":-2.2618438,"name":"St. Brides Way near Shrewsbury Street","properties":{"access":"unknown","bicycle_pa":"stands","capacity":12,"covered":"no","fee":"","operator":"","nameSource":"junction"},"sourceId":"osm"},{"id":"osm:node:11200336232","latitude":53.4834795,"longitude":-2.2263588,"name":"Murray Street near Redhill Street","properties":{"access":"private","bicycle_pa":"rack","capacity":0,"covered":"no","fee":"","operator":"","nameSource":"junction"},"sourceId":"osm"},{"id":"osm:node:11258245397","latitude":53.475707,"longitude":-2.2501462,"name":"Great Bridgewater Street near Deansgate Mews","properties":{"access":"unknown","bicycle_pa":"stands","capacity":24,"covered":"yes","fee":"","operator":"","nameSource":"junction"},"sourceId":"osm"},{"id":"osm:node:11260202709","latitude":53.4871087,"longitude":-2.240808,"name":"Corporation Street near Mayes Street","properties":{"access":"unknown","bicycle_pa":"stands","capacity":8,"covered":"no","fee":"","operator":"","nameSource":"junction"},"sourceId":"osm"},{"id":"osm:node:11260203739","latitude":53.4876304,"longitude":-2.2404325,"name":"Corporation Street near Cheetham Hill Road","properties":{"access":"unknown","bicycle_pa":"stands","capacity":4,"covered":"no","fee":"","operator":"","nameSource":"junction"},"sourceId":"osm"},{"id":"osm:node:11263034362","latitude":53.471349,"longitude":-2.2725782,"name":"Fairbrother Street near Ordsall Lane","properties":{"access":"unknown","bicycle_pa":"stands","capacity":6,"covered":"no","fee":"","operator":"","nameSource":"junction"},"sourceId":"osm"},{"id":"osm:node:11263034363","latitude":53.4711757,"longitude":-2.2728679,"name":"Ordsall Lane near St Clements Drive","properties":{"access":"unknown","bicycle_pa":"stands","capacity":6,"covered":"no","fee":"","operator":"","nameSource":"junction"},"sourceId":"osm"},{"id":"osm:node:11333525896","latitude":53.4606093,"longitude":-2.2252181,"name":"The Boulevard cycle parking","properties":{"access":"unknown","bicycle_pa":"stands","capacity":12,"covered":"yes","fee":"","operator":"","nameSource":"street"},"sourceId":"osm"},{"id":"osm:node:11333525897","latitude":53.460811,"longitude":-2.2253668,"name":"The Boulevard cycle parking","properties":{"access":"unknown","bicycle_pa":"stands","capacity":12,"covered":"yes","fee":"","operator":"","nameSource":"street"},"sourceId":"osm"},{"id":"osm:node:11333525898","latitude":53.4609241,"longitude":-2.2254465,"name":"The Boulevard cycle parking","properties":{"access":"unknown","bicycle_pa":"stands","capacity":12,"covered":"yes","fee":"","operator":"","nameSource":"street"},"sourceId":"osm"},{"id":"osm:node:11407554192","latitude":53.4849708,"longitude":-2.2716416,"name":"Cockcroft Road by Salford Museum and Art Gallery Cafe","properties":{"access":"unknown","bicycle_pa":"stands","capacity":6,"covered":"","fee":"","operator":"","nameSource":"landmark"},"sourceId":"osm"},{"id":"osm:node:11425114360","latitude":53.4832564,"longitude":-2.2586788,"name":"Chapel Street near St Stephen Street","properties":{"access":"unknown","bicycle_pa":"rack","capacity":0,"covered":"","fee":"","operator":"","nameSource":"junction"},"sourceId":"osm"},{"id":"osm:node:11429330958","latitude":53.4843678,"longitude":-2.2514344,"name":"Chapel Street near Dearmans Place","properties":{"access":"unknown","bicycle_pa":"rack","capacity":2,"covered":"","fee":"","operator":"","nameSource":"junction"},"sourceId":"osm"},{"id":"osm:node:11429330959","latitude":53.4844888,"longitude":-2.2509717,"name":"Clowes Street near Bury Street","properties":{"access":"unknown","bicycle_pa":"rack","capacity":2,"covered":"","fee":"","operator":"","nameSource":"junction"},"sourceId":"osm"},{"id":"osm:node:11510888708","latitude":53.4845365,"longitude":-2.2000382,"name":"Joe Mercer Way cycle parking","properties":{"access":"unknown","bicycle_pa":"rack","capacity":0,"covered":"","fee":"","operator":"","nameSource":"street"},"sourceId":"osm"},{"id":"osm:node:11510888709","latitude":53.4844086,"longitude":-2.1994008,"name":"Bradford cycle parking","properties":{"access":"unknown","bicycle_pa":"rack","capacity":0,"covered":"","fee":"","operator":"","nameSource":"place"},"sourceId":"osm"},{"id":"osm:node:11510888710","latitude":53.484221,"longitude":-2.1989432,"name":"Bradford cycle parking","properties":{"access":"unknown","bicycle_pa":"rack","capacity":0,"covered":"","fee":"","operator":"","nameSource":"place"},"sourceId":"osm"},{"id":"osm:node:11510888711","latitude":53.4839403,"longitude":-2.1985322,"name":"Bradford cycle parking","properties":{"access":"unknown","bicycle_pa":"rack","capacity":0,"covered":"","fee":"","operator":"","nameSource":"place"},"sourceId":"osm"},{"id":"osm:node:11510888712","latitude":53.4836538,"longitude":-2.1983068,"name":"Bradford cycle parking","properties":{"access":"unknown","bicycle_pa":"rack","capacity":0,"covered":"","fee":"","operator":"","nameSource":"place"},"sourceId":"osm"},{"id":"osm:node:11510888713","latitude":53.4834031,"longitude":-2.1981955,"name":"Sir Howard Bernstein Way cycle parking","properties":{"access":"unknown","bicycle_pa":"rack","capacity":0,"covered":"","fee":"","operator":"","nameSource":"street"},"sourceId":"osm"},{"id":"osm:node:11592995251","latitude":53.4801856,"longitude":-2.2474499,"name":"Mulberry Square by Panacea Manchester","properties":{"access":"unknown","bicycle_pa":"stands","capacity":20,"covered":"no","fee":"no","operator":"","nameSource":"landmark"},"sourceId":"osm"},{"id":"osm:node:11594681232","latitude":53.46798,"longitude":-2.2464905,"name":"Stretford Road near Leaf Street","properties":{"access":"unknown","bicycle_pa":"stands","capacity":5,"covered":"no","fee":"","operator":"","nameSource":"junction"},"sourceId":"osm"},{"id":"osm:node:1163495180","latitude":53.4748925,"longitude":-2.2449353,"name":"Great Bridgewater Street near Chepstow Street","properties":{"access":"unknown","bicycle_pa":"stands","capacity":6,"covered":"no","fee":"","operator":"","nameSource":"junction"},"sourceId":"osm"},{"id":"osm:node:11645657680","latitude":53.4676156,"longitude":-2.2475851,"name":"Stretford Road near Leaf Street","properties":{"access":"unknown","bicycle_pa":"stands","capacity":8,"covered":"no","fee":"","operator":"","nameSource":"junction"},"sourceId":"osm"},{"id":"osm:node:11645657681","latitude":53.4677245,"longitude":-2.247027,"name":"Leaf Street near Stretford Road","properties":{"access":"unknown","bicycle_pa":"stands","capacity":4,"covered":"no","fee":"","operator":"","nameSource":"junction"},"sourceId":"osm"},{"id":"osm:node:11672492891","latitude":53.4751508,"longitude":-2.2548003,"name":"Duke Street near Beaufort Street","properties":{"access":"unknown","bicycle_pa":"stands","capacity":6,"covered":"no","fee":"","operator":"","nameSource":"junction"},"sourceId":"osm"},{"id":"osm:node:11672492892","latitude":53.4780811,"longitude":-2.2583272,"name":"Water Street cycle parking","properties":{"access":"unknown","bicycle_pa":"stands","capacity":10,"covered":"yes","fee":"","operator":"","nameSource":"street"},"sourceId":"osm"},{"id":"osm:node:11672492893","latitude":53.4779636,"longitude":-2.2581839,"name":"Water Street by The Social","properties":{"access":"unknown","bicycle_pa":"stands","capacity":20,"covered":"no","fee":"","operator":"","nameSource":"landmark"},"sourceId":"osm"},{"id":"osm:node:11672492894","latitude":53.4796235,"longitude":-2.2539426,"name":"Gartside Street near New Quay Street","properties":{"access":"unknown","bicycle_pa":"stands","capacity":6,"covered":"no","fee":"","operator":"","nameSource":"junction"},"sourceId":"osm"},{"id":"osm:node:11695243428","latitude":53.4838515,"longitude":-2.2300226,"name":"Gun Street near Blossom Street","properties":{"access":"unknown","bicycle_pa":"stands","capacity":8,"covered":"no","fee":"","operator":"","nameSource":"junction"},"sourceId":"osm"},{"id":"osm:node:11695243429","latitude":53.4857628,"longitude":-2.2324262,"name":"Chadderton Street near Addington Street","properties":{"access":"unknown","bicycle_pa":"stands","capacity":10,"covered":"no","fee":"","operator":"","nameSource":"junction"},"sourceId":"osm"},{"id":"osm:node:11869247360","latitude":53.4711871,"longitude":-2.2376728,"name":"Sidney Street near Oxford Road","properties":{"access":"unknown","bicycle_pa":"stands","capacity":4,"covered":"no","fee":"","operator":"","nameSource":"junction"},"sourceId":"osm"},{"id":"osm:node:11869252158","latitude":53.4712277,"longitude":-2.2377913,"name":"Oxford Road near Sidney Street","properties":{"access":"unknown","bicycle_pa":"stands","capacity":11,"covered":"no","fee":"","operator":"","nameSource":"junction"},"sourceId":"osm"},{"id":"osm:node:11918508746","latitude":53.4860486,"longitude":-2.2316095,"name":"Chadderton Street near Goulden Street","properties":{"access":"unknown","bicycle_pa":"stands","capacity":0,"covered":"no","fee":"","operator":"","nameSource":"junction"},"sourceId":"osm"},{"id":"osm:node:11921644132","latitude":53.4819656,"longitude":-2.2531539,"name":"Riverside Walk near Bridge Street West","properties":{"access":"unknown","bicycle_pa":"stands","capacity":10,"covered":"no","fee":"","operator":"","nameSource":"junction"},"sourceId":"osm"},{"id":"osm:node:11973927183","latitude":53.4605149,"longitude":-2.2767393,"name":"Tennis Street near Seymour Grove","properties":{"access":"yes","bicycle_pa":"stands","capacity":20,"covered":"no","fee":"no","operator":"","nameSource":"junction"},"sourceId":"osm"},{"id":"osm:node:11980478408","latitude":53.4474777,"longitude":-2.239344,"name":"Lloyd Street South by Hair Fairy Boutique","properties":{"access":"unknown","bicycle_pa":"","capacity":0,"covered":"","fee":"","operator":"","nameSource":"landmark"},"sourceId":"osm"},{"id":"osm:node:11985007506","latitude":53.4458654,"longitude":-2.224526,"name":"The Lakeside Centre cycle parking","properties":{"access":"unknown","bicycle_pa":"stands","capacity":14,"covered":"no","fee":"","operator":"","nameSource":"landmark"},"sourceId":"osm"},{"id":"osm:node:12003646558","latitude":53.4739624,"longitude":-2.2425645,"name":"Great Marlborough Street near Whitworth Street West","properties":{"access":"unknown","bicycle_pa":"stands","capacity":36,"covered":"","fee":"no","operator":"","nameSource":"junction"},"sourceId":"osm"},{"id":"osm:node:12015106189","latitude":53.4812305,"longitude":-2.2567218,"name":"Irwell Street near Trinity Way","properties":{"access":"unknown","bicycle_pa":"stands","capacity":0,"covered":"","fee":"","operator":"","nameSource":"junction"},"sourceId":"osm"},{"id":"osm:node:12087303776","latitude":53.4792982,"longitude":-2.1976209,"name":"Randall Walk near Rouse Close","properties":{"access":"unknown","bicycle_pa":"stands","capacity":8,"covered":"no","fee":"","operator":"","nameSource":"junction"},"sourceId":"osm"},{"id":"osm:node:12122535415","latitude":53.4872024,"longitude":-2.2264345,"name":"Poland Street near Oldham Road","properties":{"access":"unknown","bicycle_pa":"stands","capacity":8,"covered":"","fee":"","operator":"","nameSource":"junction"},"sourceId":"osm"},{"id":"osm:node:12182642917","latitude":53.4873975,"longitude":-2.2358799,"name":"Angel Street near Simpson Street","properties":{"access":"unknown","bicycle_pa":"stands","capacity":8,"covered":"no","fee":"","operator":"","nameSource":"junction"},"sourceId":"osm"},{"id":"osm:node:12182660900","latitude":53.4861768,"longitude":-2.2341859,"name":"Mason Street near Cable Street","properties":{"access":"unknown","bicycle_pa":"stands","capacity":18,"covered":"yes","fee":"","operator":"","nameSource":"junction"},"sourceId":"osm"},{"id":"osm:node:12188205358","latitude":53.4790921,"longitude":-2.2223188,"name":"Epworth Street near Norton Street","properties":{"access":"unknown","bicycle_pa":"stands","capacity":10,"covered":"yes","fee":"","operator":"","nameSource":"junction"},"sourceId":"osm"},{"id":"osm:node:12188209350","latitude":53.4788829,"longitude":-2.2228757,"name":"Norton Street near Heyrod Street","properties":{"access":"unknown","bicycle_pa":"stands","capacity":26,"covered":"no","fee":"","operator":"","nameSource":"junction"},"sourceId":"osm"},{"id":"osm:node:12188218664","latitude":53.4788493,"longitude":-2.2227089,"name":"Epworth Street near Norton Street","properties":{"access":"unknown","bicycle_pa":"stands","capacity":16,"covered":"no","fee":"","operator":"","nameSource":"junction"},"sourceId":"osm"},{"id":"osm:node:12218173240","latitude":53.4591932,"longitude":-2.2270692,"name":"Hathersage Road near Oxford Road","properties":{"access":"unknown","bicycle_pa":"stands","capacity":8,"covered":"no","fee":"","operator":"","nameSource":"junction"},"sourceId":"osm"},{"id":"osm:node:12218190897","latitude":53.4591622,"longitude":-2.2264916,"name":"Hathersage Road near The Boulevard","properties":{"access":"unknown","bicycle_pa":"stands","capacity":8,"covered":"yes","fee":"","operator":"","nameSource":"junction"},"sourceId":"osm"},{"id":"osm:node:12250126957","latitude":53.4695829,"longitude":-2.2230898,"name":"Polygon Street near Stockport Road","properties":{"access":"unknown","bicycle_pa":"stands","capacity":12,"covered":"no","fee":"","operator":"","nameSource":"junction"},"sourceId":"osm"},{"id":"osm:node:12273088686","latitude":53.4760973,"longitude":-2.2424054,"name":"Portland Street near Oxford Street","properties":{"access":"unknown","bicycle_pa":"stands","capacity":0,"covered":"no","fee":"","operator":"","nameSource":"junction"},"sourceId":"osm"},{"id":"osm:node:12278609241","latitude":53.4697107,"longitude":-2.2772028,"name":"Taylorson Street near Guy Fawkes Street","properties":{"access":"unknown","bicycle_pa":"stands","capacity":6,"covered":"no","fee":"","operator":"","nameSource":"junction"},"sourceId":"osm"},{"id":"osm:node:12278620291","latitude":53.4703887,"longitude":-2.2772305,"name":"Taylorson Street near Guy Fawkes Street","properties":{"access":"unknown","bicycle_pa":"stands","capacity":8,"covered":"no","fee":"","operator":"","nameSource":"junction"},"sourceId":"osm"},{"id":"osm:node:12281755646","latitude":53.4717383,"longitude":-2.2821227,"name":"Trafford Road near The Quays","properties":{"access":"unknown","bicycle_pa":"stands","capacity":10,"covered":"no","fee":"","operator":"","nameSource":"junction"},"sourceId":"osm"},{"id":"osm:node:12281780810","latitude":53.4677923,"longitude":-2.2775549,"name":"Modwen Road near Ordsall Lane","properties":{"access":"unknown","bicycle_pa":"stands","capacity":4,"covered":"no","fee":"","operator":"","nameSource":"junction"},"sourceId":"osm"},{"id":"osm:node:12282134561","latitude":53.4673937,"longitude":-2.2769644,"name":"Modwen Road cycle parking","properties":{"access":"unknown","bicycle_pa":"stands","capacity":2,"covered":"no","fee":"","operator":"","nameSource":"street"},"sourceId":"osm"},{"id":"osm:node:12288125578","latitude":53.471113,"longitude":-2.2821951,"name":"Elmira Way near The Quays","properties":{"access":"unknown","bicycle_pa":"stands","capacity":18,"covered":"","fee":"","operator":"","nameSource":"junction"},"sourceId":"osm"},{"id":"osm:node:12288126404","latitude":53.4714774,"longitude":-2.2822459,"name":"Trafford Road near The Quays","properties":{"access":"unknown","bicycle_pa":"stands","capacity":6,"covered":"no","fee":"","operator":"","nameSource":"junction"},"sourceId":"osm"},{"id":"osm:node:1268119845","latitude":53.452211,"longitude":-2.2197304,"name":"Dickenson Road near Gatcombe Square","properties":{"access":"unknown","bicycle_pa":"","capacity":8,"covered":"","fee":"","operator":"","nameSource":"junction"},"sourceId":"osm"},{"id":"osm:node:12713740059","latitude":53.4563113,"longitude":-2.1995576,"name":"Stockport Road near Stanley Grove","properties":{"access":"unknown","bicycle_pa":"stands","capacity":2,"covered":"no","fee":"","operator":"","nameSource":"junction"},"sourceId":"osm"},{"id":"osm:node:12734423885","latitude":53.4613943,"longitude":-2.2287401,"name":"Oxford Road near Denmark Road","properties":{"access":"unknown","bicycle_pa":"stands","capacity":8,"covered":"no","fee":"","operator":"","nameSource":"junction"},"sourceId":"osm"},{"id":"osm:node:1278174409","latitude":53.4599101,"longitude":-2.2251143,"name":"Hospital Boulevard near The Boulevard","properties":{"access":"unknown","bicycle_pa":"stands","capacity":48,"covered":"no","fee":"","operator":"","nameSource":"junction"},"sourceId":"osm"},{"id":"osm:node:12805828565","latitude":53.4723863,"longitude":-2.2513812,"name":"Deansgate Square cycle parking","properties":{"access":"yes","bicycle_pa":"stands","capacity":28,"covered":"no","fee":"no","operator":"","nameSource":"street"},"sourceId":"osm"},{"id":"osm:node:12846433888","latitude":53.4427839,"longitude":-2.2197468,"name":"Wilbraham Road by Holy Innocents' Church","properties":{"access":"unknown","bicycle_pa":"stands","capacity":6,"covered":"no","fee":"","operator":"","nameSource":"landmark"},"sourceId":"osm"},{"id":"osm:node:12894241110","latitude":53.4831316,"longitude":-2.2616978,"name":"Islington Way near Chapel Street","properties":{"access":"unknown","bicycle_pa":"stands","capacity":6,"covered":"","fee":"","operator":"","nameSource":"junction"},"sourceId":"osm"},{"id":"osm:node:12995090980","latitude":53.481581,"longitude":-2.252852,"name":"Bridge Street West near Bridge Street","properties":{"access":"unknown","bicycle_pa":"stands","capacity":6,"covered":"","fee":"","operator":"","nameSource":"junction"},"sourceId":"osm"},{"id":"osm:node:12995152078","latitude":53.4777527,"longitude":-2.247976,"name":"Windmill Street near Watson Street","properties":{"access":"unknown","bicycle_pa":"stands","capacity":10,"covered":"","fee":"","operator":"","nameSource":"junction"},"sourceId":"osm"},{"id":"osm:node:12995152079","latitude":53.4777196,"longitude":-2.2479029,"name":"Windmill Street near Watson Street","properties":{"access":"unknown","bicycle_pa":"stands","capacity":2,"covered":"","fee":"","operator":"","nameSource":"junction"},"sourceId":"osm"},{"id":"osm:node:12995152080","latitude":53.4776872,"longitude":-2.2478399,"name":"Windmill Street near Watson Street","properties":{"access":"unknown","bicycle_pa":"stands","capacity":4,"covered":"","fee":"","operator":"","nameSource":"junction"},"sourceId":"osm"},{"id":"osm:node:12995152081","latitude":53.4776581,"longitude":-2.2477742,"name":"Windmill Street near Watson Street","properties":{"access":"unknown","bicycle_pa":"stands","capacity":6,"covered":"","fee":"","operator":"","nameSource":"junction"},"sourceId":"osm"},{"id":"osm:node:13021403067","latitude":53.4758574,"longitude":-2.2380185,"name":"Princess Street near Whitworth Street","properties":{"access":"yes","bicycle_pa":"stands","capacity":10,"covered":"no","fee":"no","operator":"","nameSource":"junction"},"sourceId":"osm"},{"id":"osm:node:13022589395","latitude":53.4864398,"longitude":-2.2250545,"name":"Poland Street near George Leigh Street","properties":{"access":"unknown","bicycle_pa":"lockers","capacity":0,"covered":"","fee":"","operator":"","nameSource":"junction"},"sourceId":"osm"},{"id":"osm:node:13039636468","latitude":53.4644845,"longitude":-2.2351206,"name":"Burlington Street near Lime Grove","properties":{"access":"unknown","bicycle_pa":"stands","capacity":0,"covered":"yes","fee":"","operator":"","nameSource":"junction"},"sourceId":"osm"},{"id":"osm:node:13081325374","latitude":53.4742275,"longitude":-2.2369808,"name":"Charles Street near Princess Street","properties":{"access":"unknown","bicycle_pa":"stands","capacity":16,"covered":"no","fee":"","operator":"","nameSource":"junction"},"sourceId":"osm"},{"id":"osm:node:13083905560","latitude":53.4666556,"longitude":-2.2342164,"name":"Oxford Road near Bridgeford Street","properties":{"access":"unknown","bicycle_pa":"stands","capacity":12,"covered":"no","fee":"","operator":"","nameSource":"junction"},"sourceId":"osm"},{"id":"osm:node:13168096503","latitude":53.474437,"longitude":-2.2508454,"name":"Whitworth Street West near Century Street","properties":{"access":"unknown","bicycle_pa":"","capacity":0,"covered":"","fee":"","operator":"","nameSource":"junction"},"sourceId":"osm"},{"id":"osm:node:13168115101","latitude":53.4744324,"longitude":-2.2503216,"name":"Bugle Street near Whitworth Street West","properties":{"access":"unknown","bicycle_pa":"","capacity":0,"covered":"","fee":"","operator":"","nameSource":"junction"},"sourceId":"osm"},{"id":"osm:node:13177455479","latitude":53.46469,"longitude":-2.2324139,"name":"Oxford Road near Lime Grove","properties":{"access":"unknown","bicycle_pa":"stands","capacity":30,"covered":"no","fee":"","operator":"","nameSource":"junction"},"sourceId":"osm"},{"id":"osm:node:13203073821","latitude":53.4576664,"longitude":-2.2011879,"name":"Stockport Road near Mitre Road","properties":{"access":"unknown","bicycle_pa":"stands","capacity":8,"covered":"no","fee":"","operator":"","nameSource":"junction"},"sourceId":"osm"},{"id":"osm:node:13234189952","latitude":53.4654948,"longitude":-2.2164164,"name":"Guide Post Road near Denewell Avenue","properties":{"access":"unknown","bicycle_pa":"stands","capacity":8,"covered":"no","fee":"","operator":"","nameSource":"junction"},"sourceId":"osm"},{"id":"osm:node:13274080094","latitude":53.4737227,"longitude":-2.245384,"name":"Jack Rosenthal Street near Whitworth Street West","properties":{"access":"yes","bicycle_pa":"stands","capacity":12,"covered":"no","fee":"no","operator":"","nameSource":"junction"},"sourceId":"osm"},{"id":"osm:node:13289860801","latitude":53.4850344,"longitude":-2.2386863,"name":"Bradshaw Street near Shudehill","properties":{"access":"unknown","bicycle_pa":"","capacity":0,"covered":"","fee":"","operator":"","nameSource":"junction"},"sourceId":"osm"},{"id":"osm:node:13305042632","latitude":53.4719213,"longitude":-2.2554539,"name":"A57(M) cycle parking","properties":{"access":"unknown","bicycle_pa":"stands","capacity":4,"covered":"","fee":"","operator":"","nameSource":"street"},"sourceId":"osm"},{"id":"osm:node:13305042633","latitude":53.4721045,"longitude":-2.2551672,"name":"Silvercroft Street cycle parking","properties":{"access":"yes","bicycle_pa":"stands","capacity":6,"covered":"no","fee":"no","operator":"","nameSource":"street"},"sourceId":"osm"},{"id":"osm:node:13305042634","latitude":53.4721755,"longitude":-2.2549137,"name":"Silvercroft Street cycle parking","properties":{"access":"yes","bicycle_pa":"stands","capacity":6,"covered":"no","fee":"no","operator":"","nameSource":"street"},"sourceId":"osm"},{"id":"osm:node:13305042635","latitude":53.4722073,"longitude":-2.2550927,"name":"Silvercroft Street cycle parking","properties":{"access":"yes","bicycle_pa":"stands","capacity":6,"covered":"no","fee":"no","operator":"","nameSource":"street"},"sourceId":"osm"},{"id":"osm:node:13305042636","latitude":53.4721303,"longitude":-2.2545829,"name":"Silvercroft Street near Great Jackson Street","properties":{"access":"yes","bicycle_pa":"stands","capacity":10,"covered":"no","fee":"no","operator":"","nameSource":"junction"},"sourceId":"osm"},{"id":"osm:node:13311250611","latitude":53.4451439,"longitude":-2.2238433,"name":"Platt Fields Market Garden. cycle parking","properties":{"access":"yes","bicycle_pa":"stands","capacity":0,"covered":"yes","fee":"no","operator":"","nameSource":"landmark"},"sourceId":"osm"},{"id":"osm:node:1339404349","latitude":53.4390778,"longitude":-2.2660323,"name":"Fallowfield Loop cycle parking","properties":{"access":"yes","bicycle_pa":"lockers","capacity":0,"covered":"yes","fee":"","operator":"","nameSource":"street"},"sourceId":"osm"},{"id":"osm:node:13583123407","latitude":53.4667684,"longitude":-2.2301103,"name":"Brunswick Street near Rumford Street","properties":{"access":"unknown","bicycle_pa":"stands","capacity":20,"covered":"no","fee":"","operator":"","nameSource":"junction"},"sourceId":"osm"},{"id":"osm:node:13647672560","latitude":53.4437731,"longitude":-2.2136441,"name":"Whitworth Lane cycle parking","properties":{"access":"customers","bicycle_pa":"shed","capacity":0,"covered":"","fee":"no","operator":"","nameSource":"street"},"sourceId":"osm"},{"id":"osm:node:13647713710","latitude":53.4455487,"longitude":-2.2137644,"name":"Redshaw Close cycle parking","properties":{"access":"customers","bicycle_pa":"shed","capacity":30,"covered":"","fee":"no","operator":"","nameSource":"street"},"sourceId":"osm"},{"id":"osm:node:13688699530","latitude":53.4858995,"longitude":-2.2417959,"name":"Todd Street near Corporation Street","properties":{"access":"yes","bicycle_pa":"stands","capacity":8,"covered":"no","fee":"no","operator":"","nameSource":"junction"},"sourceId":"osm"},{"id":"osm:node:13727974051","latitude":53.4858587,"longitude":-2.2296022,"name":"Sherratt Street near Oldham Road","properties":{"access":"unknown","bicycle_pa":"stands","capacity":0,"covered":"no","fee":"","operator":"","nameSource":"junction"},"sourceId":"osm"},{"id":"osm:node:13786850405","latitude":53.4816901,"longitude":-2.2447441,"name":"St. Ann Street near Cross Street","properties":{"access":"yes","bicycle_pa":"stands","capacity":6,"covered":"no","fee":"no","operator":"","nameSource":"junction"},"sourceId":"osm"},{"id":"osm:node:13914226825","latitude":53.4724866,"longitude":-2.2560283,"name":"Chester Road near Deansgate Interchange","properties":{"access":"unknown","bicycle_pa":"stands","capacity":4,"covered":"no","fee":"","operator":"","nameSource":"junction"},"sourceId":"osm"},{"id":"osm:node:13965290239","latitude":53.470636,"longitude":-2.239242,"name":"Lyceum Place cycle parking","properties":{"access":"yes","bicycle_pa":"stands","capacity":12,"covered":"no","fee":"no","operator":"","nameSource":"street"},"sourceId":"osm"},{"id":"osm:node:13965290240","latitude":53.4706816,"longitude":-2.2391009,"name":"Grosvenor Square near Lower Ormond Street","properties":{"access":"yes","bicycle_pa":"stands","capacity":12,"covered":"no","fee":"no","operator":"","nameSource":"junction"},"sourceId":"osm"},{"id":"osm:node:13965290241","latitude":53.4706096,"longitude":-2.2393237,"name":"Lyceum Place cycle parking","properties":{"access":"yes","bicycle_pa":"stands","capacity":10,"covered":"no","fee":"no","operator":"","nameSource":"street"},"sourceId":"osm"},{"id":"osm:node:13965290242","latitude":53.4705637,"longitude":-2.2394659,"name":"Lyceum Place cycle parking","properties":{"access":"yes","bicycle_pa":"stands","capacity":10,"covered":"no","fee":"no","operator":"","nameSource":"street"},"sourceId":"osm"},{"id":"osm:node:13965290243","latitude":53.4705325,"longitude":-2.2395623,"name":"Lyceum Place cycle parking","properties":{"access":"yes","bicycle_pa":"stands","capacity":10,"covered":"no","fee":"no","operator":"","nameSource":"street"},"sourceId":"osm"},{"id":"osm:node:1435520098","latitude":53.4836862,"longitude":-2.2362346,"name":"John Street near Thomas Street","properties":{"access":"unknown","bicycle_pa":"stands","capacity":16,"covered":"no","fee":"","operator":"","nameSource":"junction"},"sourceId":"osm"},{"id":"osm:node:1436513240","latitude":53.483025,"longitude":-2.234894,"name":"Oldham Street near Hilton Street","properties":{"access":"unknown","bicycle_pa":"stands","capacity":3,"covered":"no","fee":"no","operator":"","nameSource":"junction"},"sourceId":"osm"},{"id":"osm:node:1493486002","latitude":53.4615048,"longitude":-2.2463318,"name":"Princess Road by Asda","properties":{"access":"unknown","bicycle_pa":"stands","capacity":10,"covered":"no","fee":"","operator":"","nameSource":"landmark"},"sourceId":"osm"},{"id":"osm:node:1503117523","latitude":53.4514623,"longitude":-2.2779829,"name":"Rye Bank Road near Royston Road","properties":{"access":"unknown","bicycle_pa":"stands","capacity":4,"covered":"no","fee":"","operator":"","nameSource":"junction"},"sourceId":"osm"},{"id":"osm:node:1512225157","latitude":53.475616,"longitude":-2.233667,"name":"Granby Row near Cobourg Street","properties":{"access":"unknown","bicycle_pa":"stands","capacity":30,"covered":"no","fee":"no","operator":"","nameSource":"junction"},"sourceId":"osm"},{"id":"osm:node:1512225172","latitude":53.4765159,"longitude":-2.2294505,"name":"Fairfield Street near Cotswold Street","properties":{"access":"unknown","bicycle_pa":"","capacity":0,"covered":"","fee":"","operator":"","nameSource":"junction"},"sourceId":"osm"},{"id":"osm:node:1512225212","latitude":53.4744661,"longitude":-2.2311242,"name":"Lower Albion Street cycle parking","properties":{"access":"unknown","bicycle_pa":"","capacity":0,"covered":"","fee":"","operator":"","nameSource":"street"},"sourceId":"osm"},{"id":"osm:node:1733314905","latitude":53.486558,"longitude":-2.2247226,"name":"Popup Bikes","properties":{"access":"customers","bicycle_pa":"building","capacity":10,"covered":"yes","fee":"yes","operator":"Popup Bikes","nameSource":"source"},"sourceId":"osm"},{"id":"osm:node:1798362636","latitude":53.4738774,"longitude":-2.2405266,"name":"Oxford Road near Oxford Street","properties":{"access":"unknown","bicycle_pa":"stands","capacity":4,"covered":"no","fee":"","operator":"","nameSource":"junction"},"sourceId":"osm"},{"id":"osm:node:1798362640","latitude":53.4743483,"longitude":-2.2515612,"name":"Deansgate near Bridgewater Viaduct","properties":{"access":"unknown","bicycle_pa":"stands","capacity":5,"covered":"no","fee":"","operator":"","nameSource":"junction"},"sourceId":"osm"},{"id":"osm:node:1798362645","latitude":53.4744425,"longitude":-2.2497749,"name":"Rowendale Street near Whitworth Street West","properties":{"access":"unknown","bicycle_pa":"stands","capacity":6,"covered":"no","fee":"","operator":"","nameSource":"junction"},"sourceId":"osm"},{"id":"osm:node:1798362648","latitude":53.4702453,"longitude":-2.2374152,"name":"Oxford Road near Cavendish Street","properties":{"access":"unknown","bicycle_pa":"stands","capacity":8,"covered":"no","fee":"","operator":"","nameSource":"junction"},"sourceId":"osm"},{"id":"osm:node:1798362649","latitude":53.4725204,"longitude":-2.2395717,"name":"Chester Street near Measham Mews","properties":{"access":"unknown","bicycle_pa":"stands","capacity":3,"covered":"no","fee":"","operator":"","nameSource":"junction"},"sourceId":"osm"},{"id":"osm:node:1798362659","latitude":53.4738682,"longitude":-2.2449282,"name":"Whitworth Street West near Jack Rosenthal Street","properties":{"access":"unknown","bicycle_pa":"stands","capacity":1,"covered":"no","fee":"","operator":"","nameSource":"junction"},"sourceId":"osm"},{"id":"osm:node:1837761325","latitude":53.4633205,"longitude":-2.2268848,"name":"Rumford Street near Nelson Street","properties":{"access":"unknown","bicycle_pa":"","capacity":0,"covered":"","fee":"","operator":"","nameSource":"junction"},"sourceId":"osm"},{"id":"osm:node:2331735804","latitude":53.4830677,"longitude":-2.2392526,"name":"High Street near Church Street","properties":{"access":"unknown","bicycle_pa":"","capacity":8,"covered":"","fee":"","operator":"","nameSource":"junction"},"sourceId":"osm"},{"id":"osm:node:2331739465","latitude":53.4826718,"longitude":-2.2426643,"name":"Pall Mall near Market Street","properties":{"access":"unknown","bicycle_pa":"stands","capacity":8,"covered":"no","fee":"","operator":"","nameSource":"junction"},"sourceId":"osm"},{"id":"osm:node:2338746903","latitude":53.4466052,"longitude":-2.2773555,"name":"Manchester Road near Ransfield Road","properties":{"access":"unknown","bicycle_pa":"stands","capacity":24,"covered":"no","fee":"","operator":"","nameSource":"junction"},"sourceId":"osm"},{"id":"osm:node:2354465120","latitude":53.4799385,"longitude":-2.2386481,"name":"City Tower Cycle Hub","properties":{"access":"private","bicycle_pa":"building","capacity":200,"covered":"yes","fee":"yes","operator":"TFGM","nameSource":"source"},"sourceId":"osm"},{"id":"osm:node:2354467101","latitude":53.476606,"longitude":-2.231196,"name":"London Road near Fairfield Street","properties":{"access":"unknown","bicycle_pa":"rack","capacity":24,"covered":"no","fee":"no","operator":"","nameSource":"junction"},"sourceId":"osm"},{"id":"osm:node:2354467102","latitude":53.4779731,"longitude":-2.2307496,"name":"Store Street by Doddle","properties":{"access":"unknown","bicycle_pa":"stands","capacity":10,"covered":"no","fee":"","operator":"","nameSource":"landmark"},"sourceId":"osm"},{"id":"osm:node:2354467103","latitude":53.4776762,"longitude":-2.2318923,"name":"London Road near Store Street","properties":{"access":"unknown","bicycle_pa":"rack","capacity":20,"covered":"","fee":"","operator":"","nameSource":"junction"},"sourceId":"osm"},{"id":"osm:node:2444640432","latitude":53.4859119,"longitude":-2.235415,"name":"Higher Oswald Street near Swan Street","properties":{"access":"unknown","bicycle_pa":"stands","capacity":10,"covered":"no","fee":"","operator":"","nameSource":"junction"},"sourceId":"osm"},{"id":"osm:node:2494502475","latitude":53.4451124,"longitude":-2.2787149,"name":"Longford Road near Manchester Road","properties":{"access":"unknown","bicycle_pa":"stands","capacity":6,"covered":"no","fee":"","operator":"","nameSource":"junction"},"sourceId":"osm"},{"id":"osm:node:2494502476","latitude":53.4449478,"longitude":-2.2787711,"name":"Longford Road near Manchester Road","properties":{"access":"unknown","bicycle_pa":"stands","capacity":10,"covered":"no","fee":"","operator":"","nameSource":"junction"},"sourceId":"osm"},{"id":"osm:node:2494502477","latitude":53.4470198,"longitude":-2.2774192,"name":"Kensington Road near Manchester Road","properties":{"access":"unknown","bicycle_pa":"stands","capacity":4,"covered":"no","fee":"","operator":"","nameSource":"junction"},"sourceId":"osm"},{"id":"osm:node:2653751412","latitude":53.4645367,"longitude":-2.2461697,"name":"Archway near Phoenix Way","properties":{"access":"unknown","bicycle_pa":"","capacity":0,"covered":"no","fee":"","operator":"","nameSource":"junction"},"sourceId":"osm"},{"id":"osm:node:2721669961","latitude":53.475119,"longitude":-2.234533,"name":"Altrincham Street near Sackville Street","properties":{"access":"unknown","bicycle_pa":"stands","capacity":40,"covered":"yes","fee":"no","operator":"","nameSource":"junction"},"sourceId":"osm"},{"id":"osm:node:2723696952","latitude":53.4767444,"longitude":-2.2340661,"name":"Aytoun Street near Chorlton Street","properties":{"access":"unknown","bicycle_pa":"stands","capacity":6,"covered":"no","fee":"no","operator":"","nameSource":"junction"},"sourceId":"osm"},{"id":"osm:node:2741556939","latitude":53.4384046,"longitude":-2.2798037,"name":"Beech Road near Chequers Road","properties":{"access":"unknown","bicycle_pa":"stands","capacity":6,"covered":"no","fee":"no","operator":"Ludo","nameSource":"junction"},"sourceId":"osm"},{"id":"osm:node:2777515969","latitude":53.472604,"longitude":-2.241926,"name":"Hulme Street near Great Marlborough Street","properties":{"access":"unknown","bicycle_pa":"stands","capacity":6,"covered":"no","fee":"no","operator":"","nameSource":"junction"},"sourceId":"osm"},{"id":"osm:node:2777516135","latitude":53.472427,"longitude":-2.24296,"name":"Hulme Street near Lower Chatham Street","properties":{"access":"unknown","bicycle_pa":"stands","capacity":6,"covered":"no","fee":"no","operator":"","nameSource":"junction"},"sourceId":"osm"},{"id":"osm:node:2779621234","latitude":53.4753645,"longitude":-2.2333027,"name":"Altrincham Street Cycle Shelter (Staff and Postgrads)","properties":{"access":"private","bicycle_pa":"stands","capacity":50,"covered":"yes","fee":"no","operator":"","nameSource":"source"},"sourceId":"osm"},{"id":"osm:node:2779622531","latitude":53.4754013,"longitude":-2.2331409,"name":"Altrincham Street Cycle Shelter (Undergrads)","properties":{"access":"private","bicycle_pa":"stands","capacity":50,"covered":"no","fee":"no","operator":"","nameSource":"source"},"sourceId":"osm"},{"id":"osm:node:2779624602","latitude":53.475487,"longitude":-2.232722,"name":"Altrincham Street cycle parking","properties":{"access":"unknown","bicycle_pa":"stands","capacity":20,"covered":"no","fee":"no","operator":"","nameSource":"street"},"sourceId":"osm"},{"id":"osm:node:2779626813","latitude":53.475567,"longitude":-2.233919,"name":"Granby Row near Cobourg Street","properties":{"access":"unknown","bicycle_pa":"stands","capacity":45,"covered":"yes","fee":"no","operator":"","nameSource":"junction"},"sourceId":"osm"},{"id":"osm:node:2791915981","latitude":53.472005,"longitude":-2.238939,"name":"Oxford Road near Newman Street","properties":{"access":"unknown","bicycle_pa":"stands","capacity":6,"covered":"no","fee":"no","operator":"","nameSource":"junction"},"sourceId":"osm"},{"id":"osm:node:2791916009","latitude":53.472087,"longitude":-2.238662,"name":"Oxford Road near Newman Street","properties":{"access":"unknown","bicycle_pa":"stands","capacity":8,"covered":"no","fee":"no","operator":"","nameSource":"junction"},"sourceId":"osm"},{"id":"osm:node:2791919859","latitude":53.467959,"longitude":-2.234694,"name":"Oxford Road near Booth Street East","properties":{"access":"unknown","bicycle_pa":"stands","capacity":32,"covered":"yes","fee":"no","operator":"","nameSource":"junction"},"sourceId":"osm"},{"id":"osm:node:2791920659","latitude":53.466394,"longitude":-2.235415,"name":"Bridgeford Street near Jenkinson Street","properties":{"access":"unknown","bicycle_pa":"","capacity":30,"covered":"","fee":"","operator":"","nameSource":"junction"},"sourceId":"osm"},{"id":"osm:node:2791921306","latitude":53.466318,"longitude":-2.235784,"name":"Bridgeford Street near Jenkinson Street","properties":{"access":"unknown","bicycle_pa":"stands","capacity":40,"covered":"no","fee":"no","operator":"","nameSource":"junction"},"sourceId":"osm"},{"id":"osm:node:2791921330","latitude":53.466012,"longitude":-2.236361,"name":"Bridgeford Street near Higher Chatham Street","properties":{"access":"unknown","bicycle_pa":"stands","capacity":8,"covered":"no","fee":"no","operator":"","nameSource":"junction"},"sourceId":"osm"},{"id":"osm:node:2791925461","latitude":53.465812,"longitude":-2.236938,"name":"Bridgeford Street near Higher Chatham Street","properties":{"access":"unknown","bicycle_pa":"wall_loops","capacity":4,"covered":"no","fee":"no","operator":"","nameSource":"junction"},"sourceId":"osm"},{"id":"osm:node:2794626912","latitude":53.4823208,"longitude":-2.2330886,"name":"Little Lever Street near Hilton Street","properties":{"access":"unknown","bicycle_pa":"stands","capacity":4,"covered":"no","fee":"","operator":"","nameSource":"junction"},"sourceId":"osm"},{"id":"osm:node:2810205989","latitude":53.4429358,"longitude":-2.2186255,"name":"Wilmslow Road near Landcross Road","properties":{"access":"unknown","bicycle_pa":"stands","capacity":4,"covered":"no","fee":"","operator":"","nameSource":"junction"},"sourceId":"osm"},{"id":"osm:node:2810205990","latitude":53.4439295,"longitude":-2.2185263,"name":"Wilmslow Road near Cawdor Road","properties":{"access":"unknown","bicycle_pa":"stands","capacity":2,"covered":"no","fee":"","operator":"","nameSource":"junction"},"sourceId":"osm"},{"id":"osm:node:2810257677","latitude":53.4573869,"longitude":-2.226361,"name":"Wilmslow Road near Banff Road","properties":{"access":"unknown","bicycle_pa":"stands","capacity":8,"covered":"no","fee":"","operator":"","nameSource":"junction"},"sourceId":"osm"},{"id":"osm:node:2810257681","latitude":53.4585675,"longitude":-2.2271767,"name":"Wilmslow Road near Moss Lane East","properties":{"access":"unknown","bicycle_pa":"stands","capacity":6,"covered":"no","fee":"","operator":"","nameSource":"junction"},"sourceId":"osm"},{"id":"osm:node:2810257683","latitude":53.4614929,"longitude":-2.22894,"name":"Oxford Road near Denmark Road","properties":{"access":"unknown","bicycle_pa":"stands","capacity":10,"covered":"no","fee":"","operator":"","nameSource":"junction"},"sourceId":"osm"},{"id":"osm:node:2810257684","latitude":53.4638728,"longitude":-2.2308852,"name":"Oxford Road near Ackers Street","properties":{"access":"unknown","bicycle_pa":"stands","capacity":100,"covered":"no","fee":"","operator":"","nameSource":"junction"},"sourceId":"osm"},{"id":"osm:node:2810260417","latitude":53.4660405,"longitude":-2.2325696,"name":"Brunswick Street near Oxford Road","properties":{"access":"unknown","bicycle_pa":"stands","capacity":20,"covered":"no","fee":"","operator":"","nameSource":"junction"},"sourceId":"osm"},{"id":"osm:node:2810260425","latitude":53.4663861,"longitude":-2.2335043,"name":"Oxford Road near Bridgeford Street","properties":{"access":"unknown","bicycle_pa":"stands","capacity":20,"covered":"no","fee":"","operator":"","nameSource":"junction"},"sourceId":"osm"},{"id":"osm:node:2810260440","latitude":53.4679231,"longitude":-2.2368093,"name":"Booth Street West cycle parking","properties":{"access":"unknown","bicycle_pa":"","capacity":0,"covered":"","fee":"","operator":"","nameSource":"street"},"sourceId":"osm"},{"id":"osm:node:2810277846","latitude":53.4454468,"longitude":-2.2171872,"name":"Wilmslow Road cycle parking","properties":{"access":"unknown","bicycle_pa":"","capacity":0,"covered":"","fee":"","operator":"","nameSource":"street"},"sourceId":"osm"},{"id":"osm:node:2810277847","latitude":53.4454745,"longitude":-2.2165856,"name":"Wilmslow Road cycle parking","properties":{"access":"unknown","bicycle_pa":"","capacity":0,"covered":"","fee":"","operator":"","nameSource":"street"},"sourceId":"osm"},{"id":"osm:node:2810277848","latitude":53.4454852,"longitude":-2.2161356,"name":"Whitworth Lane cycle parking","properties":{"access":"unknown","bicycle_pa":"","capacity":0,"covered":"","fee":"","operator":"","nameSource":"street"},"sourceId":"osm"},{"id":"osm:node:2810277878","latitude":53.4528567,"longitude":-2.2228958,"name":"Wilmslow Road near Claremont Road","properties":{"access":"unknown","bicycle_pa":"stands","capacity":10,"covered":"no","fee":"","operator":"","nameSource":"junction"},"sourceId":"osm"},{"id":"osm:node:2819588480","latitude":53.4768315,"longitude":-2.2459066,"name":"Windmill Street near Mount Street","properties":{"access":"unknown","bicycle_pa":"stands","capacity":8,"covered":"no","fee":"","operator":"","nameSource":"junction"},"sourceId":"osm"},{"id":"osm:node:2819588481","latitude":53.4774432,"longitude":-2.2475313,"name":"Windmill Street near Southmill Street","properties":{"access":"unknown","bicycle_pa":"stands","capacity":6,"covered":"no","fee":"","operator":"","nameSource":"junction"},"sourceId":"osm"},{"id":"osm:node:2819588482","latitude":53.4806313,"longitude":-2.234184,"name":"Piccadilly near Newton Street","properties":{"access":"yes","bicycle_pa":"stands","capacity":1,"covered":"no","fee":"","operator":"","nameSource":"junction"},"sourceId":"osm"},{"id":"osm:node:2819600248","latitude":53.4777142,"longitude":-2.2303819,"name":"Piccadilly Station by Doddle","properties":{"access":"unknown","bicycle_pa":"stands","capacity":0,"covered":"no","fee":"","operator":"","nameSource":"landmark"},"sourceId":"osm"},{"id":"osm:node:2819600249","latitude":53.4780726,"longitude":-2.230508,"name":"Store Street by Doddle","properties":{"access":"unknown","bicycle_pa":"stands","capacity":0,"covered":"no","fee":"","operator":"","nameSource":"landmark"},"sourceId":"osm"},{"id":"osm:node:2819600253","latitude":53.4833875,"longitude":-2.2240674,"name":"Keepers Quay by Marina Salon by FKZ","properties":{"access":"unknown","bicycle_pa":"stands","capacity":6,"covered":"no","fee":"","operator":"","nameSource":"landmark"},"sourceId":"osm"},{"id":"osm:node:2819600254","latitude":53.4842692,"longitude":-2.2293021,"name":"Cotton Street near Blossom Street","properties":{"access":"yes","bicycle_pa":"stands","capacity":8,"covered":"no","fee":"","operator":"","nameSource":"junction"},"sourceId":"osm"},{"id":"osm:node:2819600259","latitude":53.4824778,"longitude":-2.2333094,"name":"Stevenson Square near Hilton Street","properties":{"access":"yes","bicycle_pa":"stands","capacity":8,"covered":"no","fee":"","operator":"","nameSource":"junction"},"sourceId":"osm"},{"id":"osm:node:2822939401","latitude":53.4711233,"longitude":-2.236445,"name":"Hillcourt Street near Sidney Street","properties":{"access":"unknown","bicycle_pa":"stands","capacity":20,"covered":"no","fee":"","operator":"","nameSource":"junction"},"sourceId":"osm"},{"id":"osm:node:2822959342","latitude":53.4674939,"longitude":-2.2488427,"name":"New Welcome Street near Stretford Road","properties":{"access":"yes","bicycle_pa":"stands","capacity":5,"covered":"no","fee":"","operator":"","nameSource":"junction"},"sourceId":"osm"},{"id":"osm:node:2823670519","latitude":53.4762516,"longitude":-2.2385542,"name":"Princess Street near Canal Street","properties":{"access":"yes","bicycle_pa":"stands","capacity":8,"covered":"no","fee":"no","operator":"","nameSource":"junction"},"sourceId":"osm"},{"id":"osm:node:2839829811","latitude":53.4879359,"longitude":-2.2380607,"name":"Angel Square near Dantzic Street","properties":{"access":"unknown","bicycle_pa":"stands","capacity":8,"covered":"no","fee":"","operator":"","nameSource":"junction"},"sourceId":"osm"},{"id":"osm:node:2839829812","latitude":53.4876354,"longitude":-2.2372856,"name":"Angel Street by Angel Square","properties":{"access":"unknown","bicycle_pa":"stands","capacity":8,"covered":"no","fee":"","operator":"","nameSource":"landmark"},"sourceId":"osm"},{"id":"osm:node:2839829813","latitude":53.4824644,"longitude":-2.2416218,"name":"Brown Street near Market Street","properties":{"access":"yes","bicycle_pa":"stands","capacity":8,"covered":"no","fee":"","operator":"","nameSource":"junction"},"sourceId":"osm"},{"id":"osm:node:2839829814","latitude":53.4846022,"longitude":-2.241084,"name":"Withy Grove near Garden Street","properties":{"access":"yes","bicycle_pa":"stands","capacity":20,"covered":"no","fee":"no","operator":"","nameSource":"junction"},"sourceId":"osm"},{"id":"osm:node:2839829816","latitude":53.4834662,"longitude":-2.2433099,"name":"Corporation Street near Cross Street","properties":{"access":"yes","bicycle_pa":"stands","capacity":8,"covered":"no","fee":"","operator":"","nameSource":"junction"},"sourceId":"osm"},{"id":"osm:node:2839829817","latitude":53.4810991,"longitude":-2.2446341,"name":"King Street near Cross Street","properties":{"access":"yes","bicycle_pa":"stands","capacity":0,"covered":"no","fee":"","operator":"","nameSource":"junction"},"sourceId":"osm"},{"id":"osm:node:2876215001","latitude":53.482245,"longitude":-2.240748,"name":"Spring Gardens near Market Street","properties":{"access":"unknown","bicycle_pa":"stands","capacity":16,"covered":"no","fee":"no","operator":"","nameSource":"junction"},"sourceId":"osm"},{"id":"osm:node:2912597578","latitude":53.4842517,"longitude":-2.235403,"name":"Oak Street near Copperas Street","properties":{"access":"yes","bicycle_pa":"stands","capacity":0,"covered":"yes","fee":"","operator":"","nameSource":"junction"},"sourceId":"osm"},{"id":"osm:node:2912598641","latitude":53.482952,"longitude":-2.2362442,"name":"Tib Street near Church Street","properties":{"access":"yes","bicycle_pa":"stands","capacity":4,"covered":"no","fee":"","operator":"","nameSource":"junction"},"sourceId":"osm"},{"id":"osm:node:2918829401","latitude":53.479874,"longitude":-2.229946,"name":"Ducie Street near Jutland Street","properties":{"access":"unknown","bicycle_pa":"stands","capacity":4,"covered":"no","fee":"no","operator":"","nameSource":"junction"},"sourceId":"osm"},{"id":"osm:node:2940491790","latitude":53.4742398,"longitude":-2.2819546,"name":"Jennings Avenue near Phoebe Street","properties":{"access":"unknown","bicycle_pa":"","capacity":0,"covered":"","fee":"","operator":"","nameSource":"junction"},"sourceId":"osm"},{"id":"osm:node:3006881377","latitude":53.4626135,"longitude":-2.283323,"name":"Chester Road near White City Circle","properties":{"access":"unknown","bicycle_pa":"stands","capacity":10,"covered":"no","fee":"","operator":"","nameSource":"junction"},"sourceId":"osm"},{"id":"osm:node:3030764992","latitude":53.482827,"longitude":-2.2340794,"name":"Stevenson Square near Hilton Street","properties":{"access":"unknown","bicycle_pa":"stands","capacity":4,"covered":"no","fee":"","operator":"","nameSource":"junction"},"sourceId":"osm"},{"id":"osm:node:3030765287","latitude":53.4826291,"longitude":-2.234302,"name":"Stevenson Square near Spear Street","properties":{"access":"unknown","bicycle_pa":"stands","capacity":8,"covered":"","fee":"","operator":"","nameSource":"junction"},"sourceId":"osm"},{"id":"osm:node:3030766170","latitude":53.4827966,"longitude":-2.2340045,"name":"Stevenson Square near Hilton Street","properties":{"access":"unknown","bicycle_pa":"stands","capacity":4,"covered":"no","fee":"","operator":"","nameSource":"junction"},"sourceId":"osm"},{"id":"osm:node:307535210","latitude":53.466382,"longitude":-2.2225831,"name":"Thomson Street near Wilson Street","properties":{"access":"unknown","bicycle_pa":"stands","capacity":6,"covered":"no","fee":"","operator":"","nameSource":"junction"},"sourceId":"osm"},{"id":"osm:node:307675729","latitude":53.4601675,"longitude":-2.2490276,"name":"Moss Lane East near Hulme High Street","properties":{"access":"unknown","bicycle_pa":"shed","capacity":0,"covered":"","fee":"","operator":"","nameSource":"junction"},"sourceId":"osm"},{"id":"osm:node:307675875","latitude":53.4608755,"longitude":-2.2479716,"name":"Hulme High Street near Southcombe Walk","properties":{"access":"unknown","bicycle_pa":"","capacity":0,"covered":"no","fee":"","operator":"","nameSource":"junction"},"sourceId":"osm"},{"id":"osm:node:307675876","latitude":53.460771,"longitude":-2.2481507,"name":"Hulme High Street near Southcombe Walk","properties":{"access":"unknown","bicycle_pa":"","capacity":0,"covered":"no","fee":"","operator":"","nameSource":"junction"},"sourceId":"osm"},{"id":"osm:node:309265773","latitude":53.4658523,"longitude":-2.2163721,"name":"Guide Post Road near Denewell Avenue","properties":{"access":"unknown","bicycle_pa":"","capacity":0,"covered":"","fee":"","operator":"","nameSource":"junction"},"sourceId":"osm"},{"id":"osm:node:3185353682","latitude":53.4741236,"longitude":-2.2414574,"name":"Station Approach near Whitworth Street West","properties":{"access":"yes","bicycle_pa":"shed","capacity":0,"covered":"yes","fee":"yes","operator":"","nameSource":"junction"},"sourceId":"osm"},{"id":"osm:node:334642257","latitude":53.4795257,"longitude":-2.2491257,"name":"Hardman Street near Tivoli Street","properties":{"access":"unknown","bicycle_pa":"safe_loops","capacity":4,"covered":"no","fee":"","operator":"","nameSource":"junction"},"sourceId":"osm"},{"id":"osm:node:3450199128","latitude":53.4422105,"longitude":-2.2049448,"name":"Moseley Road near A34","properties":{"access":"unknown","bicycle_pa":"stands","capacity":4,"covered":"","fee":"","operator":"","nameSource":"junction"},"sourceId":"osm"},{"id":"osm:node:3635453697","latitude":53.478463,"longitude":-2.239828,"name":"Faulkner Street near Nicholas Street","properties":{"access":"unknown","bicycle_pa":"stands","capacity":6,"covered":"no","fee":"no","operator":"","nameSource":"junction"},"sourceId":"osm"},{"id":"osm:node:3671838236","latitude":53.483143,"longitude":-2.263613,"name":"Chapel Street near Wroe Street","properties":{"access":"unknown","bicycle_pa":"stands","capacity":10,"covered":"no","fee":"no","operator":"","nameSource":"junction"},"sourceId":"osm"},{"id":"osm:node:3677418725","latitude":53.4786927,"longitude":-2.2404489,"name":"George Street near Nicholas Street","properties":{"access":"unknown","bicycle_pa":"stands","capacity":6,"covered":"no","fee":"no","operator":"","nameSource":"junction"},"sourceId":"osm"},{"id":"osm:node:3701459427","latitude":53.4494818,"longitude":-2.2486909,"name":"Demesne Road by Bembe Cafe","properties":{"access":"yes","bicycle_pa":"stands","capacity":6,"covered":"no","fee":"no","operator":"","nameSource":"landmark"},"sourceId":"osm"},{"id":"osm:node:3706613926","latitude":53.451733,"longitude":-2.257271,"name":"Mayfield Road near Withington Road","properties":{"access":"unknown","bicycle_pa":"wall_loops","capacity":3,"covered":"no","fee":"no","operator":"","nameSource":"junction"},"sourceId":"osm"},{"id":"osm:node:3810235803","latitude":53.4725479,"longitude":-2.2423805,"name":"Hulme Street near Lower Chatham Street","properties":{"access":"unknown","bicycle_pa":"stands","capacity":4,"covered":"no","fee":"","operator":"","nameSource":"junction"},"sourceId":"osm"},{"id":"osm:node:3875308844","latitude":53.4767703,"longitude":-2.2544553,"name":"Lower Byrom Street near Liverpool Road","properties":{"access":"unknown","bicycle_pa":"stands","capacity":10,"covered":"no","fee":"","operator":"","nameSource":"junction"},"sourceId":"osm"},{"id":"osm:node:3875312759","latitude":53.4876347,"longitude":-2.2434641,"name":"Hunts Bank near Victoria Station Approach","properties":{"access":"unknown","bicycle_pa":"stands","capacity":10,"covered":"yes","fee":"","operator":"","nameSource":"junction"},"sourceId":"osm"},{"id":"osm:node:4438239739","latitude":53.4832353,"longitude":-2.2611094,"name":"Islington Street near Chapel Street","properties":{"access":"unknown","bicycle_pa":"stands","capacity":10,"covered":"no","fee":"","operator":"","nameSource":"junction"},"sourceId":"osm"},{"id":"osm:node:4607609436","latitude":53.4838227,"longitude":-2.2338163,"name":"Warwick Street near Oldham Street","properties":{"access":"unknown","bicycle_pa":"stands","capacity":2,"covered":"no","fee":"","operator":"","nameSource":"junction"},"sourceId":"osm"},{"id":"osm:node:4636410488","latitude":53.4658331,"longitude":-2.282941,"name":"Exchange Quay by The Post Office","properties":{"access":"unknown","bicycle_pa":"shed","capacity":0,"covered":"yes","fee":"","operator":"","nameSource":"landmark"},"sourceId":"osm"},{"id":"osm:node:4865904009","latitude":53.4550518,"longitude":-2.2251383,"name":"Walmer Street East near Wilmslow Road","properties":{"access":"unknown","bicycle_pa":"stands","capacity":8,"covered":"no","fee":"","operator":"","nameSource":"junction"},"sourceId":"osm"},{"id":"osm:node:4865904010","latitude":53.4554783,"longitude":-2.2251155,"name":"Wilmslow Road near Denison Street","properties":{"access":"unknown","bicycle_pa":"stands","capacity":6,"covered":"no","fee":"","operator":"","nameSource":"junction"},"sourceId":"osm"},{"id":"osm:node:4865920989","latitude":53.4535701,"longitude":-2.223447,"name":"Park Crescent near Wilmslow Road","properties":{"access":"unknown","bicycle_pa":"stands","capacity":10,"covered":"no","fee":"","operator":"","nameSource":"junction"},"sourceId":"osm"},{"id":"osm:node:4865955621","latitude":53.4536601,"longitude":-2.2238978,"name":"Grandale Street near Wilmslow Road","properties":{"access":"unknown","bicycle_pa":"stands","capacity":10,"covered":"no","fee":"","operator":"","nameSource":"junction"},"sourceId":"osm"},{"id":"osm:node:4866137659","latitude":53.4419615,"longitude":-2.218423,"name":"Carill Drive near Standish Road","properties":{"access":"yes","bicycle_pa":"stands","capacity":16,"covered":"no","fee":"","operator":"","nameSource":"junction"},"sourceId":"osm"},{"id":"osm:node:4947556352","latitude":53.4580289,"longitude":-2.2015768,"name":"Longsight Health Centre by Longsight Library","properties":{"access":"unknown","bicycle_pa":"stands","capacity":10,"covered":"no","fee":"","operator":"","nameSource":"landmark"},"sourceId":"osm"},{"id":"osm:node:5082659406","latitude":53.4804946,"longitude":-2.2398513,"name":"York Street near Mosley Street","properties":{"access":"unknown","bicycle_pa":"stands","capacity":12,"covered":"no","fee":"","operator":"","nameSource":"junction"},"sourceId":"osm"},{"id":"osm:node:5185215374","latitude":53.4665627,"longitude":-2.2362334,"name":"Bridgeford Street near Higher Chatham Street","properties":{"access":"unknown","bicycle_pa":"stands","capacity":7,"covered":"no","fee":"","operator":"","nameSource":"junction"},"sourceId":"osm"},{"id":"osm:node:5359677382","latitude":53.4630829,"longitude":-2.2459296,"name":"Greenheys Lane West cycle parking","properties":{"access":"private","bicycle_pa":"stands","capacity":0,"covered":"no","fee":"","operator":"","nameSource":"street"},"sourceId":"osm"},{"id":"osm:node:5611353664","latitude":53.435968,"longitude":-2.2463717,"name":"Princess Road near Whitchurch Road","properties":{"access":"unknown","bicycle_pa":"stands","capacity":20,"covered":"yes","fee":"","operator":"","nameSource":"junction"},"sourceId":"osm"},{"id":"osm:node:5628834887","latitude":53.485653,"longitude":-2.2436132,"name":"Long Millgate cycle parking","properties":{"access":"unknown","bicycle_pa":"stands","capacity":6,"covered":"no","fee":"","operator":"","nameSource":"street"},"sourceId":"osm"},{"id":"osm:node:5630756226","latitude":53.487368,"longitude":-2.2434672,"name":"Hunts Bank near Victoria Station Approach","properties":{"access":"unknown","bicycle_pa":"stands","capacity":20,"covered":"no","fee":"","operator":"","nameSource":"junction"},"sourceId":"osm"},{"id":"osm:node:5631226345","latitude":53.4801088,"longitude":-2.2551741,"name":"Water Street near New Quay Street","properties":{"access":"unknown","bicycle_pa":"stands","capacity":16,"covered":"no","fee":"","operator":"","nameSource":"junction"},"sourceId":"osm"},{"id":"osm:node:5813282001","latitude":53.4781739,"longitude":-2.2452981,"name":"Bootle Street near Mount Street","properties":{"access":"unknown","bicycle_pa":"stands","capacity":18,"covered":"no","fee":"","operator":"","nameSource":"junction"},"sourceId":"osm"},{"id":"osm:node:6301959761","latitude":53.4796136,"longitude":-2.2504967,"name":"Hardman Street near Joddrell Street","properties":{"access":"unknown","bicycle_pa":"stands","capacity":14,"covered":"no","fee":"","operator":"","nameSource":"junction"},"sourceId":"osm"},{"id":"osm:node:6311566040","latitude":53.4679362,"longitude":-2.2311466,"name":"Wilton Street near Rumford Street","properties":{"access":"unknown","bicycle_pa":"","capacity":0,"covered":"no","fee":"","operator":"","nameSource":"junction"},"sourceId":"osm"},{"id":"osm:node:6319100864","latitude":53.4619941,"longitude":-2.2294941,"name":"Oxford Road near Nelson Street","properties":{"access":"unknown","bicycle_pa":"stands","capacity":6,"covered":"no","fee":"","operator":"","nameSource":"junction"},"sourceId":"osm"},{"id":"osm:node:6319100865","latitude":53.4629845,"longitude":-2.2302776,"name":"Oxford Road near Grafton Street","properties":{"access":"unknown","bicycle_pa":"stands","capacity":8,"covered":"no","fee":"","operator":"","nameSource":"junction"},"sourceId":"osm"},{"id":"osm:node:6319104107","latitude":53.4624649,"longitude":-2.2298413,"name":"Oxford Road near Nelson Street","properties":{"access":"unknown","bicycle_pa":"stands","capacity":20,"covered":"no","fee":"","operator":"","nameSource":"junction"},"sourceId":"osm"},{"id":"osm:node:6319104109","latitude":53.4651378,"longitude":-2.2327746,"name":"Oxford Road near Burlington Street","properties":{"access":"unknown","bicycle_pa":"stands","capacity":8,"covered":"no","fee":"","operator":"","nameSource":"junction"},"sourceId":"osm"},{"id":"osm:node:6319104351","latitude":53.4642431,"longitude":-2.2318631,"name":"Oxford Road near Ackers Street","properties":{"access":"unknown","bicycle_pa":"stands","capacity":14,"covered":"no","fee":"","operator":"","nameSource":"junction"},"sourceId":"osm"},{"id":"osm:node:6322057206","latitude":53.4660156,"longitude":-2.2320206,"name":"Brunswick Street cycle parking","properties":{"access":"unknown","bicycle_pa":"stands","capacity":44,"covered":"no","fee":"","operator":"","nameSource":"street"},"sourceId":"osm"},{"id":"osm:node:6358514391","latitude":53.48243,"longitude":-2.2335872,"name":"Stevenson Square near Lever Street","properties":{"access":"unknown","bicycle_pa":"stands","capacity":12,"covered":"no","fee":"","operator":"","nameSource":"junction"},"sourceId":"osm"},{"id":"osm:node:6395728398","latitude":53.4425507,"longitude":-2.2768481,"name":"Wilbraham Road near Barlow Moor Road","properties":{"access":"unknown","bicycle_pa":"stands","capacity":4,"covered":"no","fee":"no","operator":"","nameSource":"junction"},"sourceId":"osm"},{"id":"osm:node:6395728401","latitude":53.4422836,"longitude":-2.2769248,"name":"Barlow Moor Road near Wilbraham Road","properties":{"access":"unknown","bicycle_pa":"stands","capacity":6,"covered":"no","fee":"no","operator":"","nameSource":"junction"},"sourceId":"osm"},{"id":"osm:node:6395728404","latitude":53.4424392,"longitude":-2.2776347,"name":"Wilbraham Road near Barlow Moor Road","properties":{"access":"unknown","bicycle_pa":"stands","capacity":6,"covered":"no","fee":"no","operator":"","nameSource":"junction"},"sourceId":"osm"},{"id":"osm:node:6395728407","latitude":53.4424712,"longitude":-2.2782321,"name":"Wilbraham Road near Brundretts Road","properties":{"access":"unknown","bicycle_pa":"stands","capacity":6,"covered":"no","fee":"no","operator":"","nameSource":"junction"},"sourceId":"osm"},{"id":"osm:node:6396038354","latitude":53.4424157,"longitude":-2.2745763,"name":"Wilbraham Road near Albany Road","properties":{"access":"unknown","bicycle_pa":"stands","capacity":6,"covered":"no","fee":"no","operator":"","nameSource":"junction"},"sourceId":"osm"},{"id":"osm:node:6396090177","latitude":53.4398543,"longitude":-2.2667141,"name":"Egerton Road South near St Werburgh's Road","properties":{"access":"unknown","bicycle_pa":"stands","capacity":2,"covered":"no","fee":"no","operator":"","nameSource":"junction"},"sourceId":"osm"},{"id":"osm:node:6456420511","latitude":53.47629,"longitude":-2.253002,"name":"Byrom Street near Tonman Street","properties":{"access":"unknown","bicycle_pa":"stands","capacity":16,"covered":"no","fee":"","operator":"","nameSource":"junction"},"sourceId":"osm"},{"id":"osm:node:6478358636","latitude":53.4715407,"longitude":-2.2386907,"name":"Mancunian Way cycle parking","properties":{"access":"permit","bicycle_pa":"anchors","capacity":80,"covered":"yes","fee":"","operator":"Univesity of Manchester","nameSource":"street"},"sourceId":"osm"},{"id":"osm:node:6497161437","latitude":53.4790257,"longitude":-2.2348896,"name":"Bloom Street near Aytoun Street","properties":{"access":"unknown","bicycle_pa":"stands","capacity":20,"covered":"no","fee":"","operator":"","nameSource":"junction"},"sourceId":"osm"},{"id":"osm:node:6497161451","latitude":53.478623,"longitude":-2.2340365,"name":"Aytoun Street near Auburn Street","properties":{"access":"unknown","bicycle_pa":"stands","capacity":8,"covered":"no","fee":"","operator":"","nameSource":"junction"},"sourceId":"osm"},{"id":"osm:node:6859029274","latitude":53.453515,"longitude":-2.2449043,"name":"Princess Road near Claremont Road","properties":{"access":"unknown","bicycle_pa":"stands","capacity":6,"covered":"no","fee":"no","operator":"","nameSource":"junction"},"sourceId":"osm"},{"id":"osm:node:6859029275","latitude":53.453167,"longitude":-2.2469353,"name":"Smalldale Avenue near Claremont Road","properties":{"access":"unknown","bicycle_pa":"stands","capacity":6,"covered":"no","fee":"no","operator":"","nameSource":"junction"},"sourceId":"osm"},{"id":"osm:node:6943641524","latitude":53.4774095,"longitude":-2.2464344,"name":"Museum Street near Windmill Street","properties":{"access":"unknown","bicycle_pa":"stands","capacity":20,"covered":"","fee":"","operator":"","nameSource":"junction"},"sourceId":"osm"},{"id":"osm:node:6943641525","latitude":53.4773216,"longitude":-2.2435502,"name":"Oxford Street near St Peter's Square","properties":{"access":"unknown","bicycle_pa":"stands","capacity":34,"covered":"no","fee":"","operator":"","nameSource":"junction"},"sourceId":"osm"},{"id":"osm:node:6943641527","latitude":53.481408,"longitude":-2.236761,"name":"Piccadilly near Oldham Street","properties":{"access":"unknown","bicycle_pa":"stands","capacity":16,"covered":"no","fee":"","operator":"","nameSource":"junction"},"sourceId":"osm"},{"id":"osm:node:6943641528","latitude":53.4812099,"longitude":-2.2363224,"name":"Piccadilly near Lever Street","properties":{"access":"unknown","bicycle_pa":"stands","capacity":16,"covered":"no","fee":"","operator":"","nameSource":"junction"},"sourceId":"osm"},{"id":"osm:node:6943641529","latitude":53.4801345,"longitude":-2.2358306,"name":"Aytoun Street near Portland Street","properties":{"access":"unknown","bicycle_pa":"stands","capacity":8,"covered":"no","fee":"","operator":"","nameSource":"junction"},"sourceId":"osm"},{"id":"osm:node:6943641530","latitude":53.4809343,"longitude":-2.2349547,"name":"Portland Street near Piccadilly","properties":{"access":"unknown","bicycle_pa":"stands","capacity":10,"covered":"no","fee":"no","operator":"","nameSource":"junction"},"sourceId":"osm"},{"id":"osm:node:6943641531","latitude":53.4797201,"longitude":-2.23323,"name":"Piccadilly near Lena Street","properties":{"access":"unknown","bicycle_pa":"stands","capacity":4,"covered":"no","fee":"","operator":"","nameSource":"junction"},"sourceId":"osm"},{"id":"osm:node:734069586","latitude":53.4645248,"longitude":-2.2478095,"name":"Ormsgill Street near Old Birley Street","properties":{"access":"unknown","bicycle_pa":"","capacity":6,"covered":"","fee":"","operator":"","nameSource":"junction"},"sourceId":"osm"},{"id":"osm:node:738966108","latitude":53.474503,"longitude":-2.2413874,"name":"Station Approach near Whitworth Street West","properties":{"access":"unknown","bicycle_pa":"stands","capacity":16,"covered":"no","fee":"","operator":"","nameSource":"junction"},"sourceId":"osm"},{"id":"osm:node:748778651","latitude":53.4459728,"longitude":-2.2776544,"name":"Manchester Road near Claridge Road","properties":{"access":"unknown","bicycle_pa":"stands","capacity":14,"covered":"no","fee":"","operator":"","nameSource":"junction"},"sourceId":"osm"},{"id":"osm:node:751838314","latitude":53.4803846,"longitude":-2.2369409,"name":"Piccadilly Gardens by Burgerism","properties":{"access":"unknown","bicycle_pa":"stands","capacity":8,"covered":"no","fee":"","operator":"","nameSource":"landmark"},"sourceId":"osm"},{"id":"osm:node:7680192131","latitude":53.4610898,"longitude":-2.2844122,"name":"Botanical Avenue by Oak Furnitureland","properties":{"access":"unknown","bicycle_pa":"stands","capacity":8,"covered":"","fee":"","operator":"","nameSource":"landmark"},"sourceId":"osm"},{"id":"osm:node:7680394782","latitude":53.4777308,"longitude":-2.2659968,"name":"Cancer Research UK cycle parking","properties":{"access":"unknown","bicycle_pa":"stands","capacity":6,"covered":"no","fee":"no","operator":"","nameSource":"landmark"},"sourceId":"osm"},{"id":"osm:node:7734014459","latitude":53.4425677,"longitude":-2.277621,"name":"Wilbraham Road near Barlow Moor Road","properties":{"access":"yes","bicycle_pa":"stands","capacity":6,"covered":"no","fee":"no","operator":"","nameSource":"junction"},"sourceId":"osm"},{"id":"osm:node:7734021059","latitude":53.442592,"longitude":-2.2782253,"name":"Wilbraham Road near Brundretts Road","properties":{"access":"yes","bicycle_pa":"stands","capacity":6,"covered":"no","fee":"no","operator":"","nameSource":"junction"},"sourceId":"osm"},{"id":"osm:node:7734023819","latitude":53.44249,"longitude":-2.2789448,"name":"Wilbraham Road near Brundretts Road","properties":{"access":"yes","bicycle_pa":"stands","capacity":6,"covered":"no","fee":"no","operator":"","nameSource":"junction"},"sourceId":"osm"},{"id":"osm:node:7734042266","latitude":53.4439084,"longitude":-2.2784453,"name":"Nicolas Road near Barlow Moor Road","properties":{"access":"yes","bicycle_pa":"stands","capacity":8,"covered":"no","fee":"no","operator":"","nameSource":"junction"},"sourceId":"osm"},{"id":"osm:node:7866278963","latitude":53.4667905,"longitude":-2.2840247,"name":"Colgate Lane near Trafford Road","properties":{"access":"yes","bicycle_pa":"stands","capacity":2,"covered":"no","fee":"no","operator":"","nameSource":"junction"},"sourceId":"osm"},{"id":"osm:node:7866278964","latitude":53.4666209,"longitude":-2.2840867,"name":"Trafford Road near Colgate Lane","properties":{"access":"yes","bicycle_pa":"stands","capacity":5,"covered":"no","fee":"no","operator":"","nameSource":"junction"},"sourceId":"osm"},{"id":"osm:node:7866278965","latitude":53.4668039,"longitude":-2.2840277,"name":"Colgate Lane near Trafford Road","properties":{"access":"unknown","bicycle_pa":"stands","capacity":2,"covered":"no","fee":"","operator":"","nameSource":"junction"},"sourceId":"osm"},{"id":"osm:node:7884610747","latitude":53.4848694,"longitude":-2.2365438,"name":"Copperas Street near High Street","properties":{"access":"yes","bicycle_pa":"stands","capacity":18,"covered":"no","fee":"","operator":"","nameSource":"junction"},"sourceId":"osm"},{"id":"osm:node:8032826212","latitude":53.4831833,"longitude":-2.2447403,"name":"Market Street near Exchange Street","properties":{"access":"yes","bicycle_pa":"stands","capacity":6,"covered":"no","fee":"no","operator":"","nameSource":"junction"},"sourceId":"osm"},{"id":"osm:node:8066069216","latitude":53.4777387,"longitude":-2.2446847,"name":"Peter Street near St Peter's Square","properties":{"access":"unknown","bicycle_pa":"stands","capacity":20,"covered":"no","fee":"","operator":"","nameSource":"junction"},"sourceId":"osm"},{"id":"osm:node:8446099586","latitude":53.4513382,"longitude":-2.2458002,"name":"Nursery Street near Russell Street","properties":{"access":"yes","bicycle_pa":"stands","capacity":6,"covered":"no","fee":"no","operator":"","nameSource":"junction"},"sourceId":"osm"},{"id":"osm:node:8599995863","latitude":53.4833257,"longitude":-2.230699,"name":"Little Ancoats Street near Newton Street","properties":{"access":"yes","bicycle_pa":"stands","capacity":8,"covered":"yes","fee":"no","operator":"","nameSource":"junction"},"sourceId":"osm"},{"id":"osm:node:8824540013","latitude":53.4616903,"longitude":-2.2481704,"name":"Hulme High Street near Rook Street","properties":{"access":"yes","bicycle_pa":"stands","capacity":8,"covered":"no","fee":"no","operator":"","nameSource":"junction"},"sourceId":"osm"},{"id":"osm:node:8835279913","latitude":53.4530536,"longitude":-2.2573041,"name":"Withington Road near Yarburgh Street","properties":{"access":"unknown","bicycle_pa":"stands","capacity":12,"covered":"","fee":"no","operator":"","nameSource":"junction"},"sourceId":"osm"},{"id":"osm:node:8849343983","latitude":53.4449354,"longitude":-2.2113221,"name":"Gunnery Lane cycle parking","properties":{"access":"unknown","bicycle_pa":"rack","capacity":6,"covered":"no","fee":"no","operator":"","nameSource":"street"},"sourceId":"osm"},{"id":"osm:node:8849343984","latitude":53.444995,"longitude":-2.210501,"name":"Gunnery Lane cycle parking","properties":{"access":"unknown","bicycle_pa":"rack","capacity":6,"covered":"no","fee":"no","operator":"","nameSource":"street"},"sourceId":"osm"},{"id":"osm:node:8849343985","latitude":53.4450207,"longitude":-2.2101251,"name":"Fallowfield cycle parking","properties":{"access":"unknown","bicycle_pa":"rack","capacity":6,"covered":"no","fee":"no","operator":"","nameSource":"place"},"sourceId":"osm"},{"id":"osm:node:8849343986","latitude":53.4447005,"longitude":-2.2107013,"name":"Gunnery Lane cycle parking","properties":{"access":"unknown","bicycle_pa":"rack","capacity":6,"covered":"no","fee":"no","operator":"","nameSource":"street"},"sourceId":"osm"},{"id":"osm:node:8849343987","latitude":53.4446188,"longitude":-2.2103932,"name":"Gunnery Lane cycle parking","properties":{"access":"unknown","bicycle_pa":"rack","capacity":6,"covered":"no","fee":"no","operator":"","nameSource":"street"},"sourceId":"osm"},{"id":"osm:node:8849343988","latitude":53.4446234,"longitude":-2.2100219,"name":"Gunnery Lane cycle parking","properties":{"access":"unknown","bicycle_pa":"rack","capacity":6,"covered":"no","fee":"no","operator":"","nameSource":"street"},"sourceId":"osm"},{"id":"osm:node:8849343989","latitude":53.4446491,"longitude":-2.2114498,"name":"Gunnery Lane by Armitage Centre","properties":{"access":"unknown","bicycle_pa":"rack","capacity":8,"covered":"no","fee":"no","operator":"","nameSource":"landmark"},"sourceId":"osm"},{"id":"osm:node:8849343990","latitude":53.4445452,"longitude":-2.2119929,"name":"Gunnery Lane near Chancellors Way","properties":{"access":"unknown","bicycle_pa":"rack","capacity":5,"covered":"no","fee":"no","operator":"","nameSource":"junction"},"sourceId":"osm"},{"id":"osm:node:8849343991","latitude":53.4446007,"longitude":-2.2120119,"name":"Gunnery Lane near Chancellors Way","properties":{"access":"unknown","bicycle_pa":"rack","capacity":3,"covered":"no","fee":"no","operator":"","nameSource":"junction"},"sourceId":"osm"},{"id":"osm:node:8849343992","latitude":53.4448682,"longitude":-2.2123778,"name":"Chancellors Way near Gunnery Lane","properties":{"access":"unknown","bicycle_pa":"rack","capacity":12,"covered":"no","fee":"no","operator":"","nameSource":"junction"},"sourceId":"osm"},{"id":"osm:node:8849343993","latitude":53.4450964,"longitude":-2.2120607,"name":"Chancellors Way cycle parking","properties":{"access":"unknown","bicycle_pa":"rack","capacity":10,"covered":"no","fee":"no","operator":"","nameSource":"street"},"sourceId":"osm"},{"id":"osm:node:8849343994","latitude":53.4451576,"longitude":-2.2123066,"name":"Chancellors Way cycle parking","properties":{"access":"unknown","bicycle_pa":"rack","capacity":10,"covered":"no","fee":"no","operator":"","nameSource":"street"},"sourceId":"osm"},{"id":"osm:node:8849343995","latitude":53.4453912,"longitude":-2.2123239,"name":"Chancellors Way cycle parking","properties":{"access":"unknown","bicycle_pa":"rack","capacity":10,"covered":"no","fee":"no","operator":"","nameSource":"street"},"sourceId":"osm"},{"id":"osm:node:8849343996","latitude":53.4456425,"longitude":-2.2122335,"name":"Fallowfield cycle parking","properties":{"access":"unknown","bicycle_pa":"rack","capacity":10,"covered":"no","fee":"no","operator":"","nameSource":"place"},"sourceId":"osm"},{"id":"osm:node:8856448100","latitude":53.4459576,"longitude":-2.216469,"name":"Redshaw Close cycle parking","properties":{"access":"unknown","bicycle_pa":"shed","capacity":0,"covered":"yes","fee":"","operator":"","nameSource":"street"},"sourceId":"osm"},{"id":"osm:node:8878461445","latitude":53.4447012,"longitude":-2.2138288,"name":"Gunnery Lane by Fallowfield Reception and Richmond Amenities Building","properties":{"access":"customers","bicycle_pa":"shed","capacity":15,"covered":"yes","fee":"no","operator":"","nameSource":"landmark"},"sourceId":"osm"},{"id":"osm:node:8878461446","latitude":53.444712,"longitude":-2.2135889,"name":"Gunnery Lane by Fallowfield Reception and Richmond Amenities Building","properties":{"access":"customers","bicycle_pa":"shed","capacity":15,"covered":"yes","fee":"no","operator":"","nameSource":"landmark"},"sourceId":"osm"},{"id":"osm:node:9070928275","latitude":53.4812711,"longitude":-2.2500816,"name":"Trinity Square near Back Bridge Street","properties":{"access":"unknown","bicycle_pa":"stands","capacity":6,"covered":"no","fee":"","operator":"","nameSource":"junction"},"sourceId":"osm"},{"id":"osm:node:9219260104","latitude":53.4385677,"longitude":-2.2811523,"name":"Beech Road near Stockton Road","properties":{"access":"unknown","bicycle_pa":"stands","capacity":2,"covered":"no","fee":"","operator":"","nameSource":"junction"},"sourceId":"osm"},{"id":"osm:node:9220705043","latitude":53.4791228,"longitude":-2.2324796,"name":"Ducie Street near Piccadilly Station Approach","properties":{"access":"unknown","bicycle_pa":"stands","capacity":8,"covered":"no","fee":"","operator":"","nameSource":"junction"},"sourceId":"osm"},{"id":"osm:node:9220705044","latitude":53.4790658,"longitude":-2.2323929,"name":"Ducie Street near Piccadilly Station Approach","properties":{"access":"unknown","bicycle_pa":"stands","capacity":8,"covered":"no","fee":"","operator":"","nameSource":"junction"},"sourceId":"osm"},{"id":"osm:node:9245664262","latitude":53.4725295,"longitude":-2.246871,"name":"First Street near James Grigor Square","properties":{"access":"unknown","bicycle_pa":"stands","capacity":20,"covered":"no","fee":"","operator":"","nameSource":"junction"},"sourceId":"osm"},{"id":"osm:node:9246813922","latitude":53.4741421,"longitude":-2.2458048,"name":"Whitworth Street West near Jack Rosenthal Street","properties":{"access":"unknown","bicycle_pa":"stands","capacity":4,"covered":"no","fee":"","operator":"","nameSource":"junction"},"sourceId":"osm"},{"id":"osm:node:9253571143","latitude":53.4408151,"longitude":-2.2165624,"name":"Fallowfield Loop cycle parking","properties":{"access":"unknown","bicycle_pa":"stands","capacity":12,"covered":"no","fee":"no","operator":"","nameSource":"street"},"sourceId":"osm"},{"id":"osm:node:9253571144","latitude":53.4408814,"longitude":-2.2190429,"name":"Wilmslow Road near Wynnstay Grove","properties":{"access":"unknown","bicycle_pa":"crossbar","capacity":4,"covered":"no","fee":"no","operator":"","nameSource":"junction"},"sourceId":"osm"},{"id":"osm:node:9253571145","latitude":53.4410381,"longitude":-2.2192455,"name":"Wilmslow Road near Ladybarn Road","properties":{"access":"yes","bicycle_pa":"stands","capacity":6,"covered":"no","fee":"no","operator":"","nameSource":"junction"},"sourceId":"osm"},{"id":"osm:node:9253571146","latitude":53.4407334,"longitude":-2.2191823,"name":"Wilmslow Road near Wynnstay Grove","properties":{"access":"yes","bicycle_pa":"stands","capacity":2,"covered":"no","fee":"no","operator":"","nameSource":"junction"},"sourceId":"osm"},{"id":"osm:node:9256056899","latitude":53.4642237,"longitude":-2.2308335,"name":"Ackers Street near Oxford Road","properties":{"access":"yes","bicycle_pa":"stands","capacity":30,"covered":"no","fee":"","operator":"","nameSource":"junction"},"sourceId":"osm"},{"id":"osm:node:9256081116","latitude":53.4706916,"longitude":-2.235344,"name":"Grosvenor Street near Rumford Street","properties":{"access":"unknown","bicycle_pa":"stands","capacity":50,"covered":"yes","fee":"","operator":"","nameSource":"junction"},"sourceId":"osm"},{"id":"osm:node:9256084570","latitude":53.4706931,"longitude":-2.2362158,"name":"Sidney Street near Hillcourt Street","properties":{"access":"unknown","bicycle_pa":"stands","capacity":6,"covered":"no","fee":"","operator":"","nameSource":"junction"},"sourceId":"osm"},{"id":"osm:node:9256084571","latitude":53.470757,"longitude":-2.2355398,"name":"Grosvenor Street near Rumford Street","properties":{"access":"unknown","bicycle_pa":"stands","capacity":10,"covered":"no","fee":"","operator":"","nameSource":"junction"},"sourceId":"osm"},{"id":"osm:node:9257169668","latitude":53.4753997,"longitude":-2.2283487,"name":"Baring Street near Buxton Street","properties":{"access":"private","bicycle_pa":"stands","capacity":0,"covered":"","fee":"","operator":"","nameSource":"junction"},"sourceId":"osm"},{"id":"osm:node:9260133250","latitude":53.4809343,"longitude":-2.2511386,"name":"Dolefield near Crown Square","properties":{"access":"yes","bicycle_pa":"stands","capacity":10,"covered":"no","fee":"","operator":"","nameSource":"junction"},"sourceId":"osm"},{"id":"osm:node:9260133251","latitude":53.4811639,"longitude":-2.2510374,"name":"Dolefield near Bridge Street","properties":{"access":"unknown","bicycle_pa":"stands","capacity":10,"covered":"no","fee":"","operator":"","nameSource":"junction"},"sourceId":"osm"},{"id":"osm:node:9260311726","latitude":53.4641036,"longitude":-2.2272362,"name":"Rumford Street near Grafton Street","properties":{"access":"unknown","bicycle_pa":"stands","capacity":16,"covered":"no","fee":"","operator":"","nameSource":"junction"},"sourceId":"osm"},{"id":"osm:node:9263511526","latitude":53.4740908,"longitude":-2.2516505,"name":"Deansgate near Hewitt Street","properties":{"access":"yes","bicycle_pa":"stands","capacity":6,"covered":"no","fee":"","operator":"","nameSource":"junction"},"sourceId":"osm"},{"id":"osm:node:9263511527","latitude":53.4739142,"longitude":-2.251408,"name":"Deansgate near Hewitt Street","properties":{"access":"yes","bicycle_pa":"stands","capacity":4,"covered":"no","fee":"","operator":"","nameSource":"junction"},"sourceId":"osm"},{"id":"osm:node:9263511528","latitude":53.4737125,"longitude":-2.2517714,"name":"Deansgate near Little Peter Street","properties":{"access":"yes","bicycle_pa":"stands","capacity":8,"covered":"no","fee":"","operator":"","nameSource":"junction"},"sourceId":"osm"},{"id":"osm:node:9268017075","latitude":53.4444553,"longitude":-2.278691,"name":"Manchester Road near Longford Road","properties":{"access":"unknown","bicycle_pa":"stands","capacity":8,"covered":"","fee":"","operator":"","nameSource":"junction"},"sourceId":"osm"},{"id":"osm:node:9268017105","latitude":53.4433137,"longitude":-2.2781319,"name":"Barlow Moor Road near Warwick Road","properties":{"access":"unknown","bicycle_pa":"anchors","capacity":12,"covered":"","fee":"","operator":"","nameSource":"junction"},"sourceId":"osm"},{"id":"osm:node:9268031330","latitude":53.4426352,"longitude":-2.2796362,"name":"Wilbraham Road near Whitelow Road","properties":{"access":"unknown","bicycle_pa":"stands","capacity":6,"covered":"","fee":"","operator":"","nameSource":"junction"},"sourceId":"osm"},{"id":"osm:node:9268031331","latitude":53.4425318,"longitude":-2.2797781,"name":"Wilbraham Road near Whitelow Road","properties":{"access":"unknown","bicycle_pa":"stands","capacity":4,"covered":"","fee":"","operator":"","nameSource":"junction"},"sourceId":"osm"},{"id":"osm:node:9268031339","latitude":53.4426945,"longitude":-2.2801315,"name":"Whitelow Road near Wilbraham Road","properties":{"access":"unknown","bicycle_pa":"stands","capacity":4,"covered":"","fee":"","operator":"","nameSource":"junction"},"sourceId":"osm"},{"id":"osm:node:9268031341","latitude":53.4426666,"longitude":-2.2804225,"name":"Wilbraham Road near Whitelow Road","properties":{"access":"unknown","bicycle_pa":"stands","capacity":2,"covered":"","fee":"","operator":"","nameSource":"junction"},"sourceId":"osm"},{"id":"osm:node:9268031355","latitude":53.4426957,"longitude":-2.2810594,"name":"Wilbraham Road near Oswald Road","properties":{"access":"unknown","bicycle_pa":"stands","capacity":4,"covered":"","fee":"","operator":"","nameSource":"junction"},"sourceId":"osm"},{"id":"osm:node:9268031364","latitude":53.4423056,"longitude":-2.2785963,"name":"Brabham Close near Brundretts Road","properties":{"access":"unknown","bicycle_pa":"stands","capacity":6,"covered":"","fee":"","operator":"","nameSource":"junction"},"sourceId":"osm"},{"id":"osm:node:9272728659","latitude":53.483622,"longitude":-2.2459634,"name":"Deansgate near Blackfriars Street","properties":{"access":"unknown","bicycle_pa":"stands","capacity":8,"covered":"no","fee":"","operator":"","nameSource":"junction"},"sourceId":"osm"},{"id":"osm:node:9274847340","latitude":53.4389999,"longitude":-2.2746617,"name":"Zetland Road near Sandy Lane","properties":{"access":"yes","bicycle_pa":"stands","capacity":8,"covered":"no","fee":"no","operator":"","nameSource":"junction"},"sourceId":"osm"},{"id":"osm:node:9278472127","latitude":53.4377025,"longitude":-2.2743982,"name":"Barlow Moor Road near St Annes Road","properties":{"access":"unknown","bicycle_pa":"stands","capacity":4,"covered":"no","fee":"","operator":"","nameSource":"junction"},"sourceId":"osm"},{"id":"osm:node:9400833445","latitude":53.4760804,"longitude":-2.235668,"name":"Sackville Street near Whitworth Street","properties":{"access":"unknown","bicycle_pa":"stands","capacity":20,"covered":"no","fee":"","operator":"","nameSource":"junction"},"sourceId":"osm"},{"id":"osm:node:9400833446","latitude":53.4755567,"longitude":-2.2353128,"name":"Sackville Street near Granby Row","properties":{"access":"unknown","bicycle_pa":"stands","capacity":20,"covered":"no","fee":"","operator":"","nameSource":"junction"},"sourceId":"osm"},{"id":"osm:node:9401867603","latitude":53.471087,"longitude":-2.2380943,"name":"Oxford Road near Sidney Street","properties":{"access":"unknown","bicycle_pa":"stands","capacity":8,"covered":"no","fee":"","operator":"","nameSource":"junction"},"sourceId":"osm"},{"id":"osm:node:9401867612","latitude":53.4696421,"longitude":-2.2390344,"name":"Cavendish Street near Lower Ormond Street","properties":{"access":"unknown","bicycle_pa":"stands","capacity":40,"covered":"no","fee":"","operator":"","nameSource":"junction"},"sourceId":"osm"},{"id":"osm:node:9401867613","latitude":53.4695343,"longitude":-2.2389982,"name":"Cavendish Street near Lower Ormond Street","properties":{"access":"unknown","bicycle_pa":"stands","capacity":24,"covered":"no","fee":"","operator":"","nameSource":"junction"},"sourceId":"osm"},{"id":"osm:node:9491094484","latitude":53.4812583,"longitude":-2.2334702,"name":"Newton Street near Dale Street","properties":{"access":"unknown","bicycle_pa":"stands","capacity":2,"covered":"no","fee":"","operator":"","nameSource":"junction"},"sourceId":"osm"},{"id":"osm:node:9491094486","latitude":53.4821014,"longitude":-2.2316884,"name":"Dean Street near Port Street","properties":{"access":"unknown","bicycle_pa":"stands","capacity":6,"covered":"no","fee":"","operator":"","nameSource":"junction"},"sourceId":"osm"},{"id":"osm:node:9491158882","latitude":53.4806658,"longitude":-2.2348493,"name":"Portland Street near Piccadilly","properties":{"access":"unknown","bicycle_pa":"stands","capacity":4,"covered":"no","fee":"","operator":"","nameSource":"junction"},"sourceId":"osm"},{"id":"osm:node:9491158883","latitude":53.480455,"longitude":-2.2352613,"name":"Portland Street near Piccadilly","properties":{"access":"unknown","bicycle_pa":"stands","capacity":8,"covered":"no","fee":"","operator":"","nameSource":"junction"},"sourceId":"osm"},{"id":"osm:node:9492656196","latitude":53.4794153,"longitude":-2.2373967,"name":"Portland Street near New York Street","properties":{"access":"unknown","bicycle_pa":"stands","capacity":8,"covered":"no","fee":"","operator":"","nameSource":"junction"},"sourceId":"osm"},{"id":"osm:node:9492656198","latitude":53.4795539,"longitude":-2.2371758,"name":"Portland Street near Minshull Street","properties":{"access":"unknown","bicycle_pa":"stands","capacity":26,"covered":"no","fee":"","operator":"","nameSource":"junction"},"sourceId":"osm"},{"id":"osm:node:9492834017","latitude":53.4822345,"longitude":-2.2216162,"name":"Old Mill Street by New Islington Marina Promenade","properties":{"access":"unknown","bicycle_pa":"stands","capacity":10,"covered":"no","fee":"","operator":"","nameSource":"landmark"},"sourceId":"osm"},{"id":"osm:node:9492834018","latitude":53.4828087,"longitude":-2.2204167,"name":"Old Mill Street near Weybridge Road","properties":{"access":"unknown","bicycle_pa":"stands","capacity":10,"covered":"no","fee":"","operator":"","nameSource":"junction"},"sourceId":"osm"},{"id":"osm:node:9492838938","latitude":53.4779185,"longitude":-2.2393309,"name":"Portland Street near Nicholas Street","properties":{"access":"unknown","bicycle_pa":"stands","capacity":8,"covered":"no","fee":"","operator":"","nameSource":"junction"},"sourceId":"osm"},{"id":"osm:node:9494044098","latitude":53.4783845,"longitude":-2.2342214,"name":"Auburn Street near Aytoun Street","properties":{"access":"unknown","bicycle_pa":"stands","capacity":8,"covered":"no","fee":"","operator":"","nameSource":"junction"},"sourceId":"osm"},{"id":"osm:node:9494058687","latitude":53.4760314,"longitude":-2.2382721,"name":"Princess Street near Canal Street","properties":{"access":"unknown","bicycle_pa":"stands","capacity":4,"covered":"no","fee":"","operator":"","nameSource":"junction"},"sourceId":"osm"},{"id":"osm:node:9494129688","latitude":53.4763709,"longitude":-2.2426474,"name":"Oxford Street near Chepstow Street","properties":{"access":"unknown","bicycle_pa":"stands","capacity":6,"covered":"no","fee":"","operator":"","nameSource":"junction"},"sourceId":"osm"},{"id":"osm:node:9496647568","latitude":53.4782571,"longitude":-2.2373735,"name":"Major Street near Chorlton Street","properties":{"access":"unknown","bicycle_pa":"stands","capacity":16,"covered":"no","fee":"","operator":"","nameSource":"junction"},"sourceId":"osm"},