{"key":"12/2022/1328","points":[{"id":"osm:node:12179934081","latitude":53.3270145,"longitude":-2.2322211,"name":"Grove Avenue near Grove Way","properties":{"access":"yes","bicycle_pa":"stands","capacity":4,"covered":"no","fee":"no","operator":"","nameSource":"junction"},"sourceId":"osm"},{"id":"osm:node:1941357374","latitude":53.3284248,"longitude":-2.229868,"name":"Church Street near Dungeon Walk","properties":{"access":"unknown","bicycle_pa":"stands","capacity":8,"covered":"yes","fee":"","operator":"","nameSource":"junction"},"sourceId":"osm"},{"id":"osm:node:1942852362","latitude":53.3267327,"longitude":-2.2264803,"name":"Station Road near Macclesfield Road","properties":{"access":"unknown","bicycle_pa":"stands","capacity":20,"covered":"","fee":"","operator":"","nameSource":"junction"},"sourceId":"osm"},{"id":"osm:node:528198528","latitude":53.3088096,"longitude":-2.2300938,"name":"Beech Road Roundabout near Beech Road","properties":{"access":"unknown","bicycle_pa":"","capacity":4,"covered":"","fee":"","operator":"","nameSource":"junction"},"sourceId":"osm"},{"id":"osm:node:8847844399","latitude":53.3264382,"longitude":-2.2264159,"name":"Station Road near Macclesfield Road","properties":{"access":"unknown","bicycle_pa":"stands","capacity":20,"covered":"yes","fee":"","operator":"","nameSource":"junction"},"sourceId":"osm"},{"id":"osm:node:8847844401","latitude":53.3260097,"longitude":-2.232652,"name":"Grove Street near Alderley Road","properties":{"access":"unknown","bicycle_pa":"stands","capacity":6,"covered":"no","fee":"","operator":"","nameSource":"junction"},"sourceId":"osm"},{"id":"osm:node:8847844402","latitude":53.3258158,"longitude":-2.2323248,"name":"Alderley Road near Green Lane","properties":{"access":"unknown","bicycle_pa":"stands","capacity":4,"covered":"no","fee":"","operator":"","nameSource":"junction"},"sourceId":"osm"},{"id":"osm:node:8847844403","latitude":53.3260481,"longitude":-2.2342104,"name":"Grove Way near Water Lane","properties":{"access":"unknown","bicycle_pa":"stands","capacity":1,"covered":"no","fee":"","operator":"","nameSource":"junction"},"sourceId":"osm"},{"id":"osm:node:8847844404","latitude":53.3241561,"longitude":-2.2337517,"name":"Alderley Road by Sainsbury's","properties":{"access":"unknown","bicycle_pa":"stands","capacity":14,"covered":"yes","fee":"","operator":"","nameSource":"landmark"},"sourceId":"osm"},{"id":"osm:node:8847844405","latitude":53.3036281,"longitude":-2.236564,"name":"Wilmslow Road near Heyes Lane","properties":{"access":"unknown","bicycle_pa":"stands","capacity":10,"covered":"","fee":"","operator":"","nameSource":"junction"},"sourceId":"osm"},{"id":"osm:node:8847844406","latitude":53.3027762,"longitude":-2.2366646,"name":"London Road near Heyes Lane","properties":{"access":"unknown","bicycle_pa":"stands","capacity":10,"covered":"no","fee":"","operator":"","nameSource":"junction"},"sourceId":"osm"},{"id":"osm:node:8847844407","latitude":53.3008015,"longitude":-2.2363266,"name":"Chapel Street near London Road","properties":{"access":"unknown","bicycle_pa":"stands","capacity":6,"covered":"no","fee":"","operator":"","nameSource":"junction"},"sourceId":"osm"},{"id":"osm:node:9509325627","latitude":53.3263078,"longitude":-2.2321699,"name":"Green Lane near Alderley Road","properties":{"access":"yes","bicycle_pa":"stands","capacity":2,"covered":"no","fee":"no","operator":"Cheshire East Council","nameSource":"junction"},"sourceId":"osm"},{"id":"osm:node:9509325628","latitude":53.3268535,"longitude":-2.2315293,"name":"Grove Avenue near Grove Street","properties":{"access":"yes","bicycle_pa":"stands","capacity":2,"covered":"no","fee":"no","operator":"Cheshire East Council","nameSource":"junction"},"sourceId":"osm"},{"id":"osm:node:9509325629","latitude":53.3277047,"longitude":-2.2305525,"name":"Hawthorn Lane near Bank Square","properties":{"access":"yes","bicycle_pa":"stands","capacity":2,"covered":"no","fee":"no","operator":"Cheshire East Council","nameSource":"junction"},"sourceId":"osm"},{"id":"osm:node:9509325630","latitude":53.3273565,"longitude":-2.2307533,"name":"Grove Street near Green Lane","properties":{"access":"yes","bicycle_pa":"stands","capacity":6,"covered":"no","fee":"no","operator":"Cheshire East Council","nameSource":"junction"},"sourceId":"osm"},{"id":"osm:node:9509325631","latitude":53.3260986,"longitude":-2.231625,"name":"Green Lane near Parsonage Green","properties":{"access":"yes","bicycle_pa":"stands","capacity":3,"covered":"no","fee":"no","operator":"Cheshire East Council","nameSource":"junction"},"sourceId":"osm"},{"id":"osm:node:9509325632","latitude":53.3260949,"longitude":-2.2311191,"name":"Parsonage Green near Green Lane","properties":{"access":"permissive","bicycle_pa":"rack","capacity":3,"covered":"no","fee":"no","operator":"Tesco","nameSource":"junction"},"sourceId":"osm"},{"id":"osm:node:9509325634","latitude":53.322018,"longitude":-2.2461152,"name":"Lindow Parade near Oak Lane","properties":{"access":"permissive","bicycle_pa":"rack","capacity":2,"covered":"no","fee":"no","operator":"","nameSource":"junction"},"sourceId":"osm"},{"id":"osm:node:9509343335","latitude":53.3033903,"longitude":-2.2330804,"name":"Talbot Road near Stamford Road","properties":{"access":"yes","bicycle_pa":"stands","capacity":4,"covered":"no","fee":"no","operator":"Alderly Edge Town Council","nameSource":"junction"},"sourceId":"osm"},{"id":"osm:node:9509344146","latitude":53.3242111,"longitude":-2.2349089,"name":"Alderley Road near Victoria Road","properties":{"access":"customers","bicycle_pa":"yes","capacity":30,"covered":"no","fee":"no","operator":"The Service Centre","nameSource":"junction"},"sourceId":"osm"},{"id":"osm:node:9509344147","latitude":53.323047,"longitude":-2.2364306,"name":"Alderley Road near Chapel Lane","properties":{"access":"customers","bicycle_pa":"shed","capacity":8,"covered":"yes","fee":"no","operator":"Kenmore Medical Centre","nameSource":"junction"},"sourceId":"osm"},{"id":"osm:node:9581806685","latitude":53.3226078,"longitude":-2.2370071,"name":"Chapel Lane near Alderley Road","properties":{"access":"unknown","bicycle_pa":"stands","capacity":3,"covered":"no","fee":"","operator":"Uninted Reform Church","nameSource":"junction"},"sourceId":"osm"},{"id":"osm:node:9581818772","latitude":53.324887,"longitude":-2.2337282,"name":"Alderley Road near South Drive","properties":{"access":"yes","bicycle_pa":"stands","capacity":1,"covered":"no","fee":"no","operator":"","nameSource":"junction"},"sourceId":"osm"},{"id":"osm:node:9581818773","latitude":53.3244776,"longitude":-2.2341907,"name":"Alderley Road near South Drive","properties":{"access":"yes","bicycle_pa":"stands","capacity":1,"covered":"no","fee":"no","operator":"","nameSource":"junction"},"sourceId":"osm"},{"id":"osm:node:9581818774","latitude":53.325538,"longitude":-2.2330711,"name":"Alderley Road near Grove Street","properties":{"access":"yes","bicycle_pa":"stands","capacity":4,"covered":"no","fee":"no","operator":"","nameSource":"junction"},"sourceId":"osm"},{"id":"osm:node:9581818775","latitude":53.3260506,"longitude":-2.2276324,"name":"Station Road by Wilmslow Leisure Centre","properties":{"access":"yes","bicycle_pa":"stands","capacity":10,"covered":"no","fee":"no","operator":"","nameSource":"landmark"},"sourceId":"osm"}],"schemaVersion":2}
