{"key":"12/2022/1349","points":[{"id":"osm:node:10127678959","latitude":52.1831199,"longitude":-2.2201904,"name":"Diglis Road cycle parking","properties":{"access":"yes","bicycle_pa":"stands","capacity":8,"covered":"no","fee":"","operator":"","nameSource":"street"},"sourceId":"osm"},{"id":"osm:node:11233856485","latitude":52.1957281,"longitude":-2.2324216,"name":"Grand Stand Road by Worcester Rowing Club","properties":{"access":"yes","bicycle_pa":"stands","capacity":10,"covered":"no","fee":"","operator":"","nameSource":"landmark"},"sourceId":"osm"},{"id":"osm:node:11368804754","latitude":52.1951402,"longitude":-2.2317917,"name":"Grand Stand Road cycle parking","properties":{"access":"permissive","bicycle_pa":"wall_loops","capacity":10,"covered":"no","fee":"","operator":"","nameSource":"street"},"sourceId":"osm"},{"id":"osm:node:11469138858","latitude":52.1911911,"longitude":-2.2193595,"name":"City Arcade near The Shambles","properties":{"access":"unknown","bicycle_pa":"bollard","capacity":1,"covered":"no","fee":"","operator":"","nameSource":"junction"},"sourceId":"osm"},{"id":"osm:node:11469138859","latitude":52.1912237,"longitude":-2.2193657,"name":"City Arcade near The Shambles","properties":{"access":"unknown","bicycle_pa":"bollard","capacity":1,"covered":"no","fee":"","operator":"","nameSource":"junction"},"sourceId":"osm"},{"id":"osm:node:11999421996","latitude":52.1923112,"longitude":-2.2240205,"name":"Broad Street near Deansway","properties":{"access":"unknown","bicycle_pa":"stands","capacity":8,"covered":"no","fee":"","operator":"","nameSource":"junction"},"sourceId":"osm"},{"id":"osm:node:12402901615","latitude":52.2068661,"longitude":-2.2344744,"name":"Kepax Bridge by Kyndfolk","properties":{"access":"unknown","bicycle_pa":"stands","capacity":9,"covered":"yes","fee":"","operator":"","nameSource":"landmark"},"sourceId":"osm"},{"id":"osm:node:12402901617","latitude":52.2068545,"longitude":-2.234562,"name":"Kepax Bridge by Kyndfolk","properties":{"access":"unknown","bicycle_pa":"stands","capacity":9,"covered":"yes","fee":"","operator":"","nameSource":"landmark"},"sourceId":"osm"},{"id":"osm:node:12402901618","latitude":52.2056637,"longitude":-2.2415769,"name":"Riverview Close near Horsford Road","properties":{"access":"unknown","bicycle_pa":"stands","capacity":10,"covered":"no","fee":"","operator":"","nameSource":"junction"},"sourceId":"osm"},{"id":"osm:node:12402946393","latitude":52.2050519,"longitude":-2.2275041,"name":"Somers' Road near Barbourne Road","properties":{"access":"unknown","bicycle_pa":"","capacity":1,"covered":"no","fee":"","operator":"","nameSource":"junction"},"sourceId":"osm"},{"id":"osm:node:12402946394","latitude":52.2047069,"longitude":-2.2271783,"name":"Barbourne Road near Sharman Road","properties":{"access":"unknown","bicycle_pa":"stands","capacity":1,"covered":"no","fee":"","operator":"","nameSource":"junction"},"sourceId":"osm"},{"id":"osm:node:12402946395","latitude":52.2047264,"longitude":-2.2271827,"name":"Barbourne Road near Sharman Road","properties":{"access":"unknown","bicycle_pa":"stands","capacity":1,"covered":"no","fee":"","operator":"","nameSource":"junction"},"sourceId":"osm"},{"id":"osm:node:12402946396","latitude":52.2048885,"longitude":-2.2272126,"name":"Barbourne Road near Somers' Road","properties":{"access":"unknown","bicycle_pa":"stands","capacity":1,"covered":"no","fee":"","operator":"","nameSource":"junction"},"sourceId":"osm"},{"id":"osm:node:12402946397","latitude":52.20491,"longitude":-2.2272171,"name":"Barbourne Road near Somers' Road","properties":{"access":"unknown","bicycle_pa":"stands","capacity":1,"covered":"no","fee":"","operator":"","nameSource":"junction"},"sourceId":"osm"},{"id":"osm:node:12861211149","latitude":52.2022782,"longitude":-2.2279538,"name":"Thorneloe Walk near Thorneloe Road","properties":{"access":"unknown","bicycle_pa":"stands","capacity":16,"covered":"no","fee":"","operator":"","nameSource":"junction"},"sourceId":"osm"},{"id":"osm:node:12877922554","latitude":52.2041833,"longitude":-2.2262453,"name":"St George's Lane North near Barbourne Road","properties":{"access":"unknown","bicycle_pa":"stands","capacity":6,"covered":"no","fee":"","operator":"","nameSource":"junction"},"sourceId":"osm"},{"id":"osm:node:13098943015","latitude":52.1935231,"longitude":-2.2232012,"name":"Angel Row near Angel Place","properties":{"access":"unknown","bicycle_pa":"stands","capacity":1,"covered":"no","fee":"","operator":"","nameSource":"junction"},"sourceId":"osm"},{"id":"osm:node:13098975525","latitude":52.1935399,"longitude":-2.2231222,"name":"Angel Row near Angel Place","properties":{"access":"unknown","bicycle_pa":"stands","capacity":1,"covered":"no","fee":"","operator":"","nameSource":"junction"},"sourceId":"osm"},{"id":"osm:node:1317484451","latitude":52.1918311,"longitude":-2.2164494,"name":"Spring Gardens by Spring Gardens Health Centre","properties":{"access":"unknown","bicycle_pa":"wall_loops","capacity":6,"covered":"no","fee":"","operator":"","nameSource":"landmark"},"sourceId":"osm"},{"id":"osm:node:13323390666","latitude":52.1908228,"longitude":-2.2212328,"name":"Copenhagen Street near High Street","properties":{"access":"unknown","bicycle_pa":"stands","capacity":8,"covered":"","fee":"","operator":"","nameSource":"junction"},"sourceId":"osm"},{"id":"osm:node:13572504859","latitude":52.1940954,"longitude":-2.2234555,"name":"Infirmary Walk near Netherton Lane","properties":{"access":"unknown","bicycle_pa":"","capacity":1,"covered":"no","fee":"","operator":"","nameSource":"junction"},"sourceId":"osm"},{"id":"osm:node:13572581774","latitude":52.1905061,"longitude":-2.222134,"name":"Deansway near Fish Street","properties":{"access":"unknown","bicycle_pa":"stands","capacity":5,"covered":"no","fee":"","operator":"","nameSource":"junction"},"sourceId":"osm"},{"id":"osm:node:13572604922","latitude":52.1906854,"longitude":-2.22285,"name":"Copenhagen Street near Deansway","properties":{"access":"unknown","bicycle_pa":"stands","capacity":5,"covered":"no","fee":"","operator":"","nameSource":"junction"},"sourceId":"osm"},{"id":"osm:node:13572608803","latitude":52.190474,"longitude":-2.2221763,"name":"Fish Street near Deansway","properties":{"access":"unknown","bicycle_pa":"stands","capacity":8,"covered":"no","fee":"","operator":"","nameSource":"junction"},"sourceId":"osm"},{"id":"osm:node:13572632238","latitude":52.1869621,"longitude":-2.217663,"name":"Princes Drive near King Street","properties":{"access":"unknown","bicycle_pa":"stands","capacity":12,"covered":"no","fee":"","operator":"","nameSource":"junction"},"sourceId":"osm"},{"id":"osm:node:13611575667","latitude":52.195013,"longitude":-2.2042772,"name":"Newtown Road by Haresfield Surgery","properties":{"access":"unknown","bicycle_pa":"stands","capacity":8,"covered":"no","fee":"","operator":"","nameSource":"landmark"},"sourceId":"osm"},{"id":"osm:node:13653052538","latitude":52.1942251,"longitude":-2.2269728,"name":"Croft Road cycle parking","properties":{"access":"unknown","bicycle_pa":"","capacity":0,"covered":"","fee":"","operator":"","nameSource":"street"},"sourceId":"osm"},{"id":"osm:node:13653096304","latitude":52.1942376,"longitude":-2.2269343,"name":"Croft Road cycle parking","properties":{"access":"unknown","bicycle_pa":"","capacity":0,"covered":"","fee":"","operator":"","nameSource":"street"},"sourceId":"osm"},{"id":"osm:node:13699693997","latitude":52.171706,"longitude":-2.2054921,"name":"Mole Pedway near Aldersey Pedway","properties":{"access":"unknown","bicycle_pa":"stands","capacity":18,"covered":"no","fee":"","operator":"","nameSource":"junction"},"sourceId":"osm"},{"id":"osm:node:13699720367","latitude":52.1719638,"longitude":-2.2042839,"name":"Leven Pedway near Mole Pedway","properties":{"access":"unknown","bicycle_pa":"stands","capacity":8,"covered":"yes","fee":"","operator":"","nameSource":"junction"},"sourceId":"osm"},{"id":"osm:node:13699812957","latitude":52.1714708,"longitude":-2.2042505,"name":"Mole Pedway near Leven Pedway","properties":{"access":"unknown","bicycle_pa":"stands","capacity":24,"covered":"yes","fee":"","operator":"","nameSource":"junction"},"sourceId":"osm"},{"id":"osm:node:13699819525","latitude":52.1716919,"longitude":-2.2052776,"name":"Mole Pedway near Aldersey Pedway","properties":{"access":"unknown","bicycle_pa":"stands","capacity":12,"covered":"no","fee":"","operator":"","nameSource":"junction"},"sourceId":"osm"},{"id":"osm:node:13719502189","latitude":52.1738902,"longitude":-2.2408985,"name":"Canada Way near Labrador Road","properties":{"access":"unknown","bicycle_pa":"stands","capacity":8,"covered":"","fee":"","operator":"","nameSource":"junction"},"sourceId":"osm"},{"id":"osm:node:13827774287","latitude":52.1963516,"longitude":-2.2225775,"name":"Foregate Street near Taylor's Lane","properties":{"access":"unknown","bicycle_pa":"stands","capacity":2,"covered":"no","fee":"","operator":"","nameSource":"junction"},"sourceId":"osm"},{"id":"osm:node:13827831857","latitude":52.1962327,"longitude":-2.2225005,"name":"Foregate Street near Taylor's Lane","properties":{"access":"unknown","bicycle_pa":"stands","capacity":3,"covered":"no","fee":"","operator":"","nameSource":"junction"},"sourceId":"osm"},{"id":"osm:node:13828061394","latitude":52.1961637,"longitude":-2.2269378,"name":"Easy Row by Ducati","properties":{"access":"unknown","bicycle_pa":"wall_loops","capacity":30,"covered":"no","fee":"","operator":"","nameSource":"landmark"},"sourceId":"osm"},{"id":"osm:node:13828165292","latitude":52.1949695,"longitude":-2.2220912,"name":"Foregate Street near Pierpoint Street","properties":{"access":"unknown","bicycle_pa":"stands","capacity":10,"covered":"no","fee":"","operator":"","nameSource":"junction"},"sourceId":"osm"},{"id":"osm:node:13828171610","latitude":52.1946318,"longitude":-2.2235443,"name":"Cherry Tree Walk near Farrier Street","properties":{"access":"unknown","bicycle_pa":"stands","capacity":4,"covered":"yes","fee":"","operator":"","nameSource":"junction"},"sourceId":"osm"},{"id":"osm:node:13992853435","latitude":52.1868639,"longitude":-2.218869,"name":"Severn Street by Good Roots","properties":{"access":"unknown","bicycle_pa":"wall_loops","capacity":0,"covered":"no","fee":"","operator":"","nameSource":"landmark"},"sourceId":"osm"},{"id":"osm:node:1690617768","latitude":52.1940424,"longitude":-2.2256816,"name":"Netherton Court by The Hive","properties":{"access":"unknown","bicycle_pa":"stands","capacity":38,"covered":"yes","fee":"","operator":"","nameSource":"landmark"},"sourceId":"osm"},{"id":"osm:node:1779156172","latitude":52.1922431,"longitude":-2.2241285,"name":"Broad Street near Deansway","properties":{"access":"unknown","bicycle_pa":"stands","capacity":10,"covered":"no","fee":"","operator":"","nameSource":"junction"},"sourceId":"osm"},{"id":"osm:node:1911921965","latitude":52.1935548,"longitude":-2.215749,"name":"Pheasant Street cycle parking","properties":{"access":"unknown","bicycle_pa":"","capacity":8,"covered":"","fee":"","operator":"","nameSource":"street"},"sourceId":"osm"},{"id":"osm:node:1911921976","latitude":52.1943437,"longitude":-2.216607,"name":"Lowesmoor by firefly","properties":{"access":"unknown","bicycle_pa":"stands","capacity":16,"covered":"no","fee":"","operator":"","nameSource":"landmark"},"sourceId":"osm"},{"id":"osm:node:2497746325","latitude":52.1765593,"longitude":-2.2090244,"name":"Duck Brook Community Orchard bike parking","properties":{"access":"unknown","bicycle_pa":"stands","capacity":2,"covered":"no","fee":"","operator":"","nameSource":"source"},"sourceId":"osm"},{"id":"osm:node:2723400506","latitude":52.196952,"longitude":-2.2234771,"name":"Castle Street near Foregate Street","properties":{"access":"unknown","bicycle_pa":"stands","capacity":8,"covered":"no","fee":"","operator":"","nameSource":"junction"},"sourceId":"osm"},{"id":"osm:node:2723400636","latitude":52.2065187,"longitude":-2.2343109,"name":"Waterworks Road near Gheluvet Mews","properties":{"access":"unknown","bicycle_pa":"stands","capacity":6,"covered":"no","fee":"","operator":"","nameSource":"junction"},"sourceId":"osm"},{"id":"osm:node:2723400643","latitude":52.2067171,"longitude":-2.233702,"name":"Gheluvet Mews near Waterworks Road","properties":{"access":"unknown","bicycle_pa":"stands","capacity":8,"covered":"no","fee":"","operator":"","nameSource":"junction"},"sourceId":"osm"},{"id":"osm:node:2723441152","latitude":52.1931579,"longitude":-2.2213095,"name":"The Avenue near The Cross","properties":{"access":"unknown","bicycle_pa":"stands","capacity":10,"covered":"yes","fee":"","operator":"","nameSource":"junction"},"sourceId":"osm"},{"id":"osm:node:2723441155","latitude":52.1933323,"longitude":-2.2211817,"name":"The Avenue near The Cross","properties":{"access":"unknown","bicycle_pa":"stands","capacity":10,"covered":"yes","fee":"","operator":"","nameSource":"junction"},"sourceId":"osm"},{"id":"osm:node:2723441157","latitude":52.1936013,"longitude":-2.2212613,"name":"The Cross near A38","properties":{"access":"unknown","bicycle_pa":"stands","capacity":10,"covered":"yes","fee":"","operator":"","nameSource":"junction"},"sourceId":"osm"},{"id":"osm:node:2723971966","latitude":52.1881401,"longitude":-2.2209055,"name":"College Green by Cloister Cafe","properties":{"access":"unknown","bicycle_pa":"stands","capacity":6,"covered":"no","fee":"","operator":"","nameSource":"landmark"},"sourceId":"osm"},{"id":"osm:node:2724396835","latitude":52.2091229,"longitude":-2.224522,"name":"Crown Street near Droitwich Road","properties":{"access":"unknown","bicycle_pa":"stands","capacity":6,"covered":"no","fee":"","operator":"","nameSource":"junction"},"sourceId":"osm"},{"id":"osm:node:2767791985","latitude":52.1951946,"longitude":-2.2217538,"name":"Foregate Street near Pierpoint Street","properties":{"access":"unknown","bicycle_pa":"two-tier","capacity":16,"covered":"yes","fee":"","operator":"","nameSource":"junction"},"sourceId":"osm"},{"id":"osm:node:2767886175","latitude":52.1945941,"longitude":-2.2204657,"name":"Sansome Street near Hop Market","properties":{"access":"unknown","bicycle_pa":"","capacity":0,"covered":"","fee":"","operator":"","nameSource":"junction"},"sourceId":"osm"},{"id":"osm:node:2767994986","latitude":52.1943798,"longitude":-2.2213428,"name":"Sansome Street near Foregate Street","properties":{"access":"unknown","bicycle_pa":"stands","capacity":8,"covered":"no","fee":"","operator":"","nameSource":"junction"},"sourceId":"osm"},{"id":"osm:node:2769064809","latitude":52.1935076,"longitude":-2.2224179,"name":"Angel Street near Angel Place","properties":{"access":"unknown","bicycle_pa":"","capacity":0,"covered":"no","fee":"","operator":"","nameSource":"junction"},"sourceId":"osm"},{"id":"osm:node:2769111192","latitude":52.1903154,"longitude":-2.2205186,"name":"Fish Street near High Street","properties":{"access":"unknown","bicycle_pa":"stands","capacity":20,"covered":"no","fee":"","operator":"","nameSource":"junction"},"sourceId":"osm"},{"id":"osm:node:4207743653","latitude":52.1862775,"longitude":-2.2224998,"name":"Mill Street near Severn Street","properties":{"access":"customers","bicycle_pa":"stands","capacity":8,"covered":"no","fee":"","operator":"","nameSource":"junction"},"sourceId":"osm"},{"id":"osm:node:5603111590","latitude":52.1906318,"longitude":-2.2241051,"name":"Kleve Walk near South Quay","properties":{"access":"unknown","bicycle_pa":"stands","capacity":8,"covered":"no","fee":"","operator":"","nameSource":"junction"},"sourceId":"osm"},{"id":"osm:node:5603111591","latitude":52.1882276,"longitude":-2.2168911,"name":"Amber Wharf near City Walls Road","properties":{"access":"unknown","bicycle_pa":"stands","capacity":6,"covered":"no","fee":"","operator":"","nameSource":"junction"},"sourceId":"osm"},{"id":"osm:node:5603111600","latitude":52.1881723,"longitude":-2.2149611,"name":"Wyld's Lane near Hamilton Road","properties":{"access":"unknown","bicycle_pa":"stands","capacity":6,"covered":"no","fee":"","operator":"","nameSource":"junction"},"sourceId":"osm"},{"id":"osm:node:5806402645","latitude":52.1991041,"longitude":-2.2828699,"name":"Crown East Lane by Elgar's Birthplace Museum","properties":{"access":"unknown","bicycle_pa":"","capacity":0,"covered":"","fee":"","operator":"","nameSource":"landmark"},"sourceId":"osm"},{"id":"osm:node:8769479178","latitude":52.2060098,"longitude":-2.227702,"name":"Barbourne Lane near Barbourne Road","properties":{"access":"unknown","bicycle_pa":"stands","capacity":8,"covered":"no","fee":"","operator":"","nameSource":"junction"},"sourceId":"osm"},{"id":"osm:node:9234033666","latitude":52.1869232,"longitude":-2.2162639,"name":"Bath Road near Sidbury","properties":{"access":"unknown","bicycle_pa":"stands","capacity":8,"covered":"no","fee":"","operator":"","nameSource":"junction"},"sourceId":"osm"},{"id":"osm:node:9234039462","latitude":52.1934447,"longitude":-2.2229188,"name":"Angel Place near Angel Street","properties":{"access":"unknown","bicycle_pa":"stands","capacity":10,"covered":"no","fee":"","operator":"","nameSource":"junction"},"sourceId":"osm"},{"id":"osm:node:9256441465","latitude":52.1939433,"longitude":-2.2290967,"name":"Grand Stand Road cycle parking","properties":{"access":"unknown","bicycle_pa":"stands","capacity":10,"covered":"no","fee":"","operator":"","nameSource":"street"},"sourceId":"osm"},{"id":"osm:node:9256441466","latitude":52.1931783,"longitude":-2.2287468,"name":"Le Vésinet Promenade by Cafe Viaduct","properties":{"access":"unknown","bicycle_pa":"stands","capacity":6,"covered":"no","fee":"","operator":"","nameSource":"landmark"},"sourceId":"osm"},{"id":"osm:node:9256441467","latitude":52.1744597,"longitude":-2.2296627,"name":"Heron Close cycle parking","properties":{"access":"unknown","bicycle_pa":"","capacity":0,"covered":"","fee":"","operator":"","nameSource":"street"},"sourceId":"osm"},{"id":"osm:node:9442920391","latitude":52.1933004,"longitude":-2.2171884,"name":"City Walls Road near A38","properties":{"access":"unknown","bicycle_pa":"stands","capacity":15,"covered":"no","fee":"","operator":"","nameSource":"junction"},"sourceId":"osm"},{"id":"osm:node:9653770031","latitude":52.1957493,"longitude":-2.2282271,"name":"Severn Terrace by Ostlers","properties":{"access":"unknown","bicycle_pa":"stands","capacity":10,"covered":"no","fee":"no","operator":"","nameSource":"landmark"},"sourceId":"osm"}],"schemaVersion":2}
