{"key":"12/1991/1379","points":[{"id":"osm:node:12512832947","latitude":50.5351775,"longitude":-4.9342775,"name":"Porthilly View by Bug Pan Parties","properties":{"access":"unknown","bicycle_pa":"stands","capacity":0,"covered":"","fee":"","operator":"","nameSource":"landmark"},"sourceId":"osm"},{"id":"osm:node:12512832950","latitude":50.5353365,"longitude":-4.9340357,"name":"Porthilly View by Bug Pan Parties","properties":{"access":"unknown","bicycle_pa":"stands","capacity":0,"covered":"no","fee":"","operator":"","nameSource":"landmark"},"sourceId":"osm"},{"id":"osm:node:12512832951","latitude":50.5360107,"longitude":-4.93394,"name":"Porthilly View near Moyle Road","properties":{"access":"unknown","bicycle_pa":"stands","capacity":0,"covered":"no","fee":"","operator":"","nameSource":"junction"},"sourceId":"osm"},{"id":"osm:node:2267607099","latitude":50.5353987,"longitude":-4.9341485,"name":"Porthilly View near Moyle Road","properties":{"access":"unknown","bicycle_pa":"stands","capacity":55,"covered":"no","fee":"","operator":"","nameSource":"junction"},"sourceId":"osm"},{"id":"osm:way:217491572","latitude":50.53728439999999,"longitude":-4.934310871428571,"name":"Treverbyn Road by The Quay Garage","properties":{"access":"unknown","bicycle_pa":"stands","capacity":100,"covered":"no","fee":"","operator":"","nameSource":"landmark"},"sourceId":"osm"}],"schemaVersion":2}
