{"key":"12/2060/1353","points":[{"id":"osm:node:2429881718","latitude":51.9453495,"longitude":1.0628817,"name":"Manningtree","properties":{"access":"unknown","bicycle_pa":"stands","capacity":8,"covered":"no","fee":"","operator":"","nameSource":"source"},"sourceId":"osm"},{"id":"osm:node:2487307061","latitude":51.9705347,"longitude":1.1358889,"name":"Holbrook Road cycle parking","properties":{"access":"unknown","bicycle_pa":"stands","capacity":4,"covered":"no","fee":"","operator":"","nameSource":"street"},"sourceId":"osm"},{"id":"osm:node:2656308854","latitude":51.9470177,"longitude":1.0608188,"name":"Riverside Avenue East by Manningtree Post Office","properties":{"access":"unknown","bicycle_pa":"stands","capacity":6,"covered":"no","fee":"","operator":"","nameSource":"landmark"},"sourceId":"osm"},{"id":"osm:node:2656308857","latitude":51.9469302,"longitude":1.0605828,"name":"Riverside Avenue East by Manningtree Post Office","properties":{"access":"unknown","bicycle_pa":"stands","capacity":4,"covered":"no","fee":"","operator":"","nameSource":"landmark"},"sourceId":"osm"},{"id":"osm:node:3546556952","latitude":51.9894447,"longitude":1.0719476,"name":"Capel Road near West Mill Green","properties":{"access":"unknown","bicycle_pa":"","capacity":6,"covered":"","fee":"","operator":"","nameSource":"junction"},"sourceId":"osm"},{"id":"osm:node:3995937601","latitude":51.9684323,"longitude":1.0879473,"name":"The Street near Newmill Lane","properties":{"access":"unknown","bicycle_pa":"","capacity":4,"covered":"","fee":"","operator":"","nameSource":"junction"},"sourceId":"osm"},{"id":"osm:node:6627632579","latitude":51.9454605,"longitude":1.0638728,"name":"High Street near South Street","properties":{"access":"yes","bicycle_pa":"wall_loops","capacity":2,"covered":"no","fee":"yes","operator":"","nameSource":"junction"},"sourceId":"osm"},{"id":"osm:node:8662760093","latitude":51.969028,"longitude":1.0695758,"name":"Ipswich Road near Church Lane","properties":{"access":"unknown","bicycle_pa":"stands","capacity":2,"covered":"no","fee":"","operator":"","nameSource":"junction"},"sourceId":"osm"},{"id":"osm:node:8687683237","latitude":51.970192,"longitude":1.0611636,"name":"Slough Road near The Drift","properties":{"access":"customers","bicycle_pa":"stands","capacity":2,"covered":"no","fee":"","operator":"","nameSource":"junction"},"sourceId":"osm"}],"schemaVersion":2}
