{"key":"12/2009/1375","points":[{"id":"osm:node:5129007058","latitude":50.7469065,"longitude":-3.4158609,"name":"Younghayes Road near Barn Orchard","properties":{"access":"yes","bicycle_pa":"stands","capacity":12,"covered":"no","fee":"no","operator":"Cranbrook Town Council","nameSource":"junction"},"sourceId":"osm"},{"id":"osm:node:5139913556","latitude":50.7471577,"longitude":-3.415291,"name":"Younghayes Road near Barn Orchard","properties":{"access":"yes","bicycle_pa":"stands","capacity":16,"covered":"no","fee":"no","operator":"Cranbrook Town Council","nameSource":"junction"},"sourceId":"osm"},{"id":"osm:node:5141981037","latitude":50.7481472,"longitude":-3.4151006,"name":"Younghayes Road near Barn Orchard","properties":{"access":"yes","bicycle_pa":"stands","capacity":10,"covered":"no","fee":"no","operator":"Cranbrook Town Council","nameSource":"junction"},"sourceId":"osm"},{"id":"osm:node:5143606017","latitude":50.7472541,"longitude":-3.4142596,"name":"Younghayes Road cycle parking","properties":{"access":"customers","bicycle_pa":"rack","capacity":0,"covered":"yes","fee":"","operator":"St Martin’s C of E Primary & Nursery School","nameSource":"street"},"sourceId":"osm"},{"id":"osm:node:5143606018","latitude":50.7471897,"longitude":-3.414311,"name":"Younghayes Road cycle parking","properties":{"access":"customers","bicycle_pa":"rack","capacity":0,"covered":"yes","fee":"","operator":"St Martin’s C of E Primary & Nursery School","nameSource":"street"},"sourceId":"osm"},{"id":"osm:node:5143606019","latitude":50.7471214,"longitude":-3.4143654,"name":"Younghayes Road cycle parking","properties":{"access":"customers","bicycle_pa":"rack","capacity":0,"covered":"yes","fee":"","operator":"St Martin’s C of E Primary & Nursery School","nameSource":"street"},"sourceId":"osm"},{"id":"osm:node:5143606020","latitude":50.7470566,"longitude":-3.4144172,"name":"Younghayes Road cycle parking","properties":{"access":"customers","bicycle_pa":"rack","capacity":0,"covered":"yes","fee":"","operator":"St Martin’s C of E Primary & Nursery School","nameSource":"street"},"sourceId":"osm"},{"id":"osm:node:5143606321","latitude":50.7469927,"longitude":-3.4144682,"name":"Younghayes Road cycle parking","properties":{"access":"customers","bicycle_pa":"rack","capacity":0,"covered":"yes","fee":"","operator":"St Martin’s C of E Primary & Nursery School","nameSource":"street"},"sourceId":"osm"},{"id":"osm:node:5143606627","latitude":50.7490117,"longitude":-3.4134936,"name":"Hayes Square near Younghayes Road","properties":{"access":"yes","bicycle_pa":"stands","capacity":5,"covered":"no","fee":"no","operator":"Cranbrook Town Council","nameSource":"junction"},"sourceId":"osm"},{"id":"osm:node:5171689006","latitude":50.7472257,"longitude":-3.4152028,"name":"Younghayes Road by Wok Xpress","properties":{"access":"yes","bicycle_pa":"stands","capacity":4,"covered":"no","fee":"no","operator":"Cranbrook Town Council","nameSource":"landmark"},"sourceId":"osm"},{"id":"osm:node:5171689019","latitude":50.7469456,"longitude":-3.4158426,"name":"Younghayes Road near Barn Orchard","properties":{"access":"yes","bicycle_pa":"stands","capacity":6,"covered":"no","fee":"no","operator":"Cranbrook Town Council","nameSource":"junction"},"sourceId":"osm"},{"id":"osm:node:5171689225","latitude":50.7473295,"longitude":-3.4153905,"name":"Younghayes Road by Wok Xpress","properties":{"access":"yes","bicycle_pa":"stands","capacity":12,"covered":"no","fee":"no","operator":"Cranbrook Town Council","nameSource":"landmark"},"sourceId":"osm"},{"id":"osm:node:5171689226","latitude":50.7472417,"longitude":-3.4154868,"name":"Younghayes Road near Barn Orchard","properties":{"access":"yes","bicycle_pa":"stands","capacity":12,"covered":"no","fee":"no","operator":"Cranbrook Town Council","nameSource":"junction"},"sourceId":"osm"},{"id":"osm:node:5171689272","latitude":50.7478054,"longitude":-3.4152184,"name":"Younghayes Road near Barn Orchard","properties":{"access":"yes","bicycle_pa":"stands","capacity":8,"covered":"no","fee":"no","operator":"Cranbrook Town Council","nameSource":"junction"},"sourceId":"osm"},{"id":"osm:node:5171689273","latitude":50.7476901,"longitude":-3.4152543,"name":"Younghayes Road near Barn Orchard","properties":{"access":"yes","bicycle_pa":"stands","capacity":8,"covered":"no","fee":"no","operator":"Cranbrook Town Council","nameSource":"junction"},"sourceId":"osm"},{"id":"osm:way:1082198339","latitude":50.75514129999999,"longitude":-3.39845324,"name":"Cranbrook Education Campus cycle parking","properties":{"access":"customers","bicycle_pa":"rack","capacity":20,"covered":"yes","fee":"","operator":"Cranbrook Education Campus","nameSource":"landmark"},"sourceId":"osm"},{"id":"osm:way:1082198341","latitude":50.7548065,"longitude":-3.3982559199999995,"name":"Crannaford Lane cycle parking","properties":{"access":"customers","bicycle_pa":"rack","capacity":20,"covered":"yes","fee":"","operator":"Cranbrook Education Campus","nameSource":"street"},"sourceId":"osm"},{"id":"osm:way:1082198342","latitude":50.7549106,"longitude":-3.3982132399999996,"name":"Crannaford Lane cycle parking","properties":{"access":"customers","bicycle_pa":"rack","capacity":20,"covered":"yes","fee":"","operator":"Cranbrook Education Campus","nameSource":"street"},"sourceId":"osm"},{"id":"osm:way:1082198345","latitude":50.7547882,"longitude":-3.3968147,"name":"Cranbrook Education Campus cycle parking","properties":{"access":"customers","bicycle_pa":"rack","capacity":20,"covered":"yes","fee":"","operator":"Cranbrook Education Campus","nameSource":"landmark"},"sourceId":"osm"},{"id":"osm:way:1082198346","latitude":50.7548211,"longitude":-3.3968000599999995,"name":"Cranbrook Education Campus cycle parking","properties":{"access":"customers","bicycle_pa":"rack","capacity":20,"covered":"yes","fee":"","operator":"Cranbrook Education Campus","nameSource":"landmark"},"sourceId":"osm"},{"id":"osm:way:1082198347","latitude":50.754802940000005,"longitude":-3.39716562,"name":"Cranbrook Education Campus cycle parking","properties":{"access":"customers","bicycle_pa":"rack","capacity":20,"covered":"yes","fee":"","operator":"Cranbrook Education Campus","nameSource":"landmark"},"sourceId":"osm"},{"id":"osm:way:1082198348","latitude":50.75483516,"longitude":-3.39715146,"name":"Cranbrook Education Campus cycle parking","properties":{"access":"customers","bicycle_pa":"rack","capacity":20,"covered":"yes","fee":"","operator":"Cranbrook Education Campus","nameSource":"landmark"},"sourceId":"osm"},{"id":"osm:way:1082198349","latitude":50.75486776,"longitude":-3.3971371599999998,"name":"Cranbrook Education Campus cycle parking","properties":{"access":"customers","bicycle_pa":"rack","capacity":20,"covered":"yes","fee":"","operator":"Cranbrook Education Campus","nameSource":"landmark"},"sourceId":"osm"},{"id":"osm:way:1082198350","latitude":50.75496316,"longitude":-3.39709518,"name":"Cranbrook Education Campus cycle parking","properties":{"access":"customers","bicycle_pa":"rack","capacity":20,"covered":"yes","fee":"","operator":"Cranbrook Education Campus","nameSource":"landmark"},"sourceId":"osm"},{"id":"osm:way:1082198351","latitude":50.75493226,"longitude":-3.39710878,"name":"Cranbrook Education Campus cycle parking","properties":{"access":"customers","bicycle_pa":"rack","capacity":20,"covered":"yes","fee":"","operator":"Cranbrook Education Campus","nameSource":"landmark"},"sourceId":"osm"},{"id":"osm:way:1223092692","latitude":50.75201976,"longitude":-3.40016188,"name":"Tillhouse Road by Denley's Essence of India","properties":{"access":"yes","bicycle_pa":"stands","capacity":6,"covered":"","fee":"","operator":"","nameSource":"landmark"},"sourceId":"osm"},{"id":"osm:way:1223092703","latitude":50.75183666666667,"longitude":-3.39961765,"name":"Elm Drive by Little Pioneers Nursery And Pre School","properties":{"access":"customers","bicycle_pa":"stands","capacity":6,"covered":"","fee":"","operator":"Little Pioneers Nursery And Pre School","nameSource":"landmark"},"sourceId":"osm"},{"id":"osm:way:1384185323","latitude":50.75138027999999,"longitude":-3.3999106400000003,"name":"Court Royal by Morrisons","properties":{"access":"private","bicycle_pa":"stands","capacity":3,"covered":"","fee":"","operator":"W M Morrison Supermarkets Plc","nameSource":"landmark"},"sourceId":"osm"},{"id":"osm:way:1525950505","latitude":50.75344596,"longitude":-3.3825811400000005,"name":"Ingrams Place near Elmwood Drive","properties":{"access":"private","bicycle_pa":"rack","capacity":10,"covered":"yes","fee":"","operator":"","nameSource":"junction"},"sourceId":"osm"},{"id":"osm:way:527606227","latitude":50.7451872,"longitude":-3.4169241,"name":"Seven Acres near South View Pasture","properties":{"access":"unknown","bicycle_pa":"","capacity":0,"covered":"","fee":"","operator":"","nameSource":"junction"},"sourceId":"osm"},{"id":"osm:way:529816450","latitude":50.7485491,"longitude":-3.4126535,"name":"Younghayes Road near Hayes Square","properties":{"access":"unknown","bicycle_pa":"","capacity":0,"covered":"","fee":"","operator":"","nameSource":"junction"},"sourceId":"osm"},{"id":"osm:way:532814737","latitude":50.746165319999996,"longitude":-3.41597164,"name":"Younghayes Road near Higher Meadow","properties":{"access":"unknown","bicycle_pa":"","capacity":0,"covered":"","fee":"","operator":"","nameSource":"junction"},"sourceId":"osm"},{"id":"osm:way:539763410","latitude":50.75262274000001,"longitude":-3.3843105600000003,"name":"Lower Three Acres near Stones Gallop","properties":{"access":"private","bicycle_pa":"building","capacity":0,"covered":"yes","fee":"","operator":"","nameSource":"junction"},"sourceId":"osm"},{"id":"osm:way:635055688","latitude":50.750219542857145,"longitude":-3.3994991857142858,"name":"B3174 by The Cranberry Farm","properties":{"access":"customers","bicycle_pa":"stands","capacity":10,"covered":"no","fee":"","operator":"The Cranberry Farm","nameSource":"landmark"},"sourceId":"osm"},{"id":"osm:way:635839212","latitude":50.750027800000005,"longitude":-3.4203246999999997,"name":"Burrough Fields by Cranbrook Station","properties":{"access":"customers","bicycle_pa":"stands","capacity":40,"covered":"yes","fee":"","operator":"South Western Railway","nameSource":"landmark"},"sourceId":"osm"},{"id":"osm:way:758775991","latitude":50.753843249999996,"longitude":-3.3939883,"name":"Crabtree Close cycle parking","properties":{"access":"private","bicycle_pa":"building","capacity":0,"covered":"yes","fee":"","operator":"","nameSource":"street"},"sourceId":"osm"},{"id":"osm:way:770771875","latitude":50.754899460000004,"longitude":-3.3971232000000002,"name":"Cranbrook Education Campus cycle parking","properties":{"access":"customers","bicycle_pa":"rack","capacity":20,"covered":"yes","fee":"","operator":"Cranbrook Education Campus","nameSource":"landmark"},"sourceId":"osm"},{"id":"osm:way:770771878","latitude":50.7548136,"longitude":-3.3974500000000005,"name":"Tillhouse Road cycle parking","properties":{"access":"customers","bicycle_pa":"rack","capacity":50,"covered":"yes","fee":"","operator":"Cranbrook Education Campus","nameSource":"street"},"sourceId":"osm"}],"schemaVersion":2}
