{"key":"12/2009/1377","points":[{"id":"osm:node:12212397982","latitude":50.6310337,"longitude":-3.375898,"name":"Salterton Road by Home Bargains","properties":{"access":"customers","bicycle_pa":"stands","capacity":4,"covered":"no","fee":"","operator":"","nameSource":"landmark"},"sourceId":"osm"},{"id":"osm:node:3386550227","latitude":50.6419879,"longitude":-3.4081094,"name":"Summer Lane by National Trust Gift Shop","properties":{"access":"unknown","bicycle_pa":"bollard","capacity":6,"covered":"no","fee":"","operator":"","nameSource":"landmark"},"sourceId":"osm"},{"id":"osm:node:419402648","latitude":50.6759565,"longitude":-3.4003557,"name":"Flower Street near Greenway","properties":{"access":"unknown","bicycle_pa":"","capacity":0,"covered":"","fee":"","operator":"","nameSource":"junction"},"sourceId":"osm"},{"id":"osm:node:4900647196","latitude":50.630843,"longitude":-3.3748618,"name":"Salterton Road by McDonald's","properties":{"access":"customers","bicycle_pa":"stands","capacity":4,"covered":"no","fee":"","operator":"","nameSource":"landmark"},"sourceId":"osm"},{"id":"osm:node:8736359223","latitude":50.6308074,"longitude":-3.3755084,"name":"Salterton Road cycle parking","properties":{"access":"customers","bicycle_pa":"stands","capacity":7,"covered":"no","fee":"","operator":"","nameSource":"street"},"sourceId":"osm"},{"id":"osm:way:1534575254","latitude":50.62561982,"longitude":-3.40393462,"name":"Phear Park cycle parking","properties":{"access":"unknown","bicycle_pa":"safe_loops","capacity":10,"covered":"no","fee":"no","operator":"","nameSource":"landmark"},"sourceId":"osm"}],"schemaVersion":2}
