{"key":"12/2009/1498","points":[{"id":"osm:node:13703660183","latitude":43.4110263,"longitude":-3.4129097,"name":"Calle de Menéndez Pelayo near Calle de López Seña","properties":{"access":"unknown","bicycle_pa":"wall_loops","capacity":8,"covered":"no","fee":"","operator":"","nameSource":"junction"},"sourceId":"osm"},{"id":"osm:node:13712087447","latitude":43.4076623,"longitude":-3.4151964,"name":"Avenida del Duque de Ahumada near Avenida del Duque de Ahumada - Reconquista de Sevilla","properties":{"access":"unknown","bicycle_pa":"stands","capacity":28,"covered":"no","fee":"","operator":"","nameSource":"junction"},"sourceId":"osm"},{"id":"osm:node:13712091030","latitude":43.4153556,"longitude":-3.4156483,"name":"Calle Antonio Fernández Enríquez by Regma","properties":{"access":"unknown","bicycle_pa":"","capacity":0,"covered":"yes","fee":"","operator":"","nameSource":"landmark"},"sourceId":"osm"},{"id":"osm:node:3190893661","latitude":43.4104187,"longitude":-3.4225167,"name":"Paseo Marítimo by El Pescador","properties":{"access":"unknown","bicycle_pa":"wall_loops","capacity":8,"covered":"no","fee":"","operator":"","nameSource":"landmark"},"sourceId":"osm"},{"id":"osm:node:3259777012","latitude":43.4112239,"longitude":-3.4185885,"name":"Calle de Almirante Ramón de Bonifaz near Avenida de Cantabria","properties":{"access":"unknown","bicycle_pa":"","capacity":0,"covered":"no","fee":"","operator":"","nameSource":"junction"},"sourceId":"osm"},{"id":"osm:node:3259779763","latitude":43.4111127,"longitude":-3.4158541,"name":"Calle de López Seña near Calle del Padre Ignacio Ellacuría","properties":{"access":"unknown","bicycle_pa":"wall_loops","capacity":6,"covered":"no","fee":"","operator":"","nameSource":"junction"},"sourceId":"osm"},{"id":"osm:node:6666120685","latitude":43.4141521,"longitude":-3.4140941,"name":"Calle Antonio Fernández Enríquez near Calle del Navegante Martín de Islares","properties":{"access":"unknown","bicycle_pa":"","capacity":0,"covered":"","fee":"","operator":"","nameSource":"junction"},"sourceId":"osm"}],"schemaVersion":2}
