{"key":"12/1977/1328","points":[{"id":"osm:node:10015257327","latitude":53.302631,"longitude":-6.1790592,"name":"Bath Place by ESB Electric Vehicle Charge Point","properties":{"access":"yes","bicycle_pa":"stands","capacity":40,"covered":"yes","fee":"no","operator":"","nameSource":"landmark"},"sourceId":"osm"},{"id":"osm:node:10019166175","latitude":53.306617,"longitude":-6.2206089,"name":"Blue Bird Cafe cycle parking","properties":{"access":"unknown","bicycle_pa":"stands","capacity":42,"covered":"no","fee":"no","operator":"","nameSource":"landmark"},"sourceId":"osm"},{"id":"osm:node:10019166176","latitude":53.305886,"longitude":-6.2206568,"name":"Road 9 by GM Hopkins International Centre and Restaurant","properties":{"access":"unknown","bicycle_pa":"stands","capacity":84,"covered":"no","fee":"no","operator":"","nameSource":"landmark"},"sourceId":"osm"},{"id":"osm:node:10027892872","latitude":53.292758,"longitude":-6.1799745,"name":"Carysfort Avenue near Proby Square","properties":{"access":"unknown","bicycle_pa":"stands","capacity":2,"covered":"no","fee":"","operator":"","nameSource":"junction"},"sourceId":"osm"},{"id":"osm:node:10175808927","latitude":53.3053552,"longitude":-6.2166753,"name":"UCD Belfield, Campus cycle parking","properties":{"access":"unknown","bicycle_pa":"","capacity":10,"covered":"","fee":"","operator":"","nameSource":"landmark"},"sourceId":"osm"},{"id":"osm:node:10587248578","latitude":53.2807989,"longitude":-6.1576645,"name":"Kill Avenue near Abbey Road","properties":{"access":"yes","bicycle_pa":"stands","capacity":4,"covered":"no","fee":"no","operator":"","nameSource":"junction"},"sourceId":"osm"},{"id":"osm:node:10614114410","latitude":53.2983165,"longitude":-6.1655764,"name":"Alma Road near Seapoint Avenue","properties":{"access":"yes","bicycle_pa":"stands","capacity":8,"covered":"no","fee":"no","operator":"","nameSource":"junction"},"sourceId":"osm"},{"id":"osm:node:10614229509","latitude":53.2862433,"longitude":-6.1538102,"name":"Monkstown Grove near Dunedin Close","properties":{"access":"private","bicycle_pa":"stands","capacity":10,"covered":"no","fee":"no","operator":"","nameSource":"junction"},"sourceId":"osm"},{"id":"osm:node:10614480483","latitude":53.2985902,"longitude":-6.1675016,"name":"Seapoint Avenue near Tobernea Terrace","properties":{"access":"unknown","bicycle_pa":"stands","capacity":1,"covered":"no","fee":"","operator":"","nameSource":"junction"},"sourceId":"osm"},{"id":"osm:node:10692845153","latitude":53.3022054,"longitude":-6.1793551,"name":"Rock Hill near Brusna Cottages","properties":{"access":"yes","bicycle_pa":"stands","capacity":10,"covered":"no","fee":"no","operator":"","nameSource":"junction"},"sourceId":"osm"},{"id":"osm:node:10759539010","latitude":53.2833247,"longitude":-6.2388483,"name":"Slang River Greenway cycle parking","properties":{"access":"yes","bicycle_pa":"stands","capacity":10,"covered":"no","fee":"no","operator":"","nameSource":"street"},"sourceId":"osm"},{"id":"osm:node:10759555097","latitude":53.278444,"longitude":-6.2365029,"name":"Ballawley Court near Clonard Lawn","properties":{"access":"yes","bicycle_pa":"stands","capacity":10,"covered":"no","fee":"no","operator":"","nameSource":"junction"},"sourceId":"osm"},{"id":"osm:node:10760846438","latitude":53.2809704,"longitude":-6.2206623,"name":"Holly Avenue cycle parking","properties":{"access":"yes","bicycle_pa":"stands","capacity":20,"covered":"no","fee":"no","operator":"St. Olafs GAA Club","nameSource":"street"},"sourceId":"osm"},{"id":"osm:node:10866219482","latitude":53.300997,"longitude":-6.1807839,"name":"Frascati Road near Georges Avenue","properties":{"access":"yes","bicycle_pa":"stands","capacity":8,"covered":"no","fee":"no","operator":"","nameSource":"junction"},"sourceId":"osm"},{"id":"osm:node:10933676074","latitude":53.2887737,"longitude":-6.2267681,"name":"Drummartin Link Road near Drummartin Road","properties":{"access":"yes","bicycle_pa":"stands","capacity":8,"covered":"no","fee":"no","operator":"","nameSource":"junction"},"sourceId":"osm"},{"id":"osm:node:10933676075","latitude":53.2887007,"longitude":-6.2267281,"name":"Drummartin Link Road near Drummartin Road","properties":{"access":"yes","bicycle_pa":"stands","capacity":8,"covered":"no","fee":"no","operator":"","nameSource":"junction"},"sourceId":"osm"},{"id":"osm:node:10942561768","latitude":53.2891823,"longitude":-6.1757513,"name":"Fleurville Road near Benamore Road","properties":{"access":"unknown","bicycle_pa":"stands","capacity":10,"covered":"no","fee":"","operator":"","nameSource":"junction"},"sourceId":"osm"},{"id":"osm:node:11056798758","latitude":53.2795635,"longitude":-6.1601972,"name":"The Grange by Tile Merchant Deansgrange","properties":{"access":"unknown","bicycle_pa":"stands","capacity":8,"covered":"no","fee":"no","operator":"","nameSource":"landmark"},"sourceId":"osm"},{"id":"osm:node:11069748546","latitude":53.2931056,"longitude":-6.1529333,"name":"Carrickbrennan Road near Alma Place","properties":{"access":"yes","bicycle_pa":"stands","capacity":6,"covered":"no","fee":"no","operator":"","nameSource":"junction"},"sourceId":"osm"},{"id":"osm:node:11341456294","latitude":53.2886461,"longitude":-6.1997626,"name":"Kilmacud Road Lower by eStation","properties":{"access":"yes","bicycle_pa":"stands","capacity":0,"covered":"no","fee":"yes","operator":"","nameSource":"landmark"},"sourceId":"osm"},{"id":"osm:node:11793737777","latitude":53.3162658,"longitude":-6.2378586,"name":"Clonskeagh Road near Riverside Walk","properties":{"access":"yes","bicycle_pa":"stands","capacity":12,"covered":"no","fee":"no","operator":"","nameSource":"junction"},"sourceId":"osm"},{"id":"osm:node:11793737778","latitude":53.316162,"longitude":-6.2374861,"name":"Clonskeagh Road near Riverside Walk","properties":{"access":"yes","bicycle_pa":"stands","capacity":4,"covered":"no","fee":"no","operator":"","nameSource":"junction"},"sourceId":"osm"},{"id":"osm:node:11821919752","latitude":53.3281263,"longitude":-6.2280702,"name":"Merrion Road cycle parking","properties":{"access":"unknown","bicycle_pa":"stands","capacity":8,"covered":"no","fee":"","operator":"","nameSource":"street"},"sourceId":"osm"},{"id":"osm:node:11821947938","latitude":53.3280827,"longitude":-6.2279008,"name":"Merrion Road near Serpentine Avenue","properties":{"access":"unknown","bicycle_pa":"stands","capacity":8,"covered":"no","fee":"","operator":"","nameSource":"junction"},"sourceId":"osm"},{"id":"osm:node:11822849932","latitude":53.3287078,"longitude":-6.2389799,"name":"Clyde Road near Raglan Road","properties":{"access":"unknown","bicycle_pa":"stands","capacity":18,"covered":"no","fee":"no","operator":"","nameSource":"junction"},"sourceId":"osm"},{"id":"osm:node:11828759175","latitude":53.325615,"longitude":-6.2268608,"name":"Simmonscourt Road cycle parking","properties":{"access":"unknown","bicycle_pa":"stands","capacity":10,"covered":"no","fee":"","operator":"","nameSource":"street"},"sourceId":"osm"},{"id":"osm:node:11828828358","latitude":53.2977657,"longitude":-6.1598273,"name":"Brighton Vale near Seapoint Avenue","properties":{"access":"unknown","bicycle_pa":"stands","capacity":4,"covered":"no","fee":"","operator":"","nameSource":"junction"},"sourceId":"osm"},{"id":"osm:node:11828886477","latitude":53.2979211,"longitude":-6.1600197,"name":"Brighton Vale cycle parking","properties":{"access":"unknown","bicycle_pa":"stands","capacity":4,"covered":"no","fee":"","operator":"","nameSource":"street"},"sourceId":"osm"},{"id":"osm:node:11828891164","latitude":53.2977802,"longitude":-6.1600293,"name":"Brighton Vale near Seapoint Avenue","properties":{"access":"unknown","bicycle_pa":"stands","capacity":6,"covered":"no","fee":"","operator":"","nameSource":"junction"},"sourceId":"osm"},{"id":"osm:node:11829926936","latitude":53.3275931,"longitude":-6.2352685,"name":"Herbert Park cycle parking","properties":{"access":"yes","bicycle_pa":"stands","capacity":14,"covered":"no","fee":"no","operator":"","nameSource":"street"},"sourceId":"osm"},{"id":"osm:node:11829943527","latitude":53.3275854,"longitude":-6.2351051,"name":"Herbert Park cycle parking","properties":{"access":"yes","bicycle_pa":"stands","capacity":20,"covered":"no","fee":"no","operator":"","nameSource":"street"},"sourceId":"osm"},{"id":"osm:node:11838852561","latitude":53.2793155,"longitude":-6.2117917,"name":"Blackthorn Drive near Saint Raphaela’s Road","properties":{"access":"yes","bicycle_pa":"stands","capacity":10,"covered":"no","fee":"no","operator":"","nameSource":"junction"},"sourceId":"osm"},{"id":"osm:node:11838852564","latitude":53.2791962,"longitude":-6.2113697,"name":"Blackthorn Drive near Saint Raphaela’s Road","properties":{"access":"yes","bicycle_pa":"stands","capacity":30,"covered":"no","fee":"no","operator":"","nameSource":"junction"},"sourceId":"osm"},{"id":"osm:node:11842329631","latitude":53.2859222,"longitude":-6.236681,"name":"Overend Avenue near Rockfield","properties":{"access":"yes","bicycle_pa":"stands","capacity":12,"covered":"no","fee":"no","operator":"","nameSource":"junction"},"sourceId":"osm"},{"id":"osm:node:11843461487","latitude":53.2853142,"longitude":-6.1963697,"name":"Merville Road by St Brigid's National School","properties":{"access":"unknown","bicycle_pa":"wall_loops","capacity":0,"covered":"no","fee":"","operator":"","nameSource":"landmark"},"sourceId":"osm"},{"id":"osm:node:11843461488","latitude":53.28519,"longitude":-6.196534,"name":"Merville Road by St Brigid's National School","properties":{"access":"unknown","bicycle_pa":"stands","capacity":20,"covered":"no","fee":"","operator":"","nameSource":"landmark"},"sourceId":"osm"},{"id":"osm:node:11843994825","latitude":53.2793341,"longitude":-6.2119603,"name":"Blackthorn Drive near Saint Raphaela’s Road","properties":{"access":"yes","bicycle_pa":"stands","capacity":38,"covered":"no","fee":"no","operator":"","nameSource":"junction"},"sourceId":"osm"},{"id":"osm:node:11843994831","latitude":53.2796974,"longitude":-6.2129601,"name":"Blackthorn Drive by Aldi","properties":{"access":"yes","bicycle_pa":"stands","capacity":16,"covered":"no","fee":"no","operator":"","nameSource":"landmark"},"sourceId":"osm"},{"id":"osm:node:11905242817","latitude":53.3179225,"longitude":-6.2123762,"name":"Merrion Road cycle parking","properties":{"access":"yes","bicycle_pa":"","capacity":0,"covered":"no","fee":"","operator":"","nameSource":"street"},"sourceId":"osm"},{"id":"osm:node:11905242818","latitude":53.3179108,"longitude":-6.2127232,"name":"Nutley Lane cycle parking","properties":{"access":"yes","bicycle_pa":"","capacity":0,"covered":"no","fee":"","operator":"","nameSource":"street"},"sourceId":"osm"},{"id":"osm:node:11933510151","latitude":53.3092589,"longitude":-6.218603,"name":"Stillorgan Road cycle parking","properties":{"access":"yes","bicycle_pa":"stands","capacity":20,"covered":"no","fee":"","operator":"","nameSource":"street"},"sourceId":"osm"},{"id":"osm:node:11939370523","latitude":53.2961654,"longitude":-6.2208015,"name":"Ardilea Downs cycle parking","properties":{"access":"permissive","bicycle_pa":"stands","capacity":8,"covered":"","fee":"","operator":"","nameSource":"street"},"sourceId":"osm"},{"id":"osm:node:11939370526","latitude":53.2961716,"longitude":-6.2208453,"name":"Ardilea Downs cycle parking","properties":{"access":"permissive","bicycle_pa":"stands","capacity":10,"covered":"","fee":"","operator":"","nameSource":"street"},"sourceId":"osm"},{"id":"osm:node:11956716783","latitude":53.3222566,"longitude":-6.2360006,"name":"Pembroke Cottages near Donnybrook Road","properties":{"access":"yes","bicycle_pa":"","capacity":0,"covered":"no","fee":"","operator":"","nameSource":"junction"},"sourceId":"osm"},{"id":"osm:node:12078375171","latitude":53.310616,"longitude":-6.2081138,"name":"Bellevue Park near Woodbine Park","properties":{"access":"unknown","bicycle_pa":"","capacity":0,"covered":"","fee":"","operator":"","nameSource":"junction"},"sourceId":"osm"},{"id":"osm:node:12124091943","latitude":53.3096421,"longitude":-6.2232308,"name":"Route1 cycle parking","properties":{"access":"unknown","bicycle_pa":"","capacity":50,"covered":"","fee":"","operator":"","nameSource":"street"},"sourceId":"osm"},{"id":"osm:node:12124092273","latitude":53.3064224,"longitude":-6.2208819,"name":"Blue Bird Cafe cycle parking","properties":{"access":"unknown","bicycle_pa":"stands","capacity":20,"covered":"no","fee":"","operator":"","nameSource":"landmark"},"sourceId":"osm"},{"id":"osm:node:12124092277","latitude":53.3044967,"longitude":-6.2227473,"name":"Road 9 cycle parking","properties":{"access":"unknown","bicycle_pa":"stands","capacity":0,"covered":"yes","fee":"","operator":"","nameSource":"street"},"sourceId":"osm"},{"id":"osm:node:12124092278","latitude":53.304558,"longitude":-6.2226823,"name":"Road 9 cycle parking","properties":{"access":"unknown","bicycle_pa":"stands","capacity":0,"covered":"yes","fee":"","operator":"","nameSource":"street"},"sourceId":"osm"},{"id":"osm:node:12124092280","latitude":53.3043977,"longitude":-6.2234018,"name":"Clonskeagh cycle parking","properties":{"access":"unknown","bicycle_pa":"stands","capacity":10,"covered":"","fee":"","operator":"","nameSource":"place"},"sourceId":"osm"},{"id":"osm:node:12124092281","latitude":53.3044951,"longitude":-6.2236948,"name":"Belgrove cycle parking","properties":{"access":"unknown","bicycle_pa":"stands","capacity":10,"covered":"","fee":"","operator":"","nameSource":"street"},"sourceId":"osm"},{"id":"osm:node:12124092282","latitude":53.3041829,"longitude":-6.2236948,"name":"Roebuck Castle cycle parking","properties":{"access":"unknown","bicycle_pa":"stands","capacity":20,"covered":"","fee":"","operator":"","nameSource":"street"},"sourceId":"osm"},{"id":"osm:node:12216316239","latitude":53.3196788,"longitude":-6.2329843,"name":"Eglinton Road near Donnybrook Road","properties":{"access":"unknown","bicycle_pa":"stands","capacity":4,"covered":"no","fee":"no","operator":"","nameSource":"junction"},"sourceId":"osm"},{"id":"osm:node:12497062241","latitude":53.2831087,"longitude":-6.2237363,"name":"Benildus Avenue cycle parking","properties":{"access":"unknown","bicycle_pa":"stands","capacity":18,"covered":"no","fee":"no","operator":"","nameSource":"street"},"sourceId":"osm"},{"id":"osm:node:12753002445","latitude":53.3088904,"longitude":-6.1966389,"name":"Booterstown Avenue near Rock Road","properties":{"access":"unknown","bicycle_pa":"","capacity":0,"covered":"no","fee":"","operator":"","nameSource":"junction"},"sourceId":"osm"},{"id":"osm:node:1282183179","latitude":53.2793036,"longitude":-6.2101859,"name":"Blackthorn Avenue near Blackthorn Drive","properties":{"access":"yes","bicycle_pa":"stands","capacity":30,"covered":"no","fee":"no","operator":"","nameSource":"junction"},"sourceId":"osm"},{"id":"osm:node:1292311417","latitude":53.2799226,"longitude":-6.2136096,"name":"Blackthorn Drive by Rationel","properties":{"access":"yes","bicycle_pa":"stands","capacity":16,"covered":"no","fee":"no","operator":"","nameSource":"landmark"},"sourceId":"osm"},{"id":"osm:node:1292311418","latitude":53.280184,"longitude":-6.2143796,"name":"Blackthorn Drive near Benildus Avenue","properties":{"access":"yes","bicycle_pa":"stands","capacity":16,"covered":"no","fee":"no","operator":"","nameSource":"junction"},"sourceId":"osm"},{"id":"osm:node:12959172959","latitude":53.2887976,"longitude":-6.2003764,"name":"Kilmacud Road Lower by Photo-Me","properties":{"access":"yes","bicycle_pa":"stands","capacity":6,"covered":"no","fee":"no","operator":"","nameSource":"landmark"},"sourceId":"osm"},{"id":"osm:node:12992846527","latitude":53.3097571,"longitude":-6.1951264,"name":"Booterstown cycle parking","properties":{"access":"yes","bicycle_pa":"stands","capacity":0,"covered":"yes","fee":"no","operator":"","nameSource":"landmark"},"sourceId":"osm"},{"id":"osm:node:12992846528","latitude":53.3098011,"longitude":-6.1951564,"name":"Booterstown cycle parking","properties":{"access":"unknown","bicycle_pa":"lockers","capacity":10,"covered":"","fee":"","operator":"","nameSource":"landmark"},"sourceId":"osm"},{"id":"osm:node:13043042860","latitude":53.2861884,"longitude":-6.1552891,"name":"Lanesville near Monkstown Farm","properties":{"access":"unknown","bicycle_pa":"stands","capacity":4,"covered":"no","fee":"","operator":"","nameSource":"junction"},"sourceId":"osm"},{"id":"osm:node:13043042861","latitude":53.2860057,"longitude":-6.154883,"name":"Monkstown Farm near Lanesville","properties":{"access":"unknown","bicycle_pa":"stands","capacity":4,"covered":"no","fee":"","operator":"","nameSource":"junction"},"sourceId":"osm"},{"id":"osm:node:13124054835","latitude":53.3279919,"longitude":-6.2208607,"name":"Holyrood Park near Sandymount Avenue","properties":{"access":"unknown","bicycle_pa":"","capacity":0,"covered":"","fee":"","operator":"","nameSource":"junction"},"sourceId":"osm"},{"id":"osm:node:13147443558","latitude":53.3213488,"longitude":-6.234832,"name":"Eglinton Terrace near Donnybrook Road","properties":{"access":"unknown","bicycle_pa":"stands","capacity":6,"covered":"no","fee":"no","operator":"","nameSource":"junction"},"sourceId":"osm"},{"id":"osm:node:13159413117","latitude":53.2898359,"longitude":-6.1945568,"name":"Patrician Villas near Stillorgan Park","properties":{"access":"yes","bicycle_pa":"stands","capacity":8,"covered":"no","fee":"no","operator":"","nameSource":"junction"},"sourceId":"osm"},{"id":"osm:node:13175168406","latitude":53.3198773,"longitude":-6.232675,"name":"Donnybrook Road near Eglinton Road","properties":{"access":"yes","bicycle_pa":"stands","capacity":10,"covered":"no","fee":"no","operator":"","nameSource":"junction"},"sourceId":"osm"},{"id":"osm:node:13175543886","latitude":53.3297745,"longitude":-6.2320603,"name":"Shelbourne Road near Pembroke Road","properties":{"access":"yes","bicycle_pa":"stands","capacity":4,"covered":"no","fee":"no","operator":"","nameSource":"junction"},"sourceId":"osm"},{"id":"osm:node:13176964954","latitude":53.3037262,"longitude":-6.1909119,"name":"Booterstown cycle parking","properties":{"access":"unknown","bicycle_pa":"","capacity":0,"covered":"","fee":"","operator":"","nameSource":"place"},"sourceId":"osm"},{"id":"osm:node:13181050387","latitude":53.309736,"longitude":-6.1951657,"name":"Booterstown cycle parking","properties":{"access":"unknown","bicycle_pa":"lockers","capacity":8,"covered":"","fee":"","operator":"","nameSource":"landmark"},"sourceId":"osm"},{"id":"osm:node:13184717243","latitude":53.3086342,"longitude":-6.1949901,"name":"Rock Road by Booterstown Park","properties":{"access":"yes","bicycle_pa":"stands","capacity":10,"covered":"no","fee":"no","operator":"","nameSource":"landmark"},"sourceId":"osm"},{"id":"osm:node:13184762157","latitude":53.308552,"longitude":-6.1959517,"name":"Rock Road near Booterstown Avenue","properties":{"access":"yes","bicycle_pa":"stands","capacity":4,"covered":"no","fee":"no","operator":"","nameSource":"junction"},"sourceId":"osm"},{"id":"osm:node:1320733401","latitude":53.2799329,"longitude":-6.2107149,"name":"Saint Raphaela’s Road cycle parking","properties":{"access":"yes","bicycle_pa":"stands","capacity":38,"covered":"no","fee":"no","operator":"","nameSource":"street"},"sourceId":"osm"},{"id":"osm:node:13230604726","latitude":53.3244035,"longitude":-6.2066886,"name":"Strand Road by Revolution Laundry","properties":{"access":"unknown","bicycle_pa":"","capacity":0,"covered":"","fee":"","operator":"","nameSource":"landmark"},"sourceId":"osm"},{"id":"osm:node:13243750929","latitude":53.3286098,"longitude":-6.232466,"name":"Ballsbridge Terrace near Pembroke Place","properties":{"access":"yes","bicycle_pa":"stands","capacity":4,"covered":"no","fee":"no","operator":"","nameSource":"junction"},"sourceId":"osm"},{"id":"osm:node:13243750932","latitude":53.3283885,"longitude":-6.2317773,"name":"Ballsbridge Terrace near Pembroke Place","properties":{"access":"yes","bicycle_pa":"stands","capacity":16,"covered":"no","fee":"no","operator":"","nameSource":"junction"},"sourceId":"osm"},{"id":"osm:node:13272138259","latitude":53.3056759,"longitude":-6.2307141,"name":"Creche Road cycle parking","properties":{"access":"unknown","bicycle_pa":"","capacity":0,"covered":"","fee":"","operator":"","nameSource":"street"},"sourceId":"osm"},{"id":"osm:node:13283998599","latitude":53.2949194,"longitude":-6.2029011,"name":"Stillorgan Road by Brass","properties":{"access":"customers","bicycle_pa":"stands","capacity":6,"covered":"no","fee":"","operator":"","nameSource":"landmark"},"sourceId":"osm"},{"id":"osm:node:13285770461","latitude":53.3051493,"longitude":-6.2201544,"name":"Road 8 by AIB","properties":{"access":"unknown","bicycle_pa":"stands","capacity":20,"covered":"no","fee":"","operator":"","nameSource":"landmark"},"sourceId":"osm"},{"id":"osm:node:13432247118","latitude":53.2788134,"longitude":-6.2202901,"name":"Spruce Avenue near Maple Avenue","properties":{"access":"unknown","bicycle_pa":"","capacity":0,"covered":"","fee":"","operator":"","nameSource":"junction"},"sourceId":"osm"},{"id":"osm:node:13432284491","latitude":53.2784602,"longitude":-6.2221475,"name":"Drummartin Link Road cycle parking","properties":{"access":"unknown","bicycle_pa":"","capacity":0,"covered":"","fee":"","operator":"","nameSource":"street"},"sourceId":"osm"},{"id":"osm:node:13432530554","latitude":53.2798478,"longitude":-6.2107577,"name":"Saint Raphaela’s Road near Blackthorn Drive","properties":{"access":"unknown","bicycle_pa":"","capacity":0,"covered":"","fee":"","operator":"","nameSource":"junction"},"sourceId":"osm"},{"id":"osm:node:13584628065","latitude":53.2860655,"longitude":-6.1609609,"name":"TEK Roundabout near Monkstown Avenue","properties":{"access":"yes","bicycle_pa":"stands","capacity":8,"covered":"no","fee":"no","operator":"","nameSource":"junction"},"sourceId":"osm"},{"id":"osm:node:13626997143","latitude":53.2863374,"longitude":-6.1610489,"name":"Monkstown Avenue near TEK Roundabout","properties":{"access":"unknown","bicycle_pa":"stands","capacity":2,"covered":"no","fee":"","operator":"","nameSource":"junction"},"sourceId":"osm"},{"id":"osm:node:13626997144","latitude":53.2863406,"longitude":-6.16101,"name":"Monkstown Avenue near TEK Roundabout","properties":{"access":"unknown","bicycle_pa":"stands","capacity":8,"covered":"no","fee":"","operator":"","nameSource":"junction"},"sourceId":"osm"},{"id":"osm:node:13629478759","latitude":53.3079702,"longitude":-6.2367856,"name":"Clonskeagh Road near Wynnsward Drive","properties":{"access":"yes","bicycle_pa":"","capacity":20,"covered":"no","fee":"","operator":"","nameSource":"junction"},"sourceId":"osm"},{"id":"osm:node:13818111208","latitude":53.2789203,"longitude":-6.1866405,"name":"Stillorgan Road near Bray Road","properties":{"access":"yes","bicycle_pa":"stands","capacity":0,"covered":"no","fee":"no","operator":"","nameSource":"junction"},"sourceId":"osm"},{"id":"osm:node:1876818719","latitude":53.3123573,"longitude":-6.2331218,"name":"Belfield Office Park cycle parking","properties":{"access":"unknown","bicycle_pa":"","capacity":0,"covered":"","fee":"","operator":"","nameSource":"street"},"sourceId":"osm"},{"id":"osm:node:2301411509","latitude":53.3010844,"longitude":-6.1768905,"name":"Main Street near Carysfort Avenue","properties":{"access":"unknown","bicycle_pa":"stands","capacity":26,"covered":"no","fee":"","operator":"","nameSource":"junction"},"sourceId":"osm"},{"id":"osm:node:2301411511","latitude":53.3019152,"longitude":-6.1806357,"name":"Rock Hill near Frascati Road","properties":{"access":"unknown","bicycle_pa":"stands","capacity":16,"covered":"yes","fee":"","operator":"","nameSource":"junction"},"sourceId":"osm"},{"id":"osm:node:2301477775","latitude":53.285445,"longitude":-6.2391471,"name":"Wyckham Way near Overend Way","properties":{"access":"unknown","bicycle_pa":"stands","capacity":46,"covered":"no","fee":"","operator":"","nameSource":"junction"},"sourceId":"osm"},{"id":"osm:node:2301528004","latitude":53.3190838,"longitude":-6.2133664,"name":"Merrion Road cycle parking","properties":{"access":"yes","bicycle_pa":"stands","capacity":8,"covered":"no","fee":"no","operator":"Dublin City Council","nameSource":"street"},"sourceId":"osm"},{"id":"osm:node:2435635790","latitude":53.3009072,"longitude":-6.1887873,"name":"Cross Avenue near Mount Merrion Avenue","properties":{"access":"unknown","bicycle_pa":"stands","capacity":4,"covered":"","fee":"","operator":"","nameSource":"junction"},"sourceId":"osm"},{"id":"osm:node:2435635793","latitude":53.3019073,"longitude":-6.1781112,"name":"Main Street near George's Avenue","properties":{"access":"yes","bicycle_pa":"stands","capacity":8,"covered":"no","fee":"no","operator":"Dun Laoghaire-Rathdown County Council","nameSource":"junction"},"sourceId":"osm"},{"id":"osm:node:2962259837","latitude":53.3031747,"longitude":-6.2083348,"name":"Stillorgan Road near Foster's Avenue","properties":{"access":"unknown","bicycle_pa":"stands","capacity":14,"covered":"yes","fee":"","operator":"","nameSource":"junction"},"sourceId":"osm"},{"id":"osm:node:2973342308","latitude":53.2846665,"longitude":-6.1948535,"name":"Stillorgan Road cycle parking","properties":{"access":"unknown","bicycle_pa":"stands","capacity":8,"covered":"no","fee":"","operator":"","nameSource":"street"},"sourceId":"osm"},{"id":"osm:node:3005095363","latitude":53.3090318,"longitude":-6.2232375,"name":"Route1 cycle parking","properties":{"access":"unknown","bicycle_pa":"anchors","capacity":20,"covered":"no","fee":"","operator":"","nameSource":"street"},"sourceId":"osm"},{"id":"osm:node:3005104942","latitude":53.3065734,"longitude":-6.2223257,"name":"AIB cycle parking","properties":{"access":"unknown","bicycle_pa":"rack","capacity":0,"covered":"","fee":"","operator":"","nameSource":"landmark"},"sourceId":"osm"},{"id":"osm:node:3225168330","latitude":53.2892163,"longitude":-6.1995784,"name":"Old Dublin Road near Saint Laurence's Park","properties":{"access":"unknown","bicycle_pa":"stands","capacity":10,"covered":"no","fee":"","operator":"","nameSource":"junction"},"sourceId":"osm"},{"id":"osm:node:3225168331","latitude":53.2895516,"longitude":-6.199578,"name":"Old Dublin Road near Saint Laurence's Park","properties":{"access":"customers","bicycle_pa":"stands","capacity":34,"covered":"no","fee":"no","operator":"","nameSource":"junction"},"sourceId":"osm"},{"id":"osm:node:3245994170","latitude":53.289165,"longitude":-6.1949912,"name":"Stillorgan Road near Kilmacud Road Lower","properties":{"access":"unknown","bicycle_pa":"stands","capacity":12,"covered":"no","fee":"","operator":"","nameSource":"junction"},"sourceId":"osm"},{"id":"osm:node:3252671138","latitude":53.2883435,"longitude":-6.2002784,"name":"Kilmacud Road Lower by Stillorgan Medical Centre","properties":{"access":"unknown","bicycle_pa":"stands","capacity":4,"covered":"no","fee":"","operator":"","nameSource":"landmark"},"sourceId":"osm"},{"id":"osm:node:3252671139","latitude":53.2883647,"longitude":-6.2009852,"name":"Kilmacud Road Lower by Appleton's Picture Framers","properties":{"access":"unknown","bicycle_pa":"stands","capacity":8,"covered":"no","fee":"","operator":"","nameSource":"landmark"},"sourceId":"osm"},{"id":"osm:node:3252671140","latitude":53.3056511,"longitude":-6.2111734,"name":"Stillorgan Road near Seafield Road","properties":{"access":"yes","bicycle_pa":"stands","capacity":10,"covered":"no","fee":"","operator":"","nameSource":"junction"},"sourceId":"osm"},{"id":"osm:node:3259926825","latitude":53.2995604,"longitude":-6.2088484,"name":"The Close near The Rise","properties":{"access":"unknown","bicycle_pa":"stands","capacity":4,"covered":"no","fee":"","operator":"","nameSource":"junction"},"sourceId":"osm"},{"id":"osm:node:3259926826","latitude":53.3089549,"longitude":-6.216201,"name":"Stillorgan Road by Mechanic On Duty","properties":{"access":"unknown","bicycle_pa":"stands","capacity":8,"covered":"yes","fee":"","operator":"","nameSource":"landmark"},"sourceId":"osm"},{"id":"osm:node:3265085519","latitude":53.2957368,"longitude":-6.2111771,"name":"North Avenue cycle parking","properties":{"access":"unknown","bicycle_pa":"stands","capacity":20,"covered":"no","fee":"","operator":"","nameSource":"street"},"sourceId":"osm"},{"id":"osm:node:3267279269","latitude":53.2826641,"longitude":-6.1938625,"name":"Stillorgan Road near Farmleigh Avenue","properties":{"access":"yes","bicycle_pa":"stands","capacity":20,"covered":"yes","fee":"no","operator":"","nameSource":"junction"},"sourceId":"osm"},{"id":"osm:node:3398798065","latitude":53.2886852,"longitude":-6.1986682,"name":"Kilmacud Road Lower near Old Dublin Road","properties":{"access":"yes","bicycle_pa":"rack","capacity":22,"covered":"no","fee":"no","operator":"","nameSource":"junction"},"sourceId":"osm"},{"id":"osm:node:3493244290","latitude":53.2881891,"longitude":-6.2008028,"name":"Kilmacud Road Lower by PTSB","properties":{"access":"yes","bicycle_pa":"stands","capacity":6,"covered":"no","fee":"no","operator":"","nameSource":"landmark"},"sourceId":"osm"},{"id":"osm:node:3512205787","latitude":53.2960418,"longitude":-6.1807647,"name":"Carysfort Avenue by Blackrock Athletics Club","properties":{"access":"unknown","bicycle_pa":"stands","capacity":10,"covered":"","fee":"","operator":"","nameSource":"landmark"},"sourceId":"osm"},{"id":"osm:node:3732170087","latitude":53.2896403,"longitude":-6.1988106,"name":"Old Dublin Road near Saint Laurence's Park","properties":{"access":"unknown","bicycle_pa":"stands","capacity":8,"covered":"no","fee":"","operator":"","nameSource":"junction"},"sourceId":"osm"},{"id":"osm:node:3732178051","latitude":53.288502,"longitude":-6.2003352,"name":"Kilmacud Road Lower by Photo-Me","properties":{"access":"unknown","bicycle_pa":"stands","capacity":6,"covered":"no","fee":"","operator":"","nameSource":"landmark"},"sourceId":"osm"},{"id":"osm:node:3750529750","latitude":53.2892754,"longitude":-6.1993676,"name":"Old Dublin Road near Saint Laurence's Park","properties":{"access":"unknown","bicycle_pa":"stands","capacity":10,"covered":"no","fee":"no","operator":"","nameSource":"junction"},"sourceId":"osm"},{"id":"osm:node:3839353576","latitude":53.3007117,"longitude":-6.1752793,"name":"Main Street near Idrone Terrace","properties":{"access":"permissive","bicycle_pa":"wall_loops","capacity":10,"covered":"no","fee":"","operator":"","nameSource":"junction"},"sourceId":"osm"},{"id":"osm:node:3847466357","latitude":53.3019993,"longitude":-6.1786169,"name":"Rock Hill near Brusna Cottages","properties":{"access":"unknown","bicycle_pa":"stands","capacity":16,"covered":"no","fee":"","operator":"","nameSource":"junction"},"sourceId":"osm"},{"id":"osm:node:3847988764","latitude":53.3022515,"longitude":-6.1772537,"name":"Idrone Terrace near Bath Place","properties":{"access":"unknown","bicycle_pa":"stands","capacity":8,"covered":"no","fee":"","operator":"","nameSource":"junction"},"sourceId":"osm"},{"id":"osm:node:4022322290","latitude":53.2985766,"longitude":-6.1788902,"name":"Blackrock Business Park cycle parking","properties":{"access":"unknown","bicycle_pa":"","capacity":20,"covered":"no","fee":"","operator":"","nameSource":"street"},"sourceId":"osm"},{"id":"osm:node:4022386853","latitude":53.298266,"longitude":-6.1791749,"name":"Blackrock Business Park cycle parking","properties":{"access":"unknown","bicycle_pa":"","capacity":6,"covered":"no","fee":"","operator":"","nameSource":"street"},"sourceId":"osm"},{"id":"osm:node:4022386854","latitude":53.2983047,"longitude":-6.1789902,"name":"Blackrock Business Park cycle parking","properties":{"access":"unknown","bicycle_pa":"","capacity":12,"covered":"no","fee":"","operator":"","nameSource":"street"},"sourceId":"osm"},{"id":"osm:node:4032001287","latitude":53.3263555,"longitude":-6.2258841,"name":"Simmonscourt Road cycle parking","properties":{"access":"unknown","bicycle_pa":"rack","capacity":4,"covered":"no","fee":"","operator":"","nameSource":"street"},"sourceId":"osm"},{"id":"osm:node:4048673029","latitude":53.3033204,"longitude":-6.1807203,"name":"The Bumble Bean cycle parking","properties":{"access":"unknown","bicycle_pa":"stands","capacity":12,"covered":"no","fee":"","operator":"","nameSource":"landmark"},"sourceId":"osm"},{"id":"osm:node:4080242713","latitude":53.2898089,"longitude":-6.1990016,"name":"Old Dublin Road near Saint Laurence's Park","properties":{"access":"unknown","bicycle_pa":"stands","capacity":8,"covered":"no","fee":"","operator":"","nameSource":"junction"},"sourceId":"osm"},{"id":"osm:node:4138982621","latitude":53.2997687,"longitude":-6.1750668,"name":"Temple Road near St Anne's Square","properties":{"access":"unknown","bicycle_pa":"stands","capacity":4,"covered":"no","fee":"","operator":"","nameSource":"junction"},"sourceId":"osm"},{"id":"osm:node:4172969189","latitude":53.2903868,"longitude":-6.1973801,"name":"Saint Laurence's Park cycle parking","properties":{"access":"unknown","bicycle_pa":"stands","capacity":10,"covered":"no","fee":"","operator":"","nameSource":"street"},"sourceId":"osm"},{"id":"osm:node:4210736500","latitude":53.2907645,"longitude":-6.1722563,"name":"Rockville Road near Newtownpark Avenue","properties":{"access":"unknown","bicycle_pa":"rack","capacity":1,"covered":"no","fee":"","operator":"","nameSource":"junction"},"sourceId":"osm"},{"id":"osm:node:4222183493","latitude":53.3020221,"longitude":-6.1786589,"name":"Rock Hill near Brusna Cottages","properties":{"access":"yes","bicycle_pa":"stands","capacity":6,"covered":"no","fee":"no","operator":"Dun Laoghaire-Rathdown County Council","nameSource":"junction"},"sourceId":"osm"},{"id":"osm:node:4225177244","latitude":53.2981149,"longitude":-6.160383,"name":"Brighton Vale cycle parking","properties":{"access":"unknown","bicycle_pa":"rack","capacity":36,"covered":"no","fee":"","operator":"","nameSource":"street"},"sourceId":"osm"},{"id":"osm:node:4263626401","latitude":53.2859225,"longitude":-6.2364302,"name":"Overend Avenue near Rockfield","properties":{"access":"unknown","bicycle_pa":"stands","capacity":32,"covered":"no","fee":"","operator":"","nameSource":"junction"},"sourceId":"osm"},{"id":"osm:node:4266126757","latitude":53.285992,"longitude":-6.2369264,"name":"Overend Avenue near Rockfield","properties":{"access":"unknown","bicycle_pa":"stands","capacity":46,"covered":"no","fee":"","operator":"","nameSource":"junction"},"sourceId":"osm"},{"id":"osm:node:4305082842","latitude":53.3224299,"longitude":-6.2377044,"name":"Main Street near Mulberry Lane","properties":{"access":"yes","bicycle_pa":"stands","capacity":6,"covered":"no","fee":"","operator":"Dublin City Council","nameSource":"junction"},"sourceId":"osm"},{"id":"osm:node:4404660011","latitude":53.3094532,"longitude":-6.2326558,"name":"Longwood cycle parking","properties":{"access":"unknown","bicycle_pa":"stands","capacity":14,"covered":"no","fee":"","operator":"","nameSource":"street"},"sourceId":"osm"},{"id":"osm:node:4404660012","latitude":53.3094572,"longitude":-6.2325096,"name":"UCD Canoe Boathouse cycle parking","properties":{"access":"unknown","bicycle_pa":"stands","capacity":14,"covered":"no","fee":"","operator":"","nameSource":"landmark"},"sourceId":"osm"},{"id":"osm:node:4404660013","latitude":53.3094596,"longitude":-6.2323568,"name":"UCD Canoe Boathouse cycle parking","properties":{"access":"unknown","bicycle_pa":"stands","capacity":14,"covered":"no","fee":"","operator":"","nameSource":"landmark"},"sourceId":"osm"},{"id":"osm:node:4406841522","latitude":53.2887083,"longitude":-6.1984369,"name":"Kilmacud Road Lower near Old Dublin Road","properties":{"access":"yes","bicycle_pa":"wall_loops","capacity":0,"covered":"no","fee":"no","operator":"","nameSource":"junction"},"sourceId":"osm"},{"id":"osm:node:4413769944","latitude":53.3038682,"longitude":-6.2178011,"name":"Merville cycle parking","properties":{"access":"unknown","bicycle_pa":"stands","capacity":0,"covered":"","fee":"","operator":"","nameSource":"street"},"sourceId":"osm"},{"id":"osm:node:4413775812","latitude":53.3080325,"longitude":-6.2281189,"name":"Wynnsward Drive near Set Down Area","properties":{"access":"unknown","bicycle_pa":"stands","capacity":0,"covered":"no","fee":"no","operator":"","nameSource":"junction"},"sourceId":"osm"},{"id":"osm:node:4413775813","latitude":53.3080517,"longitude":-6.2280572,"name":"Wynnsward Drive near Set Down Area","properties":{"access":"unknown","bicycle_pa":"lockers","capacity":0,"covered":"","fee":"","operator":"","nameSource":"junction"},"sourceId":"osm"},{"id":"osm:node:4419397820","latitude":53.2888684,"longitude":-6.1988788,"name":"Kilmacud Road Lower near Old Dublin Road","properties":{"access":"unknown","bicycle_pa":"stands","capacity":10,"covered":"no","fee":"","operator":"","nameSource":"junction"},"sourceId":"osm"},{"id":"osm:node:4419491396","latitude":53.3098459,"longitude":-6.2325391,"name":"UCD Canoe Boathouse cycle parking","properties":{"access":"unknown","bicycle_pa":"wall_loops","capacity":10,"covered":"","fee":"","operator":"","nameSource":"landmark"},"sourceId":"osm"},{"id":"osm:node:4612876871","latitude":53.2885867,"longitude":-6.2165779,"name":"Rathmore Avenue near Kilmacud Road Lower","properties":{"access":"unknown","bicycle_pa":"stands","capacity":4,"covered":"no","fee":"","operator":"","nameSource":"junction"},"sourceId":"osm"},{"id":"osm:node:4612876872","latitude":53.2886396,"longitude":-6.2166577,"name":"Rathmore Avenue near Kilmacud Road Lower","properties":{"access":"unknown","bicycle_pa":"stands","capacity":2,"covered":"no","fee":"","operator":"","nameSource":"junction"},"sourceId":"osm"},{"id":"osm:node:4762844013","latitude":53.3005745,"longitude":-6.1762056,"name":"Temple Road near Sweetman's Avenue","properties":{"access":"private","bicycle_pa":"wall_loops","capacity":10,"covered":"no","fee":"","operator":"","nameSource":"junction"},"sourceId":"osm"},{"id":"osm:node:5066507721","latitude":53.2817009,"longitude":-6.1655621,"name":"Deansgrange Road by The Tranquil Tea Rooms","properties":{"access":"unknown","bicycle_pa":"stands","capacity":6,"covered":"no","fee":"","operator":"","nameSource":"landmark"},"sourceId":"osm"},{"id":"osm:node:5244967106","latitude":53.2983073,"longitude":-6.1657276,"name":"Alma Road near Seapoint Avenue","properties":{"access":"unknown","bicycle_pa":"stands","capacity":16,"covered":"no","fee":"","operator":"","nameSource":"junction"},"sourceId":"osm"},{"id":"osm:node:5261925894","latitude":53.2955343,"longitude":-6.219457,"name":"Mount Anville Road cycle parking","properties":{"access":"unknown","bicycle_pa":"stands","capacity":10,"covered":"no","fee":"","operator":"","nameSource":"street"},"sourceId":"osm"},{"id":"osm:node:5268524269","latitude":53.3008488,"longitude":-6.1757849,"name":"Idrone Lane by Blackrock Further Education Institute","properties":{"access":"permissive","bicycle_pa":"wall_loops","capacity":10,"covered":"no","fee":"","operator":"","nameSource":"landmark"},"sourceId":"osm"},{"id":"osm:node:5268524270","latitude":53.3008319,"longitude":-6.1757326,"name":"Idrone Lane by Blackrock Further Education Institute","properties":{"access":"permissive","bicycle_pa":"wall_loops","capacity":10,"covered":"no","fee":"","operator":"","nameSource":"landmark"},"sourceId":"osm"},{"id":"osm:node:5268524271","latitude":53.3007846,"longitude":-6.175569,"name":"Main Street near Idrone Terrace","properties":{"access":"permissive","bicycle_pa":"wall_loops","capacity":10,"covered":"no","fee":"","operator":"","nameSource":"junction"},"sourceId":"osm"},{"id":"osm:node:5268524272","latitude":53.3006712,"longitude":-6.1751194,"name":"Main Street near Idrone Terrace","properties":{"access":"permissive","bicycle_pa":"wall_loops","capacity":10,"covered":"no","fee":"","operator":"","nameSource":"junction"},"sourceId":"osm"},{"id":"osm:node:5319126705","latitude":53.288731,"longitude":-6.175717,"name":"Ralph Mews near Newtownpark Avenue","properties":{"access":"customers","bicycle_pa":"wall_loops","capacity":3,"covered":"no","fee":"","operator":"","nameSource":"junction"},"sourceId":"osm"},{"id":"osm:node:5345166348","latitude":53.3060604,"longitude":-6.220887,"name":"Road 9 cycle parking","properties":{"access":"unknown","bicycle_pa":"stands","capacity":84,"covered":"no","fee":"no","operator":"","nameSource":"street"},"sourceId":"osm"},{"id":"osm:node:5358571907","latitude":53.3066772,"longitude":-6.2199944,"name":"Clonskeagh cycle parking","properties":{"access":"unknown","bicycle_pa":"stands","capacity":20,"covered":"no","fee":"no","operator":"","nameSource":"place"},"sourceId":"osm"},{"id":"osm:node:5417319812","latitude":53.3219842,"longitude":-6.2363235,"name":"Donnybrook Road near Pembroke Cottages","properties":{"access":"yes","bicycle_pa":"stands","capacity":18,"covered":"no","fee":"","operator":"Dublin City Council","nameSource":"junction"},"sourceId":"osm"},{"id":"osm:node:5430020270","latitude":53.2934404,"longitude":-6.1535458,"name":"Carrickbrennan Road near Richmond Green","properties":{"access":"yes","bicycle_pa":"stands","capacity":16,"covered":"no","fee":"","operator":"Dun Laoghaire-Rathdown County Council","nameSource":"junction"},"sourceId":"osm"},{"id":"osm:node:5440815166","latitude":53.2995616,"longitude":-6.1745672,"name":"Temple Road near Frascati Road","properties":{"access":"unknown","bicycle_pa":"stands","capacity":2,"covered":"no","fee":"","operator":"","nameSource":"junction"},"sourceId":"osm"},{"id":"osm:node:5457763039","latitude":53.2938318,"longitude":-6.1534294,"name":"Monkstown Crescent near Carrickbrennan Road","properties":{"access":"unknown","bicycle_pa":"stands","capacity":16,"covered":"no","fee":"","operator":"","nameSource":"junction"},"sourceId":"osm"},{"id":"osm:node:5457763041","latitude":53.2939202,"longitude":-6.1537827,"name":"Clifton Avenue near Monkstown Road","properties":{"access":"unknown","bicycle_pa":"stands","capacity":8,"covered":"no","fee":"","operator":"","nameSource":"junction"},"sourceId":"osm"},{"id":"osm:node:5476900001","latitude":53.3208746,"longitude":-6.2346083,"name":"Donnybrook Road near Brookvale Road","properties":{"access":"yes","bicycle_pa":"stands","capacity":8,"covered":"no","fee":"","operator":"Dublin City Council","nameSource":"junction"},"sourceId":"osm"},{"id":"osm:node:5476989743","latitude":53.321081,"longitude":-6.2348278,"name":"Donnybrook Road near Eglinton Terrace","properties":{"access":"yes","bicycle_pa":"stands","capacity":6,"covered":"no","fee":"","operator":"Dublin City Council","nameSource":"junction"},"sourceId":"osm"},{"id":"osm:node:5477047765","latitude":53.3218485,"longitude":-6.2358766,"name":"Donnybrook Road near Pembroke Cottages","properties":{"access":"yes","bicycle_pa":"stands","capacity":10,"covered":"no","fee":"","operator":"Dublin City Council","nameSource":"junction"},"sourceId":"osm"},{"id":"osm:node:5497656917","latitude":53.2975111,"longitude":-6.1789453,"name":"Brookfield Avenue near Brookfield Terrace","properties":{"access":"unknown","bicycle_pa":"stands","capacity":2,"covered":"no","fee":"no","operator":"","nameSource":"junction"},"sourceId":"osm"},{"id":"osm:node:5562940836","latitude":53.3006055,"longitude":-6.1751318,"name":"Main Street near Idrone Terrace","properties":{"access":"permissive","bicycle_pa":"stands","capacity":10,"covered":"no","fee":"","operator":"","nameSource":"junction"},"sourceId":"osm"},{"id":"osm:node:5583292875","latitude":53.3206263,"longitude":-6.2132601,"name":"Ailesbury Road near Ailesbury Way","properties":{"access":"yes","bicycle_pa":"stands","capacity":20,"covered":"no","fee":"","operator":"Dublin City Council","nameSource":"junction"},"sourceId":"osm"},{"id":"osm:node:5600029204","latitude":53.2785326,"longitude":-6.2153099,"name":"Carmanhall Road by kube","properties":{"access":"unknown","bicycle_pa":"stands","capacity":10,"covered":"no","fee":"","operator":"","nameSource":"landmark"},"sourceId":"osm"},{"id":"osm:node:5600029209","latitude":53.2881429,"longitude":-6.2052463,"name":"Kilmacud Road Lower by St. Laurence's Parish Hall","properties":{"access":"unknown","bicycle_pa":"rack","capacity":10,"covered":"no","fee":"","operator":"","nameSource":"landmark"},"sourceId":"osm"},{"id":"osm:node:5600029210","latitude":53.2881918,"longitude":-6.2044846,"name":"Kilmacud Road Lower near Allen Park Road","properties":{"access":"unknown","bicycle_pa":"stands","capacity":22,"covered":"no","fee":"","operator":"","nameSource":"junction"},"sourceId":"osm"},{"id":"osm:node:5610238173","latitude":53.2949977,"longitude":-6.1802508,"name":"Carysfort Avenue cycle parking","properties":{"access":"unknown","bicycle_pa":"stands","capacity":6,"covered":"no","fee":"","operator":"","nameSource":"street"},"sourceId":"osm"},{"id":"osm:node:5699985830","latitude":53.2910531,"longitude":-6.2006312,"name":"Old Dublin Road near Saint Laurence's Park","properties":{"access":"unknown","bicycle_pa":"stands","capacity":6,"covered":"no","fee":"","operator":"","nameSource":"junction"},"sourceId":"osm"},{"id":"osm:node:5768547786","latitude":53.2928042,"longitude":-6.2020861,"name":"Old Dublin Road near Stillorgan Road","properties":{"access":"yes","bicycle_pa":"stands","capacity":10,"covered":"no","fee":"no","operator":"Dun Laoghaire-Rathdown County Council","nameSource":"junction"},"sourceId":"osm"},{"id":"osm:node:5777590039","latitude":53.2912846,"longitude":-6.2004438,"name":"Old Dublin Road near Saint Laurence's Park","properties":{"access":"unknown","bicycle_pa":"stands","capacity":10,"covered":"no","fee":"","operator":"","nameSource":"junction"},"sourceId":"osm"},{"id":"osm:node:5818972626","latitude":53.3141543,"longitude":-6.2382111,"name":"Clonskeagh Road by Harry's Bikes","properties":{"access":"permissive","bicycle_pa":"rack","capacity":12,"covered":"no","fee":"","operator":"Harry's Bikes","nameSource":"landmark"},"sourceId":"osm"},{"id":"osm:node:5969811805","latitude":53.2889686,"longitude":-6.2224902,"name":"Drummartin Road near Kilmacud Road Lower","properties":{"access":"unknown","bicycle_pa":"stands","capacity":10,"covered":"no","fee":"","operator":"","nameSource":"junction"},"sourceId":"osm"},{"id":"osm:node:6096611411","latitude":53.2864505,"longitude":-6.1593269,"name":"Monkstown Avenue near Monkstown Square","properties":{"access":"unknown","bicycle_pa":"stands","capacity":14,"covered":"no","fee":"","operator":"","nameSource":"junction"},"sourceId":"osm"},{"id":"osm:node:6131471041","latitude":53.3042565,"longitude":-6.185949,"name":"Rock Road near Sion Hill","properties":{"access":"unknown","bicycle_pa":"stands","capacity":10,"covered":"no","fee":"","operator":"","nameSource":"junction"},"sourceId":"osm"},{"id":"osm:node:6172100847","latitude":53.3189537,"longitude":-6.2314172,"name":"Stillorgan Road near Beaver Row","properties":{"access":"permissive","bicycle_pa":"stands","capacity":10,"covered":"no","fee":"","operator":"","nameSource":"junction"},"sourceId":"osm"},{"id":"osm:node:6389602066","latitude":53.3049695,"longitude":-6.2124323,"name":"Stillorgan Road cycle parking","properties":{"access":"unknown","bicycle_pa":"stands","capacity":30,"covered":"yes","fee":"","operator":"","nameSource":"street"},"sourceId":"osm"},{"id":"osm:node:6389665189","latitude":53.3076804,"longitude":-6.2367406,"name":"Clonskeagh Road near Belfield Close","properties":{"access":"yes","bicycle_pa":"stands","capacity":10,"covered":"no","fee":"","operator":"Dun Laoghaire-Rathdown County Council","nameSource":"junction"},"sourceId":"osm"},{"id":"osm:node:6414636434","latitude":53.3053041,"longitude":-6.2371497,"name":"Gledswood Drive near Bird Avenue","properties":{"access":"yes","bicycle_pa":"stands","capacity":10,"covered":"no","fee":"","operator":"","nameSource":"junction"},"sourceId":"osm"},{"id":"osm:node:6661020670","latitude":53.3025548,"longitude":-6.1791464,"name":"Bath Place by Blacrock DART Station","properties":{"access":"yes","bicycle_pa":"stands","capacity":20,"covered":"no","fee":"no","operator":"","nameSource":"landmark"},"sourceId":"osm"},{"id":"osm:node:6702947743","latitude":53.2992827,"longitude":-6.2198571,"name":"Roebuck Road near Foster's Avenue","properties":{"access":"yes","bicycle_pa":"stands","capacity":4,"covered":"no","fee":"no","operator":"Dun Laoghaire-Rathdown County Council","nameSource":"junction"},"sourceId":"osm"},{"id":"osm:node:6704091250","latitude":53.2979844,"longitude":-6.1792786,"name":"Blackrock Business Park by Code Institute","properties":{"access":"permissive","bicycle_pa":"rack","capacity":6,"covered":"no","fee":"no","operator":"Blackrock Business Park","nameSource":"landmark"},"sourceId":"osm"},{"id":"osm:node:6704091259","latitude":53.2981583,"longitude":-6.1784098,"name":"Blackrock Business Park by Frascati Motors","properties":{"access":"permissive","bicycle_pa":"stands","capacity":12,"covered":"no","fee":"no","operator":"Blackrock Business Park","nameSource":"landmark"},"sourceId":"osm"},{"id":"osm:node:6721594183","latitude":53.2783626,"longitude":-6.1635675,"name":"Clonkeen Road near Deansgrange Road","properties":{"access":"unknown","bicycle_pa":"stands","capacity":4,"covered":"no","fee":"no","operator":"","nameSource":"junction"},"sourceId":"osm"},{"id":"osm:node:6736448667","latitude":53.2878014,"longitude":-6.1541053,"name":"Monkstown Avenue near Richmond Grove","properties":{"access":"unknown","bicycle_pa":"stands","capacity":16,"covered":"no","fee":"no","operator":"","nameSource":"junction"},"sourceId":"osm"},{"id":"osm:node:6736448668","latitude":53.2877,"longitude":-6.1539162,"name":"Dunedin Park by Monkstown Pool & Fitness Centre","properties":{"access":"unknown","bicycle_pa":"stands","capacity":8,"covered":"no","fee":"no","operator":"","nameSource":"landmark"},"sourceId":"osm"},{"id":"osm:node:6958681642","latitude":53.2922369,"longitude":-6.2290802,"name":"Knocknashee near Drummartin Terrace","properties":{"access":"unknown","bicycle_pa":"shed","capacity":8,"covered":"yes","fee":"no","operator":"","nameSource":"junction"},"sourceId":"osm"},{"id":"osm:node:7070162187","latitude":53.3209362,"longitude":-6.2113208,"name":"Sydney Parade Avenue near Ailesbury Gardens","properties":{"access":"yes","bicycle_pa":"stands","capacity":8,"covered":"no","fee":"no","operator":"Dublin City Council","nameSource":"junction"},"sourceId":"osm"},{"id":"osm:node:7252706618","latitude":53.2837205,"longitude":-6.2251427,"name":"Drummartin Link Road cycle parking","properties":{"access":"unknown","bicycle_pa":"stands","capacity":18,"covered":"no","fee":"no","operator":"","nameSource":"street"},"sourceId":"osm"},{"id":"osm:node:7303914185","latitude":53.2996144,"longitude":-6.2345828,"name":"The Grove cycle parking","properties":{"access":"unknown","bicycle_pa":"","capacity":10,"covered":"no","fee":"no","operator":"","nameSource":"street"},"sourceId":"osm"},{"id":"osm:node:7303914186","latitude":53.2997789,"longitude":-6.2350468,"name":"The Grove cycle parking","properties":{"access":"unknown","bicycle_pa":"","capacity":12,"covered":"no","fee":"no","operator":"","nameSource":"street"},"sourceId":"osm"},{"id":"osm:node:7303914187","latitude":53.2996258,"longitude":-6.2352355,"name":"The Grove cycle parking","properties":{"access":"unknown","bicycle_pa":"","capacity":8,"covered":"no","fee":"no","operator":"","nameSource":"street"},"sourceId":"osm"},{"id":"osm:node:7303914192","latitude":53.2972325,"longitude":-6.2332416,"name":"Willowfield Park near Goatstown Road","properties":{"access":"unknown","bicycle_pa":"","capacity":10,"covered":"no","fee":"no","operator":"","nameSource":"junction"},"sourceId":"osm"},{"id":"osm:node:7426613519","latitude":53.329125,"longitude":-6.2317482,"name":"Ballsbridge Terrace near Pembroke Road","properties":{"access":"yes","bicycle_pa":"stands","capacity":4,"covered":"no","fee":"no","operator":"","nameSource":"junction"},"sourceId":"osm"},{"id":"osm:node:7490542083","latitude":53.2873941,"longitude":-6.1766312,"name":"Newtown Park near Annaville Avenue","properties":{"access":"unknown","bicycle_pa":"stands","capacity":10,"covered":"no","fee":"","operator":"","nameSource":"junction"},"sourceId":"osm"},{"id":"osm:node:7596997702","latitude":53.2935654,"longitude":-6.2359432,"name":"Taney Crescent near Taney Rise","properties":{"access":"unknown","bicycle_pa":"stands","capacity":10,"covered":"no","fee":"","operator":"","nameSource":"junction"},"sourceId":"osm"},{"id":"osm:node:7974976992","latitude":53.3228189,"longitude":-6.2369982,"name":"Mulberry Lane near Main Street","properties":{"access":"yes","bicycle_pa":"stands","capacity":16,"covered":"no","fee":"no","operator":"Dublin City Council","nameSource":"junction"},"sourceId":"osm"},{"id":"osm:node:8025502356","latitude":53.2854212,"longitude":-6.1535381,"name":"Oliver Plunkett Road near Oliver Plunkett Avenue","properties":{"access":"yes","bicycle_pa":"stands","capacity":6,"covered":"no","fee":"no","operator":"Dun Laoghaire-Rathdown County Council","nameSource":"junction"},"sourceId":"osm"},{"id":"osm:node:8174238814","latitude":53.2785734,"longitude":-6.2220822,"name":"Drummartin Link Road cycle parking","properties":{"access":"yes","bicycle_pa":"stands","capacity":10,"covered":"no","fee":"no","operator":"","nameSource":"street"},"sourceId":"osm"},{"id":"osm:node:8291597828","latitude":53.318575,"longitude":-6.2139629,"name":"Nutley Lane near Brooklands","properties":{"access":"yes","bicycle_pa":"rack","capacity":10,"covered":"no","fee":"no","operator":"","nameSource":"junction"},"sourceId":"osm"},{"id":"osm:node:8301179607","latitude":53.3078679,"longitude":-6.2087165,"name":"Seafield Park near Seafield Road","properties":{"access":"yes","bicycle_pa":"stands","capacity":0,"covered":"no","fee":"no","operator":"","nameSource":"junction"},"sourceId":"osm"},{"id":"osm:node:8551683480","latitude":53.3180135,"longitude":-6.2091605,"name":"Merrion Village near Merrion Road","properties":{"access":"unknown","bicycle_pa":"rack","capacity":10,"covered":"no","fee":"no","operator":"","nameSource":"junction"},"sourceId":"osm"},{"id":"osm:node:8551688931","latitude":53.3133686,"longitude":-6.2028734,"name":"Llandaff Terrace near Elm Park Green","properties":{"access":"unknown","bicycle_pa":"stands","capacity":5,"covered":"yes","fee":"no","operator":"","nameSource":"junction"},"sourceId":"osm"},{"id":"osm:node:8751264297","latitude":53.3053234,"longitude":-6.1980543,"name":"Booterstown Avenue near Willow Place","properties":{"access":"permissive","bicycle_pa":"stands","capacity":8,"covered":"no","fee":"no","operator":"","nameSource":"junction"},"sourceId":"osm"},{"id":"osm:node:8754396330","latitude":53.3134907,"longitude":-6.227577,"name":"Airfield Terrace cycle parking","properties":{"access":"unknown","bicycle_pa":"stands","capacity":0,"covered":"","fee":"","operator":"","nameSource":"street"},"sourceId":"osm"},{"id":"osm:node:8756538253","latitude":53.3080378,"longitude":-6.2287583,"name":"Wynnsward Drive by UCD Sport and Fitness","properties":{"access":"unknown","bicycle_pa":"lockers","capacity":0,"covered":"yes","fee":"","operator":"","nameSource":"landmark"},"sourceId":"osm"},{"id":"osm:node:8756538254","latitude":53.3080249,"longitude":-6.2284744,"name":"Wynnsward Drive by UCD Sport and Fitness","properties":{"access":"unknown","bicycle_pa":"rack","capacity":0,"covered":"no","fee":"no","operator":"","nameSource":"landmark"},"sourceId":"osm"},{"id":"osm:node:8860902832","latitude":53.3218888,"longitude":-6.2390529,"name":"Mount Eden Road near Belmont Avenue","properties":{"access":"unknown","bicycle_pa":"stands","capacity":10,"covered":"no","fee":"","operator":"","nameSource":"junction"},"sourceId":"osm"},{"id":"osm:node:8872716657","latitude":53.2981577,"longitude":-6.160022,"name":"Brighton Vale cycle parking","properties":{"access":"unknown","bicycle_pa":"rack","capacity":40,"covered":"no","fee":"","operator":"","nameSource":"street"},"sourceId":"osm"},{"id":"osm:node:8872746310","latitude":53.2958914,"longitude":-6.1570048,"name":"Seapoint Avenue near Albany Avenue","properties":{"access":"unknown","bicycle_pa":"stands","capacity":6,"covered":"no","fee":"","operator":"","nameSource":"junction"},"sourceId":"osm"},{"id":"osm:node:8872746311","latitude":53.2960686,"longitude":-6.1576056,"name":"Seapoint Avenue near Albany Avenue","properties":{"access":"unknown","bicycle_pa":"stands","capacity":6,"covered":"no","fee":"","operator":"","nameSource":"junction"},"sourceId":"osm"},{"id":"osm:node:8883872315","latitude":53.3156724,"longitude":-6.2099647,"name":"Herbert Avenue by Snack n Go","properties":{"access":"unknown","bicycle_pa":"stands","capacity":0,"covered":"","fee":"","operator":"","nameSource":"landmark"},"sourceId":"osm"},{"id":"osm:node:8883986924","latitude":53.318772,"longitude":-6.2310665,"name":"Stillorgan Road near Beaver Row","properties":{"access":"visitors","bicycle_pa":"stands","capacity":12,"covered":"no","fee":"no","operator":"","nameSource":"junction"},"sourceId":"osm"},{"id":"osm:node:8922188319","latitude":53.3068672,"longitude":-6.2200569,"name":"Clonskeagh cycle parking","properties":{"access":"unknown","bicycle_pa":"","capacity":4,"covered":"","fee":"","operator":"","nameSource":"place"},"sourceId":"osm"},{"id":"osm:node:8936856070","latitude":53.3182058,"longitude":-6.2108813,"name":"Merrion Road by Circle K Elm Park","properties":{"access":"yes","bicycle_pa":"stands","capacity":10,"covered":"no","fee":"","operator":"","nameSource":"landmark"},"sourceId":"osm"},{"id":"osm:node:8945209418","latitude":53.2895323,"longitude":-6.180659,"name":"Carysfort Avenue near Oakley Park","properties":{"access":"unknown","bicycle_pa":"stands","capacity":10,"covered":"no","fee":"","operator":"","nameSource":"junction"},"sourceId":"osm"},{"id":"osm:node:8980001124","latitude":53.2890096,"longitude":-6.2056954,"name":"Kilmacud Road Lower by Bear Market","properties":{"access":"yes","bicycle_pa":"stands","capacity":10,"covered":"no","fee":"no","operator":"Dun Laoghaire-Rathdown County Council","nameSource":"landmark"},"sourceId":"osm"},{"id":"osm:node:9214819263","latitude":53.322376,"longitude":-6.206348,"name":"Strand Road near Adelaide","properties":{"access":"unknown","bicycle_pa":"stands","capacity":20,"covered":"no","fee":"","operator":"","nameSource":"junction"},"sourceId":"osm"},{"id":"osm:node:9472302077","latitude":53.2869836,"longitude":-6.1554967,"name":"Monkstown Grove near Dunedin Park","properties":{"access":"unknown","bicycle_pa":"stands","capacity":5,"covered":"no","fee":"","operator":"","nameSource":"junction"},"sourceId":"osm"},{"id":"osm:node:9472413088","latitude":53.3022874,"longitude":-6.1773567,"name":"Bath Place near Idrone Terrace","properties":{"access":"unknown","bicycle_pa":"stands","capacity":10,"covered":"no","fee":"","operator":"","nameSource":"junction"},"sourceId":"osm"},{"id":"osm:node:9506633467","latitude":53.3282408,"longitude":-6.2306466,"name":"Anglesea Road near Merrion Road","properties":{"access":"yes","bicycle_pa":"stands","capacity":2,"covered":"no","fee":"no","operator":"Dublin City Council","nameSource":"junction"},"sourceId":"osm"},{"id":"osm:node:9506633468","latitude":53.327918,"longitude":-6.2307231,"name":"Anglesea Road by Pembroke Library","properties":{"access":"yes","bicycle_pa":"stands","capacity":8,"covered":"no","fee":"no","operator":"Dublin City Council","nameSource":"landmark"},"sourceId":"osm"},{"id":"osm:node:9506633469","latitude":53.328509,"longitude":-6.2306015,"name":"Anglesea Road near Merrion Road","properties":{"access":"yes","bicycle_pa":"stands","capacity":8,"covered":"no","fee":"no","operator":"Dublin City Council","nameSource":"junction"},"sourceId":"osm"},{"id":"osm:node:9506633470","latitude":53.3276771,"longitude":-6.2307803,"name":"Anglesea Road cycle parking","properties":{"access":"yes","bicycle_pa":"stands","capacity":8,"covered":"no","fee":"no","operator":"Dublin City Council","nameSource":"street"},"sourceId":"osm"},{"id":"osm:node:9559853796","latitude":53.3104817,"longitude":-6.1994445,"name":"St Helen's Road near Rock Road","properties":{"access":"unknown","bicycle_pa":"stands","capacity":10,"covered":"no","fee":"","operator":"","nameSource":"junction"},"sourceId":"osm"},{"id":"osm:node:9571584335","latitude":53.2801714,"longitude":-6.1896071,"name":"Stillorgan Road near Belmont Grove","properties":{"access":"yes","bicycle_pa":"stands","capacity":20,"covered":"no","fee":"no","operator":"","nameSource":"junction"},"sourceId":"osm"},{"id":"osm:node:9584072939","latitude":53.2877599,"longitude":-6.1764852,"name":"Newtown Park near Annaville Avenue","properties":{"access":"customers","bicycle_pa":"shed","capacity":5,"covered":"","fee":"no","operator":"","nameSource":"junction"},"sourceId":"osm"},{"id":"osm:node:9584072940","latitude":53.2878268,"longitude":-6.1767218,"name":"Annaville Avenue near Newtown Park","properties":{"access":"customers","bicycle_pa":"shed","capacity":5,"covered":"","fee":"no","operator":"","nameSource":"junction"},"sourceId":"osm"},{"id":"osm:node:9584072946","latitude":53.2876345,"longitude":-6.1781619,"name":"Orchard Lane near Newtown Park","properties":{"access":"yes","bicycle_pa":"stands","capacity":3,"covered":"no","fee":"no","operator":"","nameSource":"junction"},"sourceId":"osm"},{"id":"osm:node:9643908718","latitude":53.3289962,"longitude":-6.2299146,"name":"Ballsbridge Park near Ballsbridge Avenue","properties":{"access":"yes","bicycle_pa":"stands","capacity":10,"covered":"no","fee":"no","operator":"Dublin City Council","nameSource":"junction"},"sourceId":"osm"},{"id":"osm:node:9709384728","latitude":53.3065758,"longitude":-6.1882059,"name":"Martello Terrace near Seafort Parade","properties":{"access":"yes","bicycle_pa":"stands","capacity":16,"covered":"no","fee":"no","operator":"Dun Laoghaire-Rathdown County Council","nameSource":"junction"},"sourceId":"osm"},{"id":"osm:node:9837255540","latitude":53.309064,"longitude":-6.2163517,"name":"Stillorgan Road by Barista","properties":{"access":"unknown","bicycle_pa":"stands","capacity":8,"covered":"yes","fee":"","operator":"","nameSource":"landmark"},"sourceId":"osm"},{"id":"osm:node:9837255549","latitude":53.3077108,"longitude":-6.226346,"name":"Wynnsward Drive near Set Down Area","properties":{"access":"unknown","bicycle_pa":"stands","capacity":80,"covered":"no","fee":"no","operator":"","nameSource":"junction"},"sourceId":"osm"},{"id":"osm:node:9948253038","latitude":53.3283685,"longitude":-6.2086615,"name":"Strand Road near Gilford Road","properties":{"access":"unknown","bicycle_pa":"","capacity":0,"covered":"no","fee":"","operator":"","nameSource":"junction"},"sourceId":"osm"},{"id":"osm:node:9963215659","latitude":53.2979057,"longitude":-6.2045831,"name":"Stillorgan Road cycle parking","properties":{"access":"yes","bicycle_pa":"stands","capacity":8,"covered":"no","fee":"no","operator":"","nameSource":"street"},"sourceId":"osm"},{"id":"osm:node:9963239730","latitude":53.2998946,"longitude":-6.2056871,"name":"Stillorgan Road near Booterstown Avenue","properties":{"access":"yes","bicycle_pa":"stands","capacity":6,"covered":"no","fee":"no","operator":"","nameSource":"junction"},"sourceId":"osm"},{"id":"osm:way:1112453072","latitude":53.3048218,"longitude":-6.21839164,"name":"Clonskeagh cycle parking","properties":{"access":"unknown","bicycle_pa":"stands","capacity":9,"covered":"no","fee":"","operator":"","nameSource":"place"},"sourceId":"osm"},{"id":"osm:way:1112453074","latitude":53.304663340000005,"longitude":-6.21831352,"name":"Clonskeagh cycle parking","properties":{"access":"unknown","bicycle_pa":"stands","capacity":10,"covered":"no","fee":"","operator":"","nameSource":"place"},"sourceId":"osm"},{"id":"osm:way:1112453075","latitude":53.30447666,"longitude":-6.218247539999999,"name":"UCD Village cycle parking","properties":{"access":"unknown","bicycle_pa":"stands","capacity":10,"covered":"no","fee":"","operator":"","nameSource":"street"},"sourceId":"osm"},{"id":"osm:way:1112453076","latitude":53.30454754,"longitude":-6.218246679999999,"name":"UCD Village cycle parking","properties":{"access":"unknown","bicycle_pa":"stands","capacity":10,"covered":"no","fee":"","operator":"","nameSource":"street"},"sourceId":"osm"},{"id":"osm:way:1155340216","latitude":53.30377802,"longitude":-6.2182489,"name":"UCD Village cycle parking","properties":{"access":"unknown","bicycle_pa":"stands","capacity":21,"covered":"yes","fee":"no","operator":"","nameSource":"street"},"sourceId":"osm"},{"id":"osm:way:1155340218","latitude":53.30373384444445,"longitude":-6.218810100000001,"name":"UCD Village cycle parking","properties":{"access":"unknown","bicycle_pa":"stands","capacity":26,"covered":"no","fee":"no","operator":"","nameSource":"street"},"sourceId":"osm"},{"id":"osm:way:1155340238","latitude":53.30477251999999,"longitude":-6.21833972,"name":"Clonskeagh cycle parking","properties":{"access":"unknown","bicycle_pa":"stands","capacity":9,"covered":"no","fee":"","operator":"","nameSource":"place"},"sourceId":"osm"},{"id":"osm:way:1155340239","latitude":53.30451505999999,"longitude":-6.21823826,"name":"UCD Village cycle parking","properties":{"access":"unknown","bicycle_pa":"stands","capacity":10,"covered":"no","fee":"","operator":"","nameSource":"street"},"sourceId":"osm"},{"id":"osm:way:1155340267","latitude":53.3028062,"longitude":-6.21829176,"name":"UCD Village near Roebuck Halls","properties":{"access":"unknown","bicycle_pa":"stands","capacity":35,"covered":"yes","fee":"","operator":"","nameSource":"junction"},"sourceId":"osm"},{"id":"osm:way:1155521053","latitude":53.3029981,"longitude":-6.217766316666666,"name":"UCD Village near Roebuck Halls","properties":{"access":"unknown","bicycle_pa":"stands","capacity":11,"covered":"yes","fee":"","operator":"University College Dublin","nameSource":"junction"},"sourceId":"osm"},{"id":"osm:way:1155521055","latitude":53.30267793999999,"longitude":-6.2179477599999995,"name":"UCD Village near Roebuck Halls","properties":{"access":"unknown","bicycle_pa":"stands","capacity":21,"covered":"no","fee":"","operator":"","nameSource":"junction"},"sourceId":"osm"},{"id":"osm:way:1155521059","latitude":53.30289041428572,"longitude":-6.2190685,"name":"UCD Village by The Local","properties":{"access":"unknown","bicycle_pa":"stands","capacity":38,"covered":"yes","fee":"","operator":"University College Dublin","nameSource":"landmark"},"sourceId":"osm"},{"id":"osm:way:1155521069","latitude":53.305065320000004,"longitude":-6.21997089,"name":"Road 8 by AIB","properties":{"access":"unknown","bicycle_pa":"stands","capacity":0,"covered":"yes","fee":"no","operator":"","nameSource":"landmark"},"sourceId":"osm"},{"id":"osm:way:1287595799","latitude":53.29634728,"longitude":-6.22068856,"name":"Ardilea Downs cycle parking","properties":{"access":"permissive","bicycle_pa":"","capacity":20,"covered":"yes","fee":"","operator":"","nameSource":"street"},"sourceId":"osm"},{"id":"osm:way:1309289348","latitude":53.307560519999996,"longitude":-6.22341134,"name":"Road 12 cycle parking","properties":{"access":"permissive","bicycle_pa":"shed","capacity":100,"covered":"no","fee":"","operator":"","nameSource":"street"},"sourceId":"osm"},{"id":"osm:way:1314829901","latitude":53.28551918000001,"longitude":-6.19204844,"name":"Stillorgan cycle parking","properties":{"access":"unknown","bicycle_pa":"","capacity":0,"covered":"yes","fee":"","operator":"","nameSource":"place"},"sourceId":"osm"},{"id":"osm:way:1457415818","latitude":53.28541037692307,"longitude":-6.239146799999999,"name":"Wyckham Way near Overend Way","properties":{"access":"unknown","bicycle_pa":"","capacity":0,"covered":"","fee":"","operator":"","nameSource":"junction"},"sourceId":"osm"},{"id":"osm:way:1482937240","latitude":53.30906193999999,"longitude":-6.19598206,"name":"Rock Road near Booterstown Avenue","properties":{"access":"yes","bicycle_pa":"floor","capacity":1,"covered":"no","fee":"no","operator":"","nameSource":"junction"},"sourceId":"osm"},{"id":"osm:way:230316257","latitude":53.30634841999999,"longitude":-6.21924558,"name":"Clonskeagh cycle parking","properties":{"access":"unknown","bicycle_pa":"","capacity":0,"covered":"","fee":"","operator":"","nameSource":"place"},"sourceId":"osm"},{"id":"osm:way:34186166","latitude":53.30667117999999,"longitude":-6.21823294,"name":"Clonskeagh cycle parking","properties":{"access":"unknown","bicycle_pa":"","capacity":0,"covered":"","fee":"","operator":"","nameSource":"place"},"sourceId":"osm"},{"id":"osm:way:401186556","latitude":53.307060560000004,"longitude":-6.222425759999999,"name":"Road 12 by The Sub Club","properties":{"access":"unknown","bicycle_pa":"stands","capacity":562,"covered":"no","fee":"no","operator":"","nameSource":"landmark"},"sourceId":"osm"},{"id":"osm:way:401186562","latitude":53.309182639999996,"longitude":-6.225261059999999,"name":"Route1 cycle parking","properties":{"access":"unknown","bicycle_pa":"stands","capacity":18,"covered":"no","fee":"","operator":"","nameSource":"street"},"sourceId":"osm"},{"id":"osm:way:401186564","latitude":53.30932442000001,"longitude":-6.225229279999999,"name":"Route1 cycle parking","properties":{"access":"unknown","bicycle_pa":"stands","capacity":0,"covered":"no","fee":"","operator":"","nameSource":"street"},"sourceId":"osm"},{"id":"osm:way:401186565","latitude":53.30914641999999,"longitude":-6.223946799999999,"name":"Route1 cycle parking","properties":{"access":"unknown","bicycle_pa":"stands","capacity":8,"covered":"no","fee":"","operator":"","nameSource":"street"},"sourceId":"osm"},{"id":"osm:way:402270118","latitude":53.30782611666667,"longitude":-6.2275123500000005,"name":"Set Down Area near Wynnsward Drive","properties":{"access":"unknown","bicycle_pa":"stands","capacity":0,"covered":"no","fee":"no","operator":"","nameSource":"junction"},"sourceId":"osm"},{"id":"osm:way:402273597","latitude":53.30804682,"longitude":-6.225969360000001,"name":"Wynnsward Drive near Set Down Area","properties":{"access":"unknown","bicycle_pa":"stands","capacity":0,"covered":"no","fee":"no","operator":"","nameSource":"junction"},"sourceId":"osm"},{"id":"osm:way:405573968","latitude":53.3053614,"longitude":-6.2368896,"name":"Gledswood Drive near Roebuck Road","properties":{"access":"unknown","bicycle_pa":"stands","capacity":6,"covered":"no","fee":"","operator":"","nameSource":"junction"},"sourceId":"osm"},{"id":"osm:way:960194458","latitude":53.315787542857144,"longitude":-6.210421642857143,"name":"Herbert Avenue cycle parking","properties":{"access":"permit","bicycle_pa":"shed","capacity":0,"covered":"","fee":"","operator":"","nameSource":"street"},"sourceId":"osm"}],"schemaVersion":2}
