{"key":"12/1977/1329","points":[{"id":"osm:node:10303463547","latitude":53.2519699,"longitude":-6.1862347,"name":"TK Maxx cycle parking","properties":{"access":"unknown","bicycle_pa":"building","capacity":0,"covered":"","fee":"no","operator":"","nameSource":"landmark"},"sourceId":"osm"},{"id":"osm:node:10601280526","latitude":53.2684765,"longitude":-6.1587475,"name":"Clonkeen Road near Clonkeen Court","properties":{"access":"unknown","bicycle_pa":"wall_loops","capacity":4,"covered":"no","fee":"","operator":"","nameSource":"junction"},"sourceId":"osm"},{"id":"osm:node:10860778604","latitude":53.266148,"longitude":-6.160979,"name":"Old Bray Road by Cornelscourt Shopping Centre","properties":{"access":"unknown","bicycle_pa":"stands","capacity":10,"covered":"no","fee":"no","operator":"","nameSource":"landmark"},"sourceId":"osm"},{"id":"osm:node:10865303282","latitude":53.2622761,"longitude":-6.1621334,"name":"Glen Drive by De Luxe","properties":{"access":"unknown","bicycle_pa":"wall_loops","capacity":8,"covered":"no","fee":"no","operator":"","nameSource":"landmark"},"sourceId":"osm"},{"id":"osm:node:10951882653","latitude":53.2615278,"longitude":-6.1821206,"name":"Brighton Wood cycle parking","properties":{"access":"unknown","bicycle_pa":"stands","capacity":6,"covered":"","fee":"","operator":"","nameSource":"street"},"sourceId":"osm"},{"id":"osm:node:11003016803","latitude":53.2567215,"longitude":-6.1655309,"name":"Brennanstown Road near Brennanstown Wood","properties":{"access":"unknown","bicycle_pa":"stands","capacity":8,"covered":"no","fee":"","operator":"","nameSource":"junction"},"sourceId":"osm"},{"id":"osm:node:11003016804","latitude":53.2568788,"longitude":-6.1653953,"name":"Brennanstown Wood near Brennanstown Road","properties":{"access":"unknown","bicycle_pa":"stands","capacity":6,"covered":"no","fee":"","operator":"","nameSource":"junction"},"sourceId":"osm"},{"id":"osm:node:11003036872","latitude":53.2570304,"longitude":-6.1651205,"name":"Brennanstown Wood near Brennanstown Road","properties":{"access":"unknown","bicycle_pa":"stands","capacity":6,"covered":"no","fee":"","operator":"","nameSource":"junction"},"sourceId":"osm"},{"id":"osm:node:11020032909","latitude":53.2724524,"longitude":-6.1745449,"name":"Westminster Wood cycle parking","properties":{"access":"unknown","bicycle_pa":"stands","capacity":10,"covered":"no","fee":"","operator":"","nameSource":"street"},"sourceId":"osm"},{"id":"osm:node:11035802739","latitude":53.2664408,"longitude":-6.1847994,"name":"Westminister Court near The Hedgerows","properties":{"access":"yes","bicycle_pa":"stands","capacity":20,"covered":"yes","fee":"no","operator":"","nameSource":"junction"},"sourceId":"osm"},{"id":"osm:node:11347125162","latitude":53.2781188,"longitude":-6.2134825,"name":"Carmanhall Road near Corrig Road","properties":{"access":"yes","bicycle_pa":"stands","capacity":22,"covered":"no","fee":"no","operator":"","nameSource":"junction"},"sourceId":"osm"},{"id":"osm:node:11347125163","latitude":53.2780089,"longitude":-6.2131405,"name":"Station Way cycle parking","properties":{"access":"yes","bicycle_pa":"stands","capacity":28,"covered":"no","fee":"no","operator":"","nameSource":"street"},"sourceId":"osm"},{"id":"osm:node:11347125164","latitude":53.2779376,"longitude":-6.2129751,"name":"Station Way cycle parking","properties":{"access":"yes","bicycle_pa":"stands","capacity":28,"covered":"no","fee":"no","operator":"","nameSource":"street"},"sourceId":"osm"},{"id":"osm:node:11757703485","latitude":53.273097,"longitude":-6.1944597,"name":"Tudor Lawns cycle parking","properties":{"access":"unknown","bicycle_pa":"stands","capacity":10,"covered":"no","fee":"no","operator":"","nameSource":"street"},"sourceId":"osm"},{"id":"osm:node:11822977342","latitude":53.2754708,"longitude":-6.1590344,"name":"Sheehan Medical Practice cycle parking","properties":{"access":"unknown","bicycle_pa":"stands","capacity":0,"covered":"","fee":"","operator":"","nameSource":"landmark"},"sourceId":"osm"},{"id":"osm:node:11831404171","latitude":53.2675756,"longitude":-6.2078339,"name":"Woodward Avenue cycle parking","properties":{"access":"unknown","bicycle_pa":"wall_loops","capacity":8,"covered":"no","fee":"no","operator":"","nameSource":"street"},"sourceId":"osm"},{"id":"osm:node:11831404172","latitude":53.2671713,"longitude":-6.2083989,"name":"Woodward Avenue cycle parking","properties":{"access":"unknown","bicycle_pa":"wall_loops","capacity":8,"covered":"no","fee":"no","operator":"","nameSource":"street"},"sourceId":"osm"},{"id":"osm:node:11831404173","latitude":53.2672103,"longitude":-6.2075942,"name":"Woodward Avenue cycle parking","properties":{"access":"unknown","bicycle_pa":"wall_loops","capacity":8,"covered":"no","fee":"no","operator":"","nameSource":"street"},"sourceId":"osm"},{"id":"osm:node:11831404174","latitude":53.2671955,"longitude":-6.2078145,"name":"Woodward Avenue cycle parking","properties":{"access":"unknown","bicycle_pa":"wall_loops","capacity":8,"covered":"no","fee":"no","operator":"","nameSource":"street"},"sourceId":"osm"},{"id":"osm:node:11831404175","latitude":53.2668028,"longitude":-6.207596,"name":"Woodward Avenue cycle parking","properties":{"access":"unknown","bicycle_pa":"wall_loops","capacity":8,"covered":"no","fee":"no","operator":"","nameSource":"street"},"sourceId":"osm"},{"id":"osm:node:11840913494","latitude":53.2397398,"longitude":-6.1962128,"name":"Enniskerry Road near Glenamuck Road South","properties":{"access":"yes","bicycle_pa":"stands","capacity":6,"covered":"no","fee":"no","operator":"","nameSource":"junction"},"sourceId":"osm"},{"id":"osm:node:11844201353","latitude":53.2664834,"longitude":-6.2084704,"name":"Woodward Avenue cycle parking","properties":{"access":"unknown","bicycle_pa":"stands","capacity":0,"covered":"yes","fee":"","operator":"","nameSource":"street"},"sourceId":"osm"},{"id":"osm:node:11845367276","latitude":53.258502,"longitude":-6.1986484,"name":"Glenbourne Road near Ballyogan Road","properties":{"access":"yes","bicycle_pa":"stands","capacity":20,"covered":"no","fee":"no","operator":"","nameSource":"junction"},"sourceId":"osm"},{"id":"osm:node:12109132480","latitude":53.2775541,"longitude":-6.1648769,"name":"Clonkeen Drive near Kill Lane","properties":{"access":"yes","bicycle_pa":"stands","capacity":20,"covered":"no","fee":"","operator":"","nameSource":"junction"},"sourceId":"osm"},{"id":"osm:node:12193464905","latitude":53.2572182,"longitude":-6.1647208,"name":"Brennanstown Wood cycle parking","properties":{"access":"unknown","bicycle_pa":"stands","capacity":6,"covered":"no","fee":"","operator":"","nameSource":"street"},"sourceId":"osm"},{"id":"osm:node:12613628038","latitude":53.2542878,"longitude":-6.2020729,"name":"Clay Farm Drive near Clay Farm Grove","properties":{"access":"unknown","bicycle_pa":"","capacity":0,"covered":"","fee":"","operator":"","nameSource":"junction"},"sourceId":"osm"},{"id":"osm:node:12629851887","latitude":53.2566242,"longitude":-6.185578,"name":"Ballyogan Square cycle parking","properties":{"access":"yes","bicycle_pa":"stands","capacity":16,"covered":"no","fee":"no","operator":"","nameSource":"street"},"sourceId":"osm"},{"id":"osm:node:12679682143","latitude":53.2551438,"longitude":-6.2016994,"name":"Clay Farm Drive near Clay Farm Grove","properties":{"access":"unknown","bicycle_pa":"stands","capacity":4,"covered":"","fee":"","operator":"","nameSource":"junction"},"sourceId":"osm"},{"id":"osm:node:12695978623","latitude":53.2446318,"longitude":-6.1583678,"name":"Mercer Road near Mercer Glen","properties":{"access":"unknown","bicycle_pa":"stands","capacity":10,"covered":"no","fee":"","operator":"","nameSource":"junction"},"sourceId":"osm"},{"id":"osm:node:12695978624","latitude":53.2441593,"longitude":-6.1575107,"name":"Lehaunstown cycle parking","properties":{"access":"unknown","bicycle_pa":"stands","capacity":10,"covered":"no","fee":"","operator":"","nameSource":"street"},"sourceId":"osm"},{"id":"osm:node:12695978676","latitude":53.2458671,"longitude":-6.1550069,"name":"Tully Park near Tully Drive","properties":{"access":"unknown","bicycle_pa":"stands","capacity":0,"covered":"","fee":"","operator":"","nameSource":"junction"},"sourceId":"osm"},{"id":"osm:node:12698694324","latitude":53.2463791,"longitude":-6.1603356,"name":"Mercer Drive near Mercer Close","properties":{"access":"unknown","bicycle_pa":"","capacity":0,"covered":"","fee":"","operator":"","nameSource":"junction"},"sourceId":"osm"},{"id":"osm:node:12698694367","latitude":53.2468668,"longitude":-6.1552866,"name":"Tully Park cycle parking","properties":{"access":"unknown","bicycle_pa":"stands","capacity":0,"covered":"","fee":"","operator":"","nameSource":"street"},"sourceId":"osm"},{"id":"osm:node:12698768810","latitude":53.2501095,"longitude":-6.1608711,"name":"Castle Street near Castle Avenue","properties":{"access":"unknown","bicycle_pa":"stands","capacity":28,"covered":"","fee":"","operator":"","nameSource":"junction"},"sourceId":"osm"},{"id":"osm:node:12698768878","latitude":53.248278,"longitude":-6.1607447,"name":"Beckett Park cycle parking","properties":{"access":"unknown","bicycle_pa":"","capacity":0,"covered":"","fee":"","operator":"","nameSource":"street"},"sourceId":"osm"},{"id":"osm:node:12698787807","latitude":53.2476306,"longitude":-6.1615133,"name":"Beckett Park near Mercer Close","properties":{"access":"unknown","bicycle_pa":"","capacity":0,"covered":"","fee":"","operator":"","nameSource":"junction"},"sourceId":"osm"},{"id":"osm:node:12703429817","latitude":53.2545574,"longitude":-6.199803,"name":"Clay Farm Drive near Clay Farm Grove","properties":{"access":"unknown","bicycle_pa":"","capacity":0,"covered":"","fee":"","operator":"","nameSource":"junction"},"sourceId":"osm"},{"id":"osm:node:12709287292","latitude":53.2500199,"longitude":-6.1619234,"name":"Beckett Park cycle parking","properties":{"access":"unknown","bicycle_pa":"","capacity":0,"covered":"","fee":"","operator":"","nameSource":"street"},"sourceId":"osm"},{"id":"osm:node:12709319110","latitude":53.2491643,"longitude":-6.1616882,"name":"Beckett Park by Beckett Park","properties":{"access":"unknown","bicycle_pa":"stands","capacity":8,"covered":"no","fee":"","operator":"","nameSource":"landmark"},"sourceId":"osm"},{"id":"osm:node:12709319111","latitude":53.2490207,"longitude":-6.1614966,"name":"Beckett Park cycle parking","properties":{"access":"unknown","bicycle_pa":"stands","capacity":0,"covered":"","fee":"","operator":"","nameSource":"landmark"},"sourceId":"osm"},{"id":"osm:node:12712976296","latitude":53.2500737,"longitude":-6.1578371,"name":"Castle Way near Castle Lane","properties":{"access":"unknown","bicycle_pa":"stands","capacity":5,"covered":"","fee":"","operator":"","nameSource":"junction"},"sourceId":"osm"},{"id":"osm:node:12712993125","latitude":53.2494054,"longitude":-6.1598647,"name":"Castle Street cycle parking","properties":{"access":"unknown","bicycle_pa":"stands","capacity":20,"covered":"no","fee":"","operator":"","nameSource":"street"},"sourceId":"osm"},{"id":"osm:node:12723157826","latitude":53.2556452,"longitude":-6.2020704,"name":"Clay Farm Way near Clay Farm Drive","properties":{"access":"unknown","bicycle_pa":"stands","capacity":18,"covered":"no","fee":"","operator":"","nameSource":"junction"},"sourceId":"osm"},{"id":"osm:node:12745803775","latitude":53.2352952,"longitude":-6.1938046,"name":"Ballybetagh Road near Enniskerry Road","properties":{"access":"yes","bicycle_pa":"stands","capacity":6,"covered":"no","fee":"","operator":"","nameSource":"junction"},"sourceId":"osm"},{"id":"osm:node:12755665271","latitude":53.2565625,"longitude":-6.1901073,"name":"Ballyogan Avenue near Ballyogan Road","properties":{"access":"yes","bicycle_pa":"stands","capacity":0,"covered":"yes","fee":"no","operator":"","nameSource":"junction"},"sourceId":"osm"},{"id":"osm:node:12762917170","latitude":53.2420825,"longitude":-6.1958085,"name":"Dun Óir Avenue cycle parking","properties":{"access":"unknown","bicycle_pa":"stands","capacity":0,"covered":"","fee":"","operator":"","nameSource":"street"},"sourceId":"osm"},{"id":"osm:node:12836416922","latitude":53.2402734,"longitude":-6.1922049,"name":"Rockville Square near Rockville Avenue","properties":{"access":"unknown","bicycle_pa":"stands","capacity":10,"covered":"no","fee":"","operator":"","nameSource":"junction"},"sourceId":"osm"},{"id":"osm:node:12988001193","latitude":53.2644485,"longitude":-6.2292088,"name":"Enniskerry Road near Slate Cabin Lane","properties":{"access":"unknown","bicycle_pa":"","capacity":0,"covered":"","fee":"","operator":"","nameSource":"junction"},"sourceId":"osm"},{"id":"osm:node:12988001194","latitude":53.2645973,"longitude":-6.2292282,"name":"Enniskerry Road near Slate Cabin Lane","properties":{"access":"unknown","bicycle_pa":"","capacity":0,"covered":"","fee":"","operator":"","nameSource":"junction"},"sourceId":"osm"},{"id":"osm:node:13326982104","latitude":53.2364321,"longitude":-6.1636016,"name":"Ballycorus cycle parking","properties":{"access":"yes","bicycle_pa":"stands","capacity":16,"covered":"yes","fee":"no","operator":"","nameSource":"place"},"sourceId":"osm"},{"id":"osm:node:13380793117","latitude":53.2689159,"longitude":-6.1972539,"name":"South County Business Park cycle parking","properties":{"access":"unknown","bicycle_pa":"","capacity":0,"covered":"","fee":"","operator":"","nameSource":"street"},"sourceId":"osm"},{"id":"osm:node:13388476307","latitude":53.2705939,"longitude":-6.2004199,"name":"South County Business Park cycle parking","properties":{"access":"unknown","bicycle_pa":"","capacity":0,"covered":"","fee":"","operator":"","nameSource":"street"},"sourceId":"osm"},{"id":"osm:node:13413856299","latitude":53.257646,"longitude":-6.2225495,"name":"Enniskerry Road cycle parking","properties":{"access":"yes","bicycle_pa":"stands","capacity":8,"covered":"no","fee":"no","operator":"","nameSource":"street"},"sourceId":"osm"},{"id":"osm:node:13443690865","latitude":53.2505862,"longitude":-6.1837466,"name":"Park Avenue by VHI SwiftCare Clinic","properties":{"access":"unknown","bicycle_pa":"","capacity":0,"covered":"","fee":"","operator":"","nameSource":"landmark"},"sourceId":"osm"},{"id":"osm:node:13446835385","latitude":53.2567655,"longitude":-6.1886277,"name":"Ballyogan Avenue by Gaelscoil Shliabh Rua","properties":{"access":"unknown","bicycle_pa":"shed","capacity":0,"covered":"","fee":"","operator":"","nameSource":"landmark"},"sourceId":"osm"},{"id":"osm:node:13446835386","latitude":53.2567857,"longitude":-6.1887136,"name":"Ballyogan Avenue by Gaelscoil Shliabh Rua","properties":{"access":"unknown","bicycle_pa":"shed","capacity":0,"covered":"","fee":"","operator":"","nameSource":"landmark"},"sourceId":"osm"},{"id":"osm:node:13446835387","latitude":53.2567975,"longitude":-6.188778,"name":"Ballyogan Avenue cycle parking","properties":{"access":"unknown","bicycle_pa":"shed","capacity":0,"covered":"","fee":"","operator":"","nameSource":"street"},"sourceId":"osm"},{"id":"osm:node:13475081587","latitude":53.2462362,"longitude":-6.1555961,"name":"Tully Drive near Tully Park","properties":{"access":"unknown","bicycle_pa":"stands","capacity":1,"covered":"no","fee":"no","operator":"","nameSource":"junction"},"sourceId":"osm"},{"id":"osm:node:13475081588","latitude":53.2461665,"longitude":-6.1555546,"name":"Tully Drive near Tully Park","properties":{"access":"unknown","bicycle_pa":"stands","capacity":1,"covered":"no","fee":"no","operator":"","nameSource":"junction"},"sourceId":"osm"},{"id":"osm:node:13475081589","latitude":53.2462088,"longitude":-6.1557881,"name":"Tully Drive near Tully Park","properties":{"access":"unknown","bicycle_pa":"stands","capacity":1,"covered":"no","fee":"no","operator":"","nameSource":"junction"},"sourceId":"osm"},{"id":"osm:node:13544726222","latitude":53.2469475,"longitude":-6.15733,"name":"Tully Grove cycle parking","properties":{"access":"unknown","bicycle_pa":"stands","capacity":0,"covered":"","fee":"","operator":"","nameSource":"street"},"sourceId":"osm"},{"id":"osm:node:13544726223","latitude":53.2466834,"longitude":-6.1574543,"name":"Tully Grove cycle parking","properties":{"access":"unknown","bicycle_pa":"stands","capacity":0,"covered":"yes","fee":"","operator":"","nameSource":"street"},"sourceId":"osm"},{"id":"osm:node:13704476448","latitude":53.2445938,"longitude":-6.1547154,"name":"Lehaunstown near Castle Street","properties":{"access":"unknown","bicycle_pa":"stands","capacity":0,"covered":"","fee":"","operator":"","nameSource":"junction"},"sourceId":"osm"},{"id":"osm:node:13704476456","latitude":53.2449457,"longitude":-6.1552058,"name":"Tully Park near Castle Street","properties":{"access":"unknown","bicycle_pa":"stands","capacity":0,"covered":"","fee":"","operator":"","nameSource":"junction"},"sourceId":"osm"},{"id":"osm:node:13704476457","latitude":53.2453721,"longitude":-6.1541707,"name":"Tully Park by Cherrywood Educate Together National School","properties":{"access":"unknown","bicycle_pa":"stands","capacity":0,"covered":"","fee":"","operator":"","nameSource":"landmark"},"sourceId":"osm"},{"id":"osm:node:13704476459","latitude":53.2468758,"longitude":-6.1557824,"name":"Tully Park cycle parking","properties":{"access":"unknown","bicycle_pa":"stands","capacity":0,"covered":"","fee":"","operator":"","nameSource":"street"},"sourceId":"osm"},{"id":"osm:node:13704476460","latitude":53.2453028,"longitude":-6.1532687,"name":"Tully Park near Lehaunstown","properties":{"access":"unknown","bicycle_pa":"stands","capacity":0,"covered":"","fee":"","operator":"","nameSource":"junction"},"sourceId":"osm"},{"id":"osm:node:13733403766","latitude":53.2471882,"longitude":-6.1577159,"name":"Tully Grove cycle parking","properties":{"access":"unknown","bicycle_pa":"shed","capacity":0,"covered":"","fee":"","operator":"","nameSource":"street"},"sourceId":"osm"},{"id":"osm:node:14018071435","latitude":53.2640516,"longitude":-6.2146012,"name":"Sandyford Hall Avenue near Sandyford Hall Park","properties":{"access":"unknown","bicycle_pa":"","capacity":0,"covered":"","fee":"","operator":"","nameSource":"junction"},"sourceId":"osm"},{"id":"osm:node:2301521476","latitude":53.2659531,"longitude":-6.1606061,"name":"Old Bray Road by Dunnes Stores","properties":{"access":"unknown","bicycle_pa":"stands","capacity":12,"covered":"no","fee":"","operator":"","nameSource":"landmark"},"sourceId":"osm"},{"id":"osm:node:3168317515","latitude":53.2772254,"longitude":-6.2243507,"name":"Cedar Road near Laneway","properties":{"access":"unknown","bicycle_pa":"","capacity":0,"covered":"","fee":"","operator":"","nameSource":"junction"},"sourceId":"osm"},{"id":"osm:node:3791235721","latitude":53.261577,"longitude":-6.1627644,"name":"Park Drive near Sycamore Avenue","properties":{"access":"private","bicycle_pa":"","capacity":0,"covered":"yes","fee":"","operator":"","nameSource":"junction"},"sourceId":"osm"},{"id":"osm:node:4219935998","latitude":53.2619524,"longitude":-6.1534925,"name":"Old Bray Road cycle parking","properties":{"access":"unknown","bicycle_pa":"stands","capacity":10,"covered":"no","fee":"no","operator":"","nameSource":"street"},"sourceId":"osm"},{"id":"osm:node:4219996511","latitude":53.2611914,"longitude":-6.1568419,"name":"Cabinteely cycle parking","properties":{"access":"unknown","bicycle_pa":"stands","capacity":10,"covered":"no","fee":"","operator":"","nameSource":"place"},"sourceId":"osm"},{"id":"osm:node:4219996543","latitude":53.26139,"longitude":-6.1582804,"name":"Cabinteely cycle parking","properties":{"access":"unknown","bicycle_pa":"stands","capacity":10,"covered":"no","fee":"","operator":"","nameSource":"place"},"sourceId":"osm"},{"id":"osm:node:4263605734","latitude":53.2538354,"longitude":-6.1694667,"name":"Brennanstown Vale cycle parking","properties":{"access":"yes","bicycle_pa":"stands","capacity":64,"covered":"no","fee":"no","operator":"Luas - Transdev Dublin Light Rail Limited","nameSource":"street"},"sourceId":"osm"},{"id":"osm:node:4263605735","latitude":53.2545326,"longitude":-6.172019,"name":"Glenamuck Road North cycle parking","properties":{"access":"yes","bicycle_pa":"stands","capacity":14,"covered":"no","fee":"no","operator":"","nameSource":"street"},"sourceId":"osm"},{"id":"osm:node:4263615653","latitude":53.2774296,"longitude":-6.2046395,"name":"Blackthorn Avenue cycle parking","properties":{"access":"unknown","bicycle_pa":"stands","capacity":20,"covered":"no","fee":"","operator":"","nameSource":"street"},"sourceId":"osm"},{"id":"osm:node:4565232407","latitude":53.2693963,"longitude":-6.1663483,"name":"Aspen Court near Old Bray Road","properties":{"access":"unknown","bicycle_pa":"","capacity":0,"covered":"no","fee":"","operator":"","nameSource":"junction"},"sourceId":"osm"},{"id":"osm:node:5148285416","latitude":53.2512424,"longitude":-6.1863578,"name":"Smyths cycle parking","properties":{"access":"unknown","bicycle_pa":"stands","capacity":10,"covered":"no","fee":"","operator":"","nameSource":"landmark"},"sourceId":"osm"},{"id":"osm:node:5148285417","latitude":53.2505812,"longitude":-6.1864306,"name":"Next Home cycle parking","properties":{"access":"unknown","bicycle_pa":"stands","capacity":10,"covered":"no","fee":"","operator":"","nameSource":"landmark"},"sourceId":"osm"},{"id":"osm:node:5148285418","latitude":53.2506365,"longitude":-6.1865057,"name":"Next Home cycle parking","properties":{"access":"unknown","bicycle_pa":"stands","capacity":10,"covered":"no","fee":"","operator":"","nameSource":"landmark"},"sourceId":"osm"},{"id":"osm:node:5600029202","latitude":53.2764517,"longitude":-6.2093729,"name":"Carmanhall Road near Arkle Road","properties":{"access":"unknown","bicycle_pa":"stands","capacity":10,"covered":"no","fee":"","operator":"","nameSource":"junction"},"sourceId":"osm"},{"id":"osm:node:5600029203","latitude":53.2764685,"longitude":-6.2094922,"name":"Carmanhall Road near Arkle Road","properties":{"access":"unknown","bicycle_pa":"stands","capacity":10,"covered":"no","fee":"","operator":"","nameSource":"junction"},"sourceId":"osm"},{"id":"osm:node:5600029205","latitude":53.2772504,"longitude":-6.2168133,"name":"Pizza Hut Delivery cycle parking","properties":{"access":"unknown","bicycle_pa":"stands","capacity":18,"covered":"no","fee":"","operator":"","nameSource":"landmark"},"sourceId":"osm"},{"id":"osm:node:5600029206","latitude":53.2776141,"longitude":-6.2167684,"name":"Blackthorn Drive by Ulster Bank","properties":{"access":"unknown","bicycle_pa":"stands","capacity":10,"covered":"no","fee":"","operator":"","nameSource":"landmark"},"sourceId":"osm"},{"id":"osm:node:5600029207","latitude":53.2742781,"longitude":-6.2060355,"name":"Burton Hall Avenue near Burton Hall Road","properties":{"access":"unknown","bicycle_pa":"informal","capacity":0,"covered":"no","fee":"","operator":"","nameSource":"junction"},"sourceId":"osm"},{"id":"osm:node:5600029208","latitude":53.2775531,"longitude":-6.2049077,"name":"Blackthorn Avenue cycle parking","properties":{"access":"unknown","bicycle_pa":"stands","capacity":48,"covered":"no","fee":"","operator":"","nameSource":"street"},"sourceId":"osm"},{"id":"osm:node:5871904089","latitude":53.2516387,"longitude":-6.1870086,"name":"Krispy Kreme cycle parking","properties":{"access":"unknown","bicycle_pa":"wall_loops","capacity":96,"covered":"yes","fee":"","operator":"","nameSource":"landmark"},"sourceId":"osm"},{"id":"osm:node:6216972505","latitude":53.2612823,"longitude":-6.2226042,"name":"Belarmine Copse near Belarmine Hall","properties":{"access":"unknown","bicycle_pa":"","capacity":0,"covered":"yes","fee":"","operator":"","nameSource":"junction"},"sourceId":"osm"},{"id":"osm:node:6400534549","latitude":53.2688533,"longitude":-6.1971984,"name":"South County Business Park cycle parking","properties":{"access":"unknown","bicycle_pa":"stands","capacity":0,"covered":"no","fee":"no","operator":"","nameSource":"street"},"sourceId":"osm"},{"id":"osm:node:6749198639","latitude":53.278325,"longitude":-6.163538,"name":"Clonkeen Road near Deansgrange Road","properties":{"access":"unknown","bicycle_pa":"stands","capacity":8,"covered":"no","fee":"no","operator":"","nameSource":"junction"},"sourceId":"osm"},{"id":"osm:node:6834534185","latitude":53.2606097,"longitude":-6.1616464,"name":"Park Drive cycle parking","properties":{"access":"yes","bicycle_pa":"stands","capacity":20,"covered":"no","fee":"no","operator":"","nameSource":"street"},"sourceId":"osm"},{"id":"osm:node:6834534286","latitude":53.2603037,"longitude":-6.1614354,"name":"Park Drive by Cabinteely Tearooms","properties":{"access":"unknown","bicycle_pa":"wall_loops","capacity":6,"covered":"no","fee":"no","operator":"","nameSource":"landmark"},"sourceId":"osm"},{"id":"osm:node:7778576859","latitude":53.2756752,"longitude":-6.158743,"name":"Sheehan Medical Practice cycle parking","properties":{"access":"unknown","bicycle_pa":"wall_loops","capacity":5,"covered":"no","fee":"","operator":"","nameSource":"landmark"},"sourceId":"osm"},{"id":"osm:node:7778576925","latitude":53.2751863,"longitude":-6.1576411,"name":"Little Frieda's cycle parking","properties":{"access":"unknown","bicycle_pa":"stands","capacity":8,"covered":"no","fee":"","operator":"","nameSource":"landmark"},"sourceId":"osm"},{"id":"osm:node:8019014874","latitude":53.2778222,"longitude":-6.1647128,"name":"Kill Lane near Foxrock Close","properties":{"access":"yes","bicycle_pa":"stands","capacity":10,"covered":"no","fee":"no","operator":"","nameSource":"junction"},"sourceId":"osm"},{"id":"osm:node:8584464889","latitude":53.2466551,"longitude":-6.2392765,"name":"Dublin Mountains Way cycle parking","properties":{"access":"unknown","bicycle_pa":"stands","capacity":5,"covered":"no","fee":"no","operator":"","nameSource":"street"},"sourceId":"osm"},{"id":"osm:node:8639948485","latitude":53.2575836,"longitude":-6.2247255,"name":"Treo Coffee Co cycle parking","properties":{"access":"permissive","bicycle_pa":"stands","capacity":12,"covered":"no","fee":"no","operator":"Dun Laoghaire-Rathdown County Council","nameSource":"landmark"},"sourceId":"osm"},{"id":"osm:node:8639988021","latitude":53.2589726,"longitude":-6.2282318,"name":"EV Charging Point cycle parking","properties":{"access":"permissive","bicycle_pa":"stands","capacity":14,"covered":"no","fee":"no","operator":"Dun Laoghaire-Rathdown County Council","nameSource":"landmark"},"sourceId":"osm"},{"id":"osm:node:9571595317","latitude":53.2782705,"longitude":-6.1842128,"name":"Stillorgan Road near Leopardstown Road","properties":{"access":"yes","bicycle_pa":"stands","capacity":10,"covered":"no","fee":"no","operator":"","nameSource":"junction"},"sourceId":"osm"},{"id":"osm:node:9937518690","latitude":53.2685702,"longitude":-6.1666489,"name":"Magic Carpet Centre near Old Bray Road","properties":{"access":"yes","bicycle_pa":"stands","capacity":10,"covered":"no","fee":"no","operator":"","nameSource":"junction"},"sourceId":"osm"},{"id":"osm:node:9984177141","latitude":53.2711127,"longitude":-6.2213696,"name":"Green Route Northbound near R113","properties":{"access":"unknown","bicycle_pa":"stands","capacity":0,"covered":"","fee":"","operator":"","nameSource":"junction"},"sourceId":"osm"},{"id":"osm:way:1362386948","latitude":53.25526738000001,"longitude":-6.20053638,"name":"Clay Farm Drive cycle parking","properties":{"access":"unknown","bicycle_pa":"stands","capacity":0,"covered":"","fee":"","operator":"","nameSource":"street"},"sourceId":"osm"},{"id":"osm:way:1375068589","latitude":53.258246899999996,"longitude":-6.226788160000001,"name":"EV Charging Point cycle parking","properties":{"access":"unknown","bicycle_pa":"","capacity":46,"covered":"","fee":"","operator":"","nameSource":"landmark"},"sourceId":"osm"},{"id":"osm:way:1430576893","latitude":53.27290488000001,"longitude":-6.17574576,"name":"Springfield Park cycle parking","properties":{"access":"unknown","bicycle_pa":"","capacity":0,"covered":"yes","fee":"","operator":"","nameSource":"street"},"sourceId":"osm"},{"id":"osm:way:1460738141","latitude":53.26736722,"longitude":-6.1986906600000005,"name":"South County Business Park cycle parking","properties":{"access":"unknown","bicycle_pa":"shed","capacity":0,"covered":"","fee":"","operator":"","nameSource":"street"},"sourceId":"osm"},{"id":"osm:way:1460738142","latitude":53.26731718,"longitude":-6.19874744,"name":"South County Business Park cycle parking","properties":{"access":"unknown","bicycle_pa":"shed","capacity":0,"covered":"","fee":"","operator":"","nameSource":"street"},"sourceId":"osm"},{"id":"osm:way:1460748068","latitude":53.26620727999999,"longitude":-6.1981508199999995,"name":"Nord Anglia International School Dublin cycle parking","properties":{"access":"unknown","bicycle_pa":"","capacity":0,"covered":"","fee":"","operator":"","nameSource":"landmark"},"sourceId":"osm"},{"id":"osm:way:1465408509","latitude":53.25126012,"longitude":-6.184810679999999,"name":"Park Avenue by KFC","properties":{"access":"unknown","bicycle_pa":"shed","capacity":0,"covered":"","fee":"","operator":"","nameSource":"landmark"},"sourceId":"osm"},{"id":"osm:way:664218372","latitude":53.26007797999999,"longitude":-6.21686756,"name":"Belarmine Woods by Stepaside Educate Together National School","properties":{"access":"unknown","bicycle_pa":"","capacity":0,"covered":"yes","fee":"","operator":"","nameSource":"landmark"},"sourceId":"osm"}],"schemaVersion":2}
