{"key":"12/1949/1340","points":[{"categories":["hire"],"id":"osm:node:10154732564","latitude":52.6686978,"longitude":-8.6278333,"name":"Clancy's Strand","properties":{"brand":"TFI Bikes","network":"TFI Bikes","operator":"An Rothar Nua"},"sourceId":"osm"},{"categories":["hire"],"id":"osm:node:10154790016","latitude":52.662941,"longitude":-8.6179374,"name":"Saint John's Cathedral","properties":{"brand":"TFI Bikes","network":"TFI Bikes","operator":"An Rothar Nua"},"sourceId":"osm"},{"categories":["hire"],"id":"osm:node:10154816233","latitude":52.6739738,"longitude":-8.6479659,"name":"TUS Campus","properties":{"brand":"TFI Bikes","network":"TFI Bikes","operator":"An Rothar Nua"},"sourceId":"osm"},{"categories":["repair"],"id":"osm:node:11179604161","latitude":52.664586,"longitude":-8.628448,"name":"Bicycle repair station","properties":{"servicePump":"yes","serviceRepair":"yes","serviceTools":"yes"},"sourceId":"osm"},{"categories":["repair"],"id":"osm:node:11186852796","latitude":52.6615291,"longitude":-8.6313802,"name":"Bicycle repair station","properties":{"fee":"no","servicePump":"yes","serviceRepair":"yes","serviceTools":"yes"},"sourceId":"osm"},{"categories":["repair"],"id":"osm:node:12218964170","latitude":52.6644564,"longitude":-8.6236439,"name":"Limerick City and County Council","properties":{"operator":"Limerick City and County Council","servicePump":"no","serviceRepair":"yes","serviceTools":"yes"},"sourceId":"osm"},{"categories":["repair"],"id":"osm:node:12328638249","latitude":52.6625971,"longitude":-8.6260347,"name":"Limerick City and County Council","properties":{"fee":"no","openingHours":"24/7","operator":"Limerick City and County Council","servicePump":"yes","serviceRepair":"yes","serviceTools":"yes"},"sourceId":"osm"},{"categories":["shop"],"id":"osm:node:2126386393","latitude":52.6573949,"longitude":-8.6332729,"name":"The Bike Shop","properties":{},"sourceId":"osm"},{"categories":["hire"],"id":"osm:node:3222384241","latitude":52.652943,"longitude":-8.6390416,"name":"Mary Immaculate College","properties":{"brand":"TFI Bikes","network":"TFI Bikes","operator":"An Rothar Nua"},"sourceId":"osm"},{"categories":["hire"],"id":"osm:node:3222396979","latitude":52.6524224,"longitude":-8.6357285,"name":"Mount Saint Vincent","properties":{"brand":"TFI Bikes","network":"TFI Bikes","operator":"An Rothar Nua"},"sourceId":"osm"},{"categories":["hire"],"id":"osm:node:3222396980","latitude":52.6550145,"longitude":-8.6347848,"name":"O'Connell Avenue","properties":{"brand":"TFI Bikes","network":"TFI Bikes","operator":"An Rothar Nua"},"sourceId":"osm"},{"categories":["hire"],"id":"osm:node:3222466813","latitude":52.6556675,"longitude":-8.6358349,"name":"Mount Saint Alphonsus","properties":{"brand":"TFI Bikes","network":"TFI Bikes","operator":"An Rothar Nua"},"sourceId":"osm"},{"categories":["hire"],"id":"osm:node:3222466814","latitude":52.65812,"longitude":-8.6292863,"name":"Pery Square","properties":{"brand":"TFI Bikes","network":"TFI Bikes","operator":"An Rothar Nua"},"sourceId":"osm"},{"categories":["hire"],"id":"osm:node:3222466815","latitude":52.6586198,"longitude":-8.6324012,"name":"Newenham St.","properties":{"brand":"TFI Bikes","network":"TFI Bikes","operator":"An Rothar Nua"},"sourceId":"osm"},{"categories":["hire"],"id":"osm:node:3222466826","latitude":52.6593372,"longitude":-8.6245872,"name":"Colbert Station","properties":{"brand":"TFI Bikes","network":"TFI Bikes","operator":"An Rothar Nua"},"sourceId":"osm"},{"categories":["hire"],"id":"osm:node:3222469576","latitude":52.6599878,"longitude":-8.6276231,"name":"Baker Place","properties":{"brand":"TFI Bikes","network":"TFI Bikes","operator":"An Rothar Nua"},"sourceId":"osm"},{"categories":["hire"],"id":"osm:node:3222510961","latitude":52.6611669,"longitude":-8.6296178,"name":"O'Connell Street","properties":{"brand":"TFI Bikes","network":"TFI Bikes","operator":"An Rothar Nua"},"sourceId":"osm"},{"categories":["hire"],"id":"osm:node:3222510962","latitude":52.6621598,"longitude":-8.6319696,"name":"Bishop's Quay","properties":{"brand":"TFI Bikes","network":"TFI Bikes","operator":"An Rothar Nua"},"sourceId":"osm"},{"categories":["hire"],"id":"osm:node:3222510963","latitude":52.6600347,"longitude":-8.6201177,"name":"Newtown Mahon","properties":{"brand":"TFI Bikes","network":"TFI Bikes","operator":"An Rothar Nua"},"sourceId":"osm"},{"categories":["hire"],"id":"osm:node:3222510964","latitude":52.6610919,"longitude":-8.6250582,"name":"Roches Street","properties":{"brand":"TFI Bikes","network":"TFI Bikes","operator":"An Rothar Nua"},"sourceId":"osm"},{"categories":["hire"],"id":"osm:node:3222510965","latitude":52.6636618,"longitude":-8.6287576,"name":"Bedford Row","properties":{"brand":"TFI Bikes","network":"TFI Bikes","operator":"An Rothar Nua"},"sourceId":"osm"},{"categories":["hire"],"id":"osm:node:3222510966","latitude":52.6648679,"longitude":-8.6263236,"name":"Arthur's Quay","properties":{"brand":"TFI Bikes","network":"TFI Bikes","operator":"An Rothar Nua"},"sourceId":"osm"},{"categories":["hire"],"id":"osm:node:3222510967","latitude":52.6635453,"longitude":-8.6216561,"name":"The Milk Market","properties":{"brand":"TFI Bikes","network":"TFI Bikes","operator":"An Rothar Nua"},"sourceId":"osm"},{"categories":["hire"],"id":"osm:node:3222510970","latitude":52.6664956,"longitude":-8.6184283,"name":"Abbey Bridge","properties":{"brand":"TFI Bikes","network":"TFI Bikes","operator":"An Rothar Nua"},"sourceId":"osm"},{"categories":["hire"],"id":"osm:node:3222515509","latitude":52.6699997,"longitude":-8.6248215,"name":"King John's Castle","properties":{"brand":"TFI Bikes","network":"TFI Bikes","operator":"An Rothar Nua"},"sourceId":"osm"},{"categories":["hire"],"id":"osm:node:3222515885","latitude":52.6674147,"longitude":-8.6236953,"name":"Saint Mary's Cathedral","properties":{"brand":"TFI Bikes","network":"TFI Bikes","operator":"An Rothar Nua"},"sourceId":"osm"},{"categories":["hire"],"id":"osm:node:3222515886","latitude":52.6685534,"longitude":-8.6207927,"name":"Island Road Junction","properties":{"brand":"TFI Bikes","network":"TFI Bikes","operator":"An Rothar Nua"},"sourceId":"osm"},{"categories":["hire"],"id":"osm:node:3655964719","latitude":52.6656299,"longitude":-8.6315345,"name":"O'Callaghan Strand","properties":{"brand":"TFI Bikes","network":"TFI Bikes","operator":"An Rothar Nua"},"sourceId":"osm"},{"categories":["shop"],"id":"osm:node:442725202","latitude":52.6647237,"longitude":-8.6191598,"name":"An Siopa Rothar","properties":{},"sourceId":"osm"}],"schemaVersion":2}
