{"key":"12/1993/1526","points":[{"categories":["hire"],"id":"osm:node:10595200813","latitude":41.632962,"longitude":-4.7574797,"name":"Calle Federico Landrove Moiño","properties":{"brand":"Biki","fee":"yes","network":"Biki","operator":"Auvasa"},"sourceId":"osm"},{"categories":["hire"],"id":"osm:node:10595200814","latitude":41.6366004,"longitude":-4.767255,"name":"Calle Manuel Azaña","properties":{"brand":"Biki","fee":"yes","network":"Biki","operator":"Auvasa"},"sourceId":"osm"},{"categories":["hire"],"id":"osm:node:10595200815","latitude":41.6379765,"longitude":-4.7494622,"name":"Calle Mariano de los Cobos","properties":{"brand":"Biki","fee":"yes","network":"Biki","operator":"Auvasa"},"sourceId":"osm"},{"categories":["hire"],"id":"osm:node:10595200819","latitude":41.6179392,"longitude":-4.7649598,"name":"Calle Atenas","properties":{"brand":"Biki","fee":"yes","network":"Biki","operator":"Auvasa"},"sourceId":"osm"},{"categories":["hire"],"id":"osm:node:10595200820","latitude":41.6172173,"longitude":-4.758591,"name":"Calle José Velicia","properties":{"brand":"Biki","fee":"yes","network":"Biki","operator":"Auvasa"},"sourceId":"osm"},{"categories":["hire"],"id":"osm:node:10647734742","latitude":41.634652,"longitude":-4.758756,"name":"Calle José Garrote Tebar","properties":{"brand":"Biki","fee":"yes","network":"Biki","operator":"Auvasa"},"sourceId":"osm"},{"categories":["hire"],"id":"osm:node:10650560677","latitude":41.618709,"longitude":-4.7479066,"name":"Agencia de Innovación","properties":{"brand":"Biki","fee":"yes","network":"Biki","operator":"Auvasa"},"sourceId":"osm"},{"categories":["hire"],"id":"osm:node:10650560679","latitude":41.6187039,"longitude":-4.7557125,"name":"Calle Villafrades de Campos","properties":{"brand":"Biki","fee":"yes","network":"Biki","operator":"Auvasa"},"sourceId":"osm"},{"categories":["hire"],"id":"osm:node:10703034194","latitude":41.6141907,"longitude":-4.7536315,"name":"Calle Antonio Machado","properties":{"brand":"Biki","fee":"yes","network":"Biki","operator":"Auvasa"},"sourceId":"osm"},{"categories":["hire"],"id":"osm:node:10703034195","latitude":41.6098258,"longitude":-4.7548053,"name":"Calle de Ignacio Serrano","properties":{"brand":"Biki","fee":"yes","network":"Biki","operator":"Auvasa"},"sourceId":"osm"},{"categories":["hire"],"id":"osm:node:10703034196","latitude":41.6084831,"longitude":-4.748348,"name":"Calle Santiago Alba","properties":{"brand":"Biki","fee":"yes","network":"Biki","operator":"Auvasa"},"sourceId":"osm"},{"categories":["hire"],"id":"osm:node:10724631730","latitude":41.6381292,"longitude":-4.7619958,"name":"Calle de Hernando de Acuña","properties":{"brand":"Biki","fee":"yes","network":"Biki","operator":"Auvasa"},"sourceId":"osm"},{"categories":["hire"],"id":"osm:node:10724631731","latitude":41.6387052,"longitude":-4.757927,"name":"Calle de Manuel Silvela","properties":{"brand":"Biki","fee":"yes","network":"Biki","operator":"Auvasa"},"sourceId":"osm"},{"categories":["hire"],"id":"osm:node:13931500066","latitude":41.614259,"longitude":-4.7613694,"name":"Calle Alcaparra","properties":{"brand":"Biki","fee":"yes","network":"Biki","operator":"Auvasa"},"sourceId":"osm"},{"categories":["hire"],"id":"osm:node:5279529669","latitude":41.6361934,"longitude":-4.760047,"name":"Plaza Marcos Fernández","properties":{"brand":"Biki","fee":"yes","network":"Biki","operator":"Auvasa"},"sourceId":"osm"},{"categories":["shop","repair"],"id":"osm:node:7176092725","latitude":41.6260827,"longitude":-4.7699953,"name":"Ortega","properties":{"openingHours":"Mo-Fr 10:00-14:00,17:00-20:00; Sa 10:30-14:00","serviceRepair":"yes"},"sourceId":"osm"},{"categories":["hire"],"id":"osm:node:8369874922","latitude":41.6126557,"longitude":-4.7496514,"name":"CDO Covaresa","properties":{"brand":"Biki","fee":"yes","network":"Biki","operator":"Auvasa"},"sourceId":"osm"},{"categories":["hire"],"id":"osm:node:8379762284","latitude":41.622808,"longitude":-4.7488988,"name":"Paseo Zorrilla 328","properties":{"brand":"Biki","fee":"yes","network":"Biki","operator":"Auvasa"},"sourceId":"osm"},{"categories":["hire"],"id":"osm:node:8379762285","latitude":41.6354923,"longitude":-4.7550482,"name":"Calle Profesor Adolfo Miaja de la Muela","properties":{"brand":"Biki","fee":"yes","network":"Biki","operator":"Auvasa"},"sourceId":"osm"},{"categories":["hire"],"id":"osm:node:8379762286","latitude":41.6306568,"longitude":-4.7472471,"name":"Calle Venezuela","properties":{"brand":"Biki","fee":"yes","network":"Biki","operator":"Auvasa"},"sourceId":"osm"},{"categories":["shop"],"id":"osm:node:8942756120","latitude":41.6232967,"longitude":-4.7472287,"name":"Bicicletas Matovelo","properties":{},"sourceId":"osm"},{"categories":["shop"],"id":"osm:node:9371477959","latitude":41.6205442,"longitude":-4.7476735,"name":"Bicicletas EcoTienda","properties":{},"sourceId":"osm"}],"schemaVersion":2}
