{"key":"12/2048/1347","points":[{"id":"osm:node:1057675985","latitude":52.314167,"longitude":0.0573633,"name":"High Street (Willingham) near Stocks Terrace","properties":{"access":"unknown","bicycle_pa":"","capacity":7,"covered":"","fee":"","operator":"","nameSource":"junction"},"sourceId":"osm"},{"id":"osm:node:11083750831","latitude":52.2815883,"longitude":0.0659137,"name":"Stirling Road cycle parking","properties":{"access":"destination","bicycle_pa":"stands","capacity":10,"covered":"yes","fee":"","operator":"","nameSource":"street"},"sourceId":"osm"},{"id":"osm:node:11283915114","latitude":52.2754436,"longitude":0.0666683,"name":"Southern Access Road cycle parking","properties":{"access":"unknown","bicycle_pa":"stands","capacity":6,"covered":"no","fee":"","operator":"","nameSource":"street"},"sourceId":"osm"},{"id":"osm:node:12055487856","latitude":52.2800496,"longitude":0.0624148,"name":"Larkspur near Harebell Road","properties":{"access":"destination","bicycle_pa":"wall_loops","capacity":4,"covered":"no","fee":"","operator":"","nameSource":"junction"},"sourceId":"osm"},{"id":"osm:node:12079193087","latitude":52.2764919,"longitude":0.0691454,"name":"Westwick cycle parking","properties":{"access":"unknown","bicycle_pa":"stands","capacity":6,"covered":"no","fee":"","operator":"","nameSource":"place"},"sourceId":"osm"},{"id":"osm:node:8232107053","latitude":52.2785249,"longitude":0.0480451,"name":"High Street near Rectory Close","properties":{"access":"unknown","bicycle_pa":"ground_slots","capacity":3,"covered":"no","fee":"","operator":"","nameSource":"junction"},"sourceId":"osm"},{"id":"osm:node:9622541043","latitude":52.2880893,"longitude":0.0504599,"name":"Pathfinder Way cycle parking","properties":{"access":"unknown","bicycle_pa":"stands","capacity":10,"covered":"no","fee":"","operator":"","nameSource":"street"},"sourceId":"osm"},{"id":"osm:node:9622541044","latitude":52.2887305,"longitude":0.0505646,"name":"Unity Way near Crabtree Road","properties":{"access":"unknown","bicycle_pa":"stands","capacity":10,"covered":"no","fee":"","operator":"","nameSource":"junction"},"sourceId":"osm"},{"id":"osm:node:9622541049","latitude":52.28852,"longitude":0.0507724,"name":"Unity Way by Unity Centre","properties":{"access":"unknown","bicycle_pa":"stands","capacity":0,"covered":"","fee":"","operator":"","nameSource":"landmark"},"sourceId":"osm"},{"id":"osm:node:9622564496","latitude":52.3096722,"longitude":0.0592544,"name":"Mill Road near Berrycroft","properties":{"access":"unknown","bicycle_pa":"stands","capacity":6,"covered":"no","fee":"","operator":"","nameSource":"junction"},"sourceId":"osm"},{"id":"osm:way:1059380371","latitude":52.29161574,"longitude":0.05501582000000001,"name":"Cambridgeshire Guided Busway cycle parking","properties":{"access":"unknown","bicycle_pa":"lockers","capacity":8,"covered":"","fee":"","operator":"The Busway (Cambs CC)","nameSource":"street"},"sourceId":"osm"},{"id":"osm:way:1256110640","latitude":52.286848899999995,"longitude":0.05451144,"name":"Pathfinder Way by Pathfinder School","properties":{"access":"unknown","bicycle_pa":"stands","capacity":0,"covered":"","fee":"","operator":"","nameSource":"landmark"},"sourceId":"osm"},{"id":"osm:way:582382648","latitude":52.28643361999999,"longitude":0.05324618,"name":"Pathfinder Way by Pathfinder CofE Primary School","properties":{"access":"unknown","bicycle_pa":"","capacity":0,"covered":"","fee":"","operator":"","nameSource":"landmark"},"sourceId":"osm"},{"id":"osm:way:648244072","latitude":52.29154397999999,"longitude":0.05528334,"name":"Cambridgeshire Guided Busway cycle parking","properties":{"access":"unknown","bicycle_pa":"lockers","capacity":8,"covered":"","fee":"","operator":"The Busway (Cambs CC)","nameSource":"street"},"sourceId":"osm"},{"id":"osm:way:648244073","latitude":52.29158474,"longitude":0.05513962,"name":"Cambridgeshire Guided Busway cycle parking","properties":{"access":"unknown","bicycle_pa":"stands","capacity":60,"covered":"no","fee":"","operator":"The Busway (Cambs CC)","nameSource":"street"},"sourceId":"osm"},{"id":"osm:way:65047440","latitude":52.29166860000001,"longitude":0.05383356666666667,"name":"Cambridgeshire Guided Busway cycle parking","properties":{"access":"unknown","bicycle_pa":"stands","capacity":50,"covered":"yes","fee":"","operator":"The Busway (Cambs CC)","nameSource":"street"},"sourceId":"osm"},{"id":"osm:way:846555180","latitude":52.291793659999996,"longitude":0.05443212000000001,"name":"Cambridgeshire Guided Busway cycle parking","properties":{"access":"unknown","bicycle_pa":"stands","capacity":64,"covered":"no","fee":"","operator":"","nameSource":"street"},"sourceId":"osm"},{"id":"osm:way:848190451","latitude":52.282989640000004,"longitude":0.06516804,"name":"Stirling Road near Lockhart Way","properties":{"access":"customers","bicycle_pa":"hoop","capacity":0,"covered":"no","fee":"no","operator":"House by Urban Splash","nameSource":"junction"},"sourceId":"osm"}],"schemaVersion":2}
