{"key":"12/2048/1348","points":[{"id":"osm:node:1013882037","latitude":52.2654383,"longitude":0.0770776,"name":"Cambridgeshire Guided Busway near Guided Busway bridleway","properties":{"access":"unknown","bicycle_pa":"","capacity":30,"covered":"","fee":"","operator":"The Busway (Cambs CC)","nameSource":"junction"},"sourceId":"osm"},{"id":"osm:node:10157567894","latitude":52.2238349,"longitude":0.0012558,"name":"Childerley Gate cycle parking","properties":{"access":"unknown","bicycle_pa":"stands","capacity":0,"covered":"","fee":"","operator":"","nameSource":"place"},"sourceId":"osm"},{"id":"osm:node:10221422792","latitude":52.2148374,"longitude":0.0837037,"name":"Madingley Road Park & Ride cycle parking","properties":{"access":"unknown","bicycle_pa":"","capacity":8,"covered":"","fee":"","operator":"","nameSource":"landmark"},"sourceId":"osm"},{"id":"osm:node:10221422793","latitude":52.2148629,"longitude":0.0837077,"name":"Madingley Road Park & Ride cycle parking","properties":{"access":"unknown","bicycle_pa":"","capacity":8,"covered":"","fee":"","operator":"","nameSource":"landmark"},"sourceId":"osm"},{"id":"osm:node:10221422794","latitude":52.2148361,"longitude":0.0836635,"name":"Madingley Road Park & Ride cycle parking","properties":{"access":"unknown","bicycle_pa":"","capacity":8,"covered":"","fee":"","operator":"","nameSource":"landmark"},"sourceId":"osm"},{"id":"osm:node:1030722486","latitude":52.2526705,"longitude":0.0207461,"name":"Gladeside by Bar Hill Post Office","properties":{"access":"unknown","bicycle_pa":"stands","capacity":8,"covered":"yes","fee":"","operator":"","nameSource":"landmark"},"sourceId":"osm"},{"id":"osm:node:10728441940","latitude":52.2186501,"longitude":0.0865355,"name":"Ridgeway Corner near Eddington Place","properties":{"access":"unknown","bicycle_pa":"stands","capacity":12,"covered":"no","fee":"","operator":"","nameSource":"junction"},"sourceId":"osm"},{"id":"osm:node:10728441948","latitude":52.2188478,"longitude":0.0866298,"name":"Ridgeway Corner near Eddington Place","properties":{"access":"private","bicycle_pa":"building","capacity":0,"covered":"yes","fee":"","operator":"","nameSource":"junction"},"sourceId":"osm"},{"id":"osm:node:10728441949","latitude":52.2186798,"longitude":0.0873035,"name":"Eddington Place near Ridgeway Corner","properties":{"access":"unknown","bicycle_pa":"stands","capacity":18,"covered":"yes","fee":"","operator":"","nameSource":"junction"},"sourceId":"osm"},{"id":"osm:node:10728441970","latitude":52.2188048,"longitude":0.087198,"name":"Eddington Place near Ridgeway Corner","properties":{"access":"unknown","bicycle_pa":"stands","capacity":18,"covered":"no","fee":"","operator":"","nameSource":"junction"},"sourceId":"osm"},{"id":"osm:node:10844434285","latitude":52.2388663,"longitude":0.0791653,"name":"High Street near The Gowers","properties":{"access":"private","bicycle_pa":"stands","capacity":6,"covered":"no","fee":"","operator":"","nameSource":"junction"},"sourceId":"osm"},{"id":"osm:node:10937086136","latitude":52.2177115,"longitude":0.0848217,"name":"Wileman Way near Turing Way","properties":{"access":"unknown","bicycle_pa":"stands","capacity":6,"covered":"no","fee":"","operator":"","nameSource":"junction"},"sourceId":"osm"},{"id":"osm:node:10937086146","latitude":52.2166494,"longitude":0.086885,"name":"Burkitt Lane near Turing Way","properties":{"access":"unknown","bicycle_pa":"stands","capacity":6,"covered":"no","fee":"","operator":"","nameSource":"junction"},"sourceId":"osm"},{"id":"osm:node:10937086147","latitude":52.2170454,"longitude":0.0867714,"name":"Burkitt Lane near Burkitt Walk","properties":{"access":"unknown","bicycle_pa":"stands","capacity":10,"covered":"no","fee":"","operator":"","nameSource":"junction"},"sourceId":"osm"},{"id":"osm:node:10937086151","latitude":52.217157,"longitude":0.0856621,"name":"Turing Way by Mailboxes for Turing Way apartments","properties":{"access":"private","bicycle_pa":"building","capacity":0,"covered":"yes","fee":"","operator":"","nameSource":"landmark"},"sourceId":"osm"},{"id":"osm:node:10949464399","latitude":52.2197491,"longitude":0.0873111,"name":"Turing Way near Ryle Yard","properties":{"access":"private","bicycle_pa":"two-tier","capacity":0,"covered":"yes","fee":"","operator":"","nameSource":"junction"},"sourceId":"osm"},{"id":"osm:node:10949464402","latitude":52.2198038,"longitude":0.0875016,"name":"Turing Way near Eddington Avenue","properties":{"access":"unknown","bicycle_pa":"stands","capacity":10,"covered":"no","fee":"","operator":"","nameSource":"junction"},"sourceId":"osm"},{"id":"osm:node:10949464403","latitude":52.2197956,"longitude":0.0871078,"name":"Ryle Yard near Turing Way","properties":{"access":"unknown","bicycle_pa":"stands","capacity":10,"covered":"no","fee":"","operator":"","nameSource":"junction"},"sourceId":"osm"},{"id":"osm:node:11072045323","latitude":52.231125,"longitude":0.0876225,"name":"Wellbrook Way near Welbrook Court","properties":{"access":"unknown","bicycle_pa":"stands","capacity":36,"covered":"","fee":"","operator":"","nameSource":"junction"},"sourceId":"osm"},{"id":"osm:node:11287255402","latitude":52.2165682,"longitude":0.0875887,"name":"Eddington Avenue near Turing Way","properties":{"access":"unknown","bicycle_pa":"stands","capacity":6,"covered":"no","fee":"","operator":"","nameSource":"junction"},"sourceId":"osm"},{"id":"osm:node:11756681368","latitude":52.2181893,"longitude":0.0864673,"name":"Market Square near Ridgeway Corner","properties":{"access":"unknown","bicycle_pa":"stands","capacity":16,"covered":"yes","fee":"","operator":"","nameSource":"junction"},"sourceId":"osm"},{"id":"osm:node:12059194180","latitude":52.2218829,"longitude":0.0864766,"name":"Milne Avenue near Appleton Way","properties":{"access":"unknown","bicycle_pa":"stands","capacity":10,"covered":"no","fee":"","operator":"","nameSource":"junction"},"sourceId":"osm"},{"id":"osm:node:12386836922","latitude":52.2228573,"longitude":0.0873809,"name":"Milne Avenue near Ayrton Avenue","properties":{"access":"unknown","bicycle_pa":"stands","capacity":8,"covered":"no","fee":"","operator":"","nameSource":"junction"},"sourceId":"osm"},{"id":"osm:node:12656860761","latitude":52.2253383,"longitude":0.0439981,"name":"High Street by The Three Horseshoes","properties":{"access":"permissive","bicycle_pa":"wall_loops","capacity":0,"covered":"yes","fee":"no","operator":"","nameSource":"landmark"},"sourceId":"osm"},{"id":"osm:node:12915645471","latitude":52.2212646,"longitude":0.0869556,"name":"Aston Terrace near Milne Avenue","properties":{"access":"unknown","bicycle_pa":"stands","capacity":6,"covered":"no","fee":"","operator":"","nameSource":"junction"},"sourceId":"osm"},{"id":"osm:node:12915645472","latitude":52.2214695,"longitude":0.0865204,"name":"Appleton Way near Milne Avenue","properties":{"access":"unknown","bicycle_pa":"stands","capacity":6,"covered":"no","fee":"","operator":"","nameSource":"junction"},"sourceId":"osm"},{"id":"osm:node:13421693526","latitude":52.2244028,"longitude":0.0855954,"name":"Ridgeway near Milne Avenue","properties":{"access":"unknown","bicycle_pa":"stands","capacity":6,"covered":"no","fee":"","operator":"","nameSource":"junction"},"sourceId":"osm"},{"id":"osm:node:13421784875","latitude":52.2207377,"longitude":0.0854169,"name":"Appleton Way cycle parking","properties":{"access":"unknown","bicycle_pa":"stands","capacity":10,"covered":"","fee":"no","operator":"","nameSource":"street"},"sourceId":"osm"},{"id":"osm:node:1676349103","latitude":52.2281622,"longitude":0.0858016,"name":"Orchard Drive by Girton College (University of Cambridge)","properties":{"access":"private","bicycle_pa":"","capacity":20,"covered":"","fee":"","operator":"Girton College (University of Cambridge)","nameSource":"landmark"},"sourceId":"osm"},{"id":"osm:node:1676349175","latitude":52.2284051,"longitude":0.0838652,"name":"Tower Drive cycle parking","properties":{"access":"private","bicycle_pa":"","capacity":4,"covered":"","fee":"","operator":"Girton College (University of Cambridge)","nameSource":"street"},"sourceId":"osm"},{"id":"osm:node:1676349516","latitude":52.2289517,"longitude":0.0838356,"name":"Orchard Drive cycle parking","properties":{"access":"staff","bicycle_pa":"high_density","capacity":10,"covered":"yes","fee":"","operator":"Girton College (University of Cambridge)","nameSource":"street"},"sourceId":"osm"},{"id":"osm:node:2468978372","latitude":52.2351488,"longitude":0.0801612,"name":"St Vincents Close cycle parking","properties":{"access":"unknown","bicycle_pa":"stands","capacity":4,"covered":"","fee":"","operator":"","nameSource":"street"},"sourceId":"osm"},{"id":"osm:node:3285772603","latitude":52.2211187,"longitude":0.0489299,"name":"Cambridge Road cycle parking","properties":{"access":"unknown","bicycle_pa":"","capacity":12,"covered":"","fee":"","operator":"","nameSource":"street"},"sourceId":"osm"},{"id":"osm:node:3690604968","latitude":52.254782,"longitude":0.0192603,"name":"Pick Up Set Down by Greggs","properties":{"access":"unknown","bicycle_pa":"stands","capacity":15,"covered":"yes","fee":"","operator":"","nameSource":"landmark"},"sourceId":"osm"},{"id":"osm:node:370956094","latitude":52.2148687,"longitude":0.0843253,"name":"Eddington Avenue by Madingley Road Park & Ride","properties":{"access":"unknown","bicycle_pa":"shed","capacity":40,"covered":"yes","fee":"","operator":"","nameSource":"landmark"},"sourceId":"osm"},{"id":"osm:node:3931450327","latitude":52.2175845,"longitude":0.0127462,"name":"St Neots Road cycle parking","properties":{"access":"unknown","bicycle_pa":"stands","capacity":4,"covered":"no","fee":"","operator":"","nameSource":"street"},"sourceId":"osm"},{"id":"osm:node:3931450342","latitude":52.2188055,"longitude":0.00084,"name":"St Neots Road cycle parking","properties":{"access":"unknown","bicycle_pa":"stands","capacity":4,"covered":"no","fee":"","operator":"","nameSource":"street"},"sourceId":"osm"},{"id":"osm:node:3931450426","latitude":52.2166233,"longitude":0.0225605,"name":"St Neots Road cycle parking","properties":{"access":"unknown","bicycle_pa":"stands","capacity":4,"covered":"no","fee":"","operator":"","nameSource":"street"},"sourceId":"osm"},{"id":"osm:node:4459272823","latitude":52.2550334,"longitude":0.0606931,"name":"Dry Drayton Road by Oakington Garden Centre","properties":{"access":"customers","bicycle_pa":"","capacity":8,"covered":"","fee":"","operator":"","nameSource":"landmark"},"sourceId":"osm"},{"id":"osm:node:4459311295","latitude":52.2332423,"longitude":0.0861258,"name":"Girton Road near Weavers Field","properties":{"access":"unknown","bicycle_pa":"wall_loops","capacity":3,"covered":"no","fee":"","operator":"","nameSource":"junction"},"sourceId":"osm"},{"id":"osm:node:4811617537","latitude":52.2261364,"longitude":0.0872309,"name":"Girton Road near Huntingdon Road","properties":{"access":"unknown","bicycle_pa":"stands","capacity":10,"covered":"no","fee":"","operator":"","nameSource":"junction"},"sourceId":"osm"},{"id":"osm:node:4921819724","latitude":52.2177939,"longitude":0.0865504,"name":"Burkitt Lane near Wileman Way","properties":{"access":"unknown","bicycle_pa":"stands","capacity":8,"covered":"no","fee":"","operator":"","nameSource":"junction"},"sourceId":"osm"},{"id":"osm:node:4921819725","latitude":52.2177601,"longitude":0.0867215,"name":"Burkitt Lane near Wileman Way","properties":{"access":"unknown","bicycle_pa":"stands","capacity":10,"covered":"no","fee":"","operator":"","nameSource":"junction"},"sourceId":"osm"},{"id":"osm:node:4921819745","latitude":52.2178986,"longitude":0.0849971,"name":"Wileman Way near Turing Way","properties":{"access":"unknown","bicycle_pa":"stands","capacity":8,"covered":"no","fee":"","operator":"","nameSource":"junction"},"sourceId":"osm"},{"id":"osm:node:4921819749","latitude":52.2179581,"longitude":0.0851976,"name":"Wileman Way near Turing Way","properties":{"access":"unknown","bicycle_pa":"stands","capacity":8,"covered":"no","fee":"","operator":"","nameSource":"junction"},"sourceId":"osm"},{"id":"osm:node:4921819759","latitude":52.2178885,"longitude":0.086954,"name":"Burkitt Lane near Wileman Way","properties":{"access":"unknown","bicycle_pa":"","capacity":8,"covered":"","fee":"","operator":"","nameSource":"junction"},"sourceId":"osm"},{"id":"osm:node:4921819781","latitude":52.2179637,"longitude":0.0869079,"name":"Burkitt Lane near Wileman Way","properties":{"access":"unknown","bicycle_pa":"stands","capacity":8,"covered":"no","fee":"","operator":"","nameSource":"junction"},"sourceId":"osm"},{"id":"osm:node:4921819790","latitude":52.2180698,"longitude":0.0860398,"name":"Wileman Way near Burkitt Lane","properties":{"access":"unknown","bicycle_pa":"stands","capacity":14,"covered":"no","fee":"","operator":"","nameSource":"junction"},"sourceId":"osm"},{"id":"osm:node:4921819913","latitude":52.21858,"longitude":0.0877396,"name":"Eddington Place near Community Square","properties":{"access":"unknown","bicycle_pa":"stands","capacity":12,"covered":"no","fee":"","operator":"","nameSource":"junction"},"sourceId":"osm"},{"id":"osm:node:4921820093","latitude":52.2189338,"longitude":0.0862577,"name":"Ridgeway Corner near Ridgeway","properties":{"access":"unknown","bicycle_pa":"stands","capacity":12,"covered":"no","fee":"","operator":"","nameSource":"junction"},"sourceId":"osm"},{"id":"osm:node:4921820126","latitude":52.2189687,"longitude":0.085379,"name":"Pheasant Drive near Ridgeway Corner","properties":{"access":"unknown","bicycle_pa":"","capacity":6,"covered":"","fee":"","operator":"","nameSource":"junction"},"sourceId":"osm"},{"id":"osm:node:4921820148","latitude":52.2190303,"longitude":0.084543,"name":"Turing Way near Pheasant Drive","properties":{"access":"private","bicycle_pa":"","capacity":0,"covered":"","fee":"","operator":"University of Cambridge","nameSource":"junction"},"sourceId":"osm"},{"id":"osm:node:4921820168","latitude":52.2190989,"longitude":0.0855864,"name":"Pheasant Drive near Ridgeway Corner","properties":{"access":"private","bicycle_pa":"","capacity":80,"covered":"","fee":"","operator":"University of Cambridge","nameSource":"junction"},"sourceId":"osm"},{"id":"osm:node:4921820176","latitude":52.2191281,"longitude":0.0857706,"name":"Pheasant Drive near Ridgeway Corner","properties":{"access":"unknown","bicycle_pa":"","capacity":6,"covered":"","fee":"","operator":"","nameSource":"junction"},"sourceId":"osm"},{"id":"osm:node:4921820199","latitude":52.2191715,"longitude":0.0845456,"name":"Turing Way near Pheasant Drive","properties":{"access":"unknown","bicycle_pa":"","capacity":6,"covered":"","fee":"","operator":"","nameSource":"junction"},"sourceId":"osm"},{"id":"osm:node:4921820207","latitude":52.2191912,"longitude":0.0859019,"name":"Ridgeway near Ridgeway Corner","properties":{"access":"unknown","bicycle_pa":"","capacity":4,"covered":"","fee":"","operator":"","nameSource":"junction"},"sourceId":"osm"},{"id":"osm:node:4921820219","latitude":52.2192048,"longitude":0.0859434,"name":"Ridgeway near Ridgeway Corner","properties":{"access":"unknown","bicycle_pa":"stands","capacity":4,"covered":"no","fee":"","operator":"","nameSource":"junction"},"sourceId":"osm"},{"id":"osm:node:4921820297","latitude":52.2193483,"longitude":0.0858414,"name":"Ridgeway near Turing Way","properties":{"access":"private","bicycle_pa":"","capacity":0,"covered":"","fee":"","operator":"University of Cambridge","nameSource":"junction"},"sourceId":"osm"},{"id":"osm:node:4921820308","latitude":52.2193988,"longitude":0.0845134,"name":"Turing Way cycle parking","properties":{"access":"private","bicycle_pa":"","capacity":0,"covered":"","fee":"","operator":"University of Cambridge","nameSource":"street"},"sourceId":"osm"},{"id":"osm:node:4921820311","latitude":52.2194033,"longitude":0.08587,"name":"Ridgeway near Turing Way","properties":{"access":"unknown","bicycle_pa":"stands","capacity":6,"covered":"no","fee":"","operator":"","nameSource":"junction"},"sourceId":"osm"},{"id":"osm:node:4921820314","latitude":52.2194484,"longitude":0.0844008,"name":"Turing Way cycle parking","properties":{"access":"unknown","bicycle_pa":"stands","capacity":4,"covered":"no","fee":"","operator":"","nameSource":"street"},"sourceId":"osm"},{"id":"osm:node:4921820318","latitude":52.2194311,"longitude":0.0844786,"name":"Turing Way cycle parking","properties":{"access":"private","bicycle_pa":"","capacity":0,"covered":"","fee":"","operator":"University of Cambridge","nameSource":"street"},"sourceId":"osm"},{"id":"osm:node:4921820343","latitude":52.2194864,"longitude":0.085111,"name":"Turing Way near Ridgeway","properties":{"access":"private","bicycle_pa":"","capacity":0,"covered":"","fee":"","operator":"University of Cambridge","nameSource":"junction"},"sourceId":"osm"},{"id":"osm:node:4921820376","latitude":52.2195235,"longitude":0.0851059,"name":"Turing Way near Ridgeway","properties":{"access":"private","bicycle_pa":"","capacity":0,"covered":"","fee":"","operator":"University of Cambridge","nameSource":"junction"},"sourceId":"osm"},{"id":"osm:node:4921820380","latitude":52.2195258,"longitude":0.0850054,"name":"Turing Way near Ridgeway","properties":{"access":"unknown","bicycle_pa":"stands","capacity":8,"covered":"no","fee":"","operator":"","nameSource":"junction"},"sourceId":"osm"},{"id":"osm:node:4921820442","latitude":52.2196164,"longitude":0.0857129,"name":"Ridgeway near Turing Way","properties":{"access":"unknown","bicycle_pa":"stands","capacity":6,"covered":"no","fee":"","operator":"","nameSource":"junction"},"sourceId":"osm"},{"id":"osm:node:4921820449","latitude":52.2196245,"longitude":0.0852927,"name":"Turing Way near Ridgeway","properties":{"access":"unknown","bicycle_pa":"","capacity":6,"covered":"","fee":"","operator":"","nameSource":"junction"},"sourceId":"osm"},{"id":"osm:node:4921820460","latitude":52.2196434,"longitude":0.085446,"name":"Turing Way near Ridgeway","properties":{"access":"private","bicycle_pa":"","capacity":0,"covered":"","fee":"","operator":"University of Cambridge","nameSource":"junction"},"sourceId":"osm"},{"id":"osm:node:4921820466","latitude":52.2196482,"longitude":0.0855761,"name":"Ridgeway near Turing Way","properties":{"access":"private","bicycle_pa":"","capacity":0,"covered":"","fee":"","operator":"University of Cambridge","nameSource":"junction"},"sourceId":"osm"},{"id":"osm:node:4921820483","latitude":52.2196695,"longitude":0.0853571,"name":"Turing Way near Ridgeway","properties":{"access":"unknown","bicycle_pa":"stands","capacity":6,"covered":"no","fee":"","operator":"","nameSource":"junction"},"sourceId":"osm"},{"id":"osm:node:4921820491","latitude":52.2196813,"longitude":0.0855722,"name":"Ridgeway near Turing Way","properties":{"access":"unknown","bicycle_pa":"stands","capacity":10,"covered":"no","fee":"","operator":"","nameSource":"junction"},"sourceId":"osm"},{"id":"osm:node:5257538532","latitude":52.2187173,"longitude":0.0869311,"name":"Eddington Place near Ridgeway","properties":{"access":"unknown","bicycle_pa":"stands","capacity":18,"covered":"no","fee":"","operator":"","nameSource":"junction"},"sourceId":"osm"},{"id":"osm:node:5891200032","latitude":52.2180801,"longitude":0.0864026,"name":"Market Square near Ridgeway Corner","properties":{"access":"unknown","bicycle_pa":"stands","capacity":14,"covered":"no","fee":"","operator":"","nameSource":"junction"},"sourceId":"osm"},{"id":"osm:node:6589026119","latitude":52.2157553,"longitude":0.0541695,"name":"American Cemetery near St Neots Road","properties":{"access":"yes","bicycle_pa":"stands","capacity":8,"covered":"no","fee":"no","operator":"","nameSource":"junction"},"sourceId":"osm"},{"id":"osm:node:7395928983","latitude":52.2533021,"longitude":0.0191051,"name":"The Mall by Churchill's Fish & Chips","properties":{"access":"unknown","bicycle_pa":"stands","capacity":18,"covered":"no","fee":"","operator":"","nameSource":"landmark"},"sourceId":"osm"},{"id":"osm:node:8468716182","latitude":52.2427216,"longitude":0.0814144,"name":"Dodford Lane near High Street","properties":{"access":"destination","bicycle_pa":"stands","capacity":6,"covered":"no","fee":"","operator":"","nameSource":"junction"},"sourceId":"osm"},{"id":"osm:node:8734316977","latitude":52.2187749,"longitude":0.0862358,"name":"Ridgeway Corner near Pheasant Drive","properties":{"access":"unknown","bicycle_pa":"stands","capacity":12,"covered":"no","fee":"","operator":"","nameSource":"junction"},"sourceId":"osm"},{"id":"osm:node:8734316978","latitude":52.2187949,"longitude":0.0866406,"name":"Ridgeway Corner near Eddington Place","properties":{"access":"unknown","bicycle_pa":"stands","capacity":8,"covered":"no","fee":"","operator":"","nameSource":"junction"},"sourceId":"osm"},{"id":"osm:node:8987958218","latitude":52.2524917,"longitude":0.0204861,"name":"Spine Path by Bar Hill Post Office","properties":{"access":"unknown","bicycle_pa":"stands","capacity":24,"covered":"no","fee":"","operator":"","nameSource":"landmark"},"sourceId":"osm"},{"id":"osm:node:9019633362","latitude":52.2248663,"longitude":0.0378788,"name":"Hazel Walk cycle parking","properties":{"access":"unknown","bicycle_pa":"","capacity":10,"covered":"","fee":"","operator":"","nameSource":"street"},"sourceId":"osm"},{"id":"osm:node:9661512582","latitude":52.2152534,"longitude":0.0124131,"name":"Cambridge Road near Grenadier Walk","properties":{"access":"unknown","bicycle_pa":"stands","capacity":6,"covered":"no","fee":"","operator":"","nameSource":"junction"},"sourceId":"osm"},{"id":"osm:node:9772981990","latitude":52.2190106,"longitude":0.0871456,"name":"Ryle Yard cycle parking","properties":{"access":"unknown","bicycle_pa":"stands","capacity":40,"covered":"yes","fee":"","operator":"","nameSource":"street"},"sourceId":"osm"},{"id":"osm:way:1117595825","latitude":52.214866560000004,"longitude":0.08386836,"name":"Madingley Road Park & Ride cycle parking","properties":{"access":"unknown","bicycle_pa":"lockers","capacity":0,"covered":"","fee":"","operator":"","nameSource":"landmark"},"sourceId":"osm"},{"id":"osm:way:1117595826","latitude":52.214896780000004,"longitude":0.08383728,"name":"Madingley Road Park & Ride cycle parking","properties":{"access":"unknown","bicycle_pa":"lockers","capacity":0,"covered":"","fee":"","operator":"","nameSource":"landmark"},"sourceId":"osm"},{"id":"osm:way:1215191873","latitude":52.21646599999999,"longitude":0.08651735999999999,"name":"Burkitt Lane near Turing Way","properties":{"access":"private","bicycle_pa":"","capacity":0,"covered":"","fee":"","operator":"","nameSource":"junction"},"sourceId":"osm"},{"id":"osm:way:1215191874","latitude":52.2166789,"longitude":0.08599946,"name":"Turing Way near Burkitt Lane","properties":{"access":"private","bicycle_pa":"","capacity":0,"covered":"","fee":"","operator":"","nameSource":"junction"},"sourceId":"osm"},{"id":"osm:way:1215191875","latitude":52.21689418,"longitude":0.08548017999999999,"name":"Turing Way cycle parking","properties":{"access":"private","bicycle_pa":"","capacity":0,"covered":"","fee":"","operator":"","nameSource":"street"},"sourceId":"osm"},{"id":"osm:way:1463200874","latitude":52.2208506,"longitude":0.08608839999999998,"name":"Appleton Way cycle parking","properties":{"access":"private","bicycle_pa":"shed","capacity":28,"covered":"yes","fee":"","operator":"","nameSource":"street"},"sourceId":"osm"},{"id":"osm:way:1491360025","latitude":52.22049477142857,"longitude":0.0854226,"name":"Ridgeway cycle parking","properties":{"access":"private","bicycle_pa":"shed","capacity":0,"covered":"yes","fee":"","operator":"","nameSource":"street"},"sourceId":"osm"},{"id":"osm:way:501347042","latitude":52.21794212,"longitude":0.08785997999999999,"name":"Eddington Avenue near Market Square","properties":{"access":"unknown","bicycle_pa":"stands","capacity":84,"covered":"yes","fee":"","operator":"","nameSource":"junction"},"sourceId":"osm"},{"id":"osm:way:501347050","latitude":52.21830001666667,"longitude":0.0848982,"name":"Wileman Way near Turing Way","properties":{"access":"private","bicycle_pa":"","capacity":0,"covered":"","fee":"","operator":"","nameSource":"junction"},"sourceId":"osm"},{"id":"osm:way:501347053","latitude":52.21827178333333,"longitude":0.0857246,"name":"Wileman Way cycle parking","properties":{"access":"private","bicycle_pa":"","capacity":0,"covered":"","fee":"","operator":"","nameSource":"street"},"sourceId":"osm"},{"id":"osm:way:501347070","latitude":52.21887318333333,"longitude":0.08515773333333336,"name":"Pheasant Drive near Ridgeway Corner","properties":{"access":"unknown","bicycle_pa":"","capacity":26,"covered":"","fee":"","operator":"","nameSource":"junction"},"sourceId":"osm"},{"id":"osm:way:501347075","latitude":52.21817202,"longitude":0.0859041,"name":"Wileman Way near Burkitt Lane","properties":{"access":"private","bicycle_pa":"","capacity":0,"covered":"","fee":"","operator":"","nameSource":"junction"},"sourceId":"osm"},{"id":"osm:way:501347080","latitude":52.21850248571428,"longitude":0.08626002857142856,"name":"Ridgeway Corner near Pheasant Drive","properties":{"access":"private","bicycle_pa":"","capacity":42,"covered":"","fee":"","operator":"","nameSource":"junction"},"sourceId":"osm"},{"id":"osm:way:501347091","latitude":52.21857982,"longitude":0.0860679,"name":"Pheasant Drive near Ridgeway Corner","properties":{"access":"private","bicycle_pa":"","capacity":0,"covered":"","fee":"","operator":"","nameSource":"junction"},"sourceId":"osm"},{"id":"osm:way:501347096","latitude":52.21813871666666,"longitude":0.08468703333333333,"name":"Wileman Way near Turing Way","properties":{"access":"private","bicycle_pa":"","capacity":0,"covered":"","fee":"","operator":"","nameSource":"junction"},"sourceId":"osm"},{"id":"osm:way:582673779","latitude":52.22103380000001,"longitude":0.08189202,"name":"Loverose Way cycle parking","properties":{"access":"unknown","bicycle_pa":"stands","capacity":14,"covered":"no","fee":"","operator":"","nameSource":"street"},"sourceId":"osm"},{"id":"osm:way:582673780","latitude":52.21860216,"longitude":0.08264776,"name":"Pheasant Drive near Loverose Way","properties":{"access":"unknown","bicycle_pa":"stands","capacity":44,"covered":"no","fee":"","operator":"","nameSource":"junction"},"sourceId":"osm"},{"id":"osm:way:988371643","latitude":52.25187492,"longitude":0.01861022,"name":"Bar Hill Church cycle parking","properties":{"access":"yes","bicycle_pa":"stands","capacity":6,"covered":"no","fee":"","operator":"","nameSource":"landmark"},"sourceId":"osm"}],"schemaVersion":2}
