{"key":"12/2048/1349","points":[{"id":"osm:node:10860761300","latitude":52.1999679,"longitude":0.0675568,"name":"Grantchester Road cycle parking","properties":{"access":"unknown","bicycle_pa":"stands","capacity":8,"covered":"no","fee":"","operator":"","nameSource":"street"},"sourceId":"osm"},{"id":"osm:node:11132306664","latitude":52.2085038,"longitude":0.0720263,"name":"The Footpath cycle parking","properties":{"access":"unknown","bicycle_pa":"stands","capacity":6,"covered":"no","fee":"","operator":"","nameSource":"street"},"sourceId":"osm"},{"id":"osm:node:11196537207","latitude":52.1884091,"longitude":0.0247159,"name":"Harbour Avenue near Barton Road","properties":{"access":"customers","bicycle_pa":"","capacity":10,"covered":"no","fee":"","operator":"","nameSource":"junction"},"sourceId":"osm"},{"id":"osm:node:11333006806","latitude":52.1879688,"longitude":0.0195962,"name":"Hines Lane by Comberton Village Hall","properties":{"access":"unknown","bicycle_pa":"","capacity":5,"covered":"","fee":"","operator":"","nameSource":"landmark"},"sourceId":"osm"},{"id":"osm:node:11754028987","latitude":52.1820506,"longitude":0.0574489,"name":"Church Lane near School Lane","properties":{"access":"unknown","bicycle_pa":"stands","capacity":6,"covered":"","fee":"","operator":"","nameSource":"junction"},"sourceId":"osm"},{"id":"osm:node:11757898693","latitude":52.1822888,"longitude":0.0565899,"name":"School Lane near New Road","properties":{"access":"unknown","bicycle_pa":"","capacity":6,"covered":"","fee":"","operator":"","nameSource":"junction"},"sourceId":"osm"},{"id":"osm:node:11757898704","latitude":52.1821767,"longitude":0.0577157,"name":"School Lane near Church Lane","properties":{"access":"unknown","bicycle_pa":"","capacity":4,"covered":"","fee":"","operator":"","nameSource":"junction"},"sourceId":"osm"},{"id":"osm:node:11775611158","latitude":52.1793974,"longitude":0.0584829,"name":"Barton cycle parking","properties":{"access":"unknown","bicycle_pa":"","capacity":6,"covered":"","fee":"","operator":"","nameSource":"place"},"sourceId":"osm"},{"id":"osm:node:11775613374","latitude":52.1793891,"longitude":0.0591491,"name":"High Street cycle parking","properties":{"access":"unknown","bicycle_pa":"","capacity":6,"covered":"","fee":"","operator":"","nameSource":"street"},"sourceId":"osm"},{"id":"osm:node:1760048198","latitude":52.2096676,"longitude":0.0875111,"name":"Charles Babbage Road cycle parking","properties":{"access":"private","bicycle_pa":"stands","capacity":178,"covered":"yes","fee":"","operator":"University of Cambridge","nameSource":"street"},"sourceId":"osm"},{"id":"osm:node:2747726302","latitude":52.209152,"longitude":0.084614,"name":"Canal Path near Philippa Fawcett Drive","properties":{"access":"private","bicycle_pa":"stands","capacity":50,"covered":"yes","fee":"","operator":"University of Cambridge","nameSource":"junction"},"sourceId":"osm"},{"id":"osm:node:2747726307","latitude":52.2091257,"longitude":0.0849802,"name":"Philippa Fawcett Drive near Canal Path","properties":{"access":"private","bicycle_pa":"stands","capacity":50,"covered":"yes","fee":"","operator":"University of Cambridge","nameSource":"junction"},"sourceId":"osm"},{"id":"osm:node:281853124","latitude":52.1999048,"longitude":0.067537,"name":"Grantchester Road cycle parking","properties":{"access":"unknown","bicycle_pa":"stands","capacity":8,"covered":"no","fee":"","operator":"","nameSource":"street"},"sourceId":"osm"},{"id":"osm:node:3431339975","latitude":52.208971,"longitude":0.0797723,"name":"Ada Lovelace Road near Canal Path","properties":{"access":"private","bicycle_pa":"","capacity":0,"covered":"","fee":"","operator":"","nameSource":"junction"},"sourceId":"osm"},{"id":"osm:node:3443323570","latitude":52.1879832,"longitude":0.0370276,"name":"Barton Road cycle parking","properties":{"access":"destination","bicycle_pa":"stands","capacity":10,"covered":"no","fee":"","operator":"","nameSource":"street"},"sourceId":"osm"},{"id":"osm:node:3456422792","latitude":52.1808274,"longitude":0.0222335,"name":"Church Farm by St Mary's","properties":{"access":"destination","bicycle_pa":"stands","capacity":4,"covered":"","fee":"","operator":"","nameSource":"landmark"},"sourceId":"osm"},{"id":"osm:node:4290628498","latitude":52.2095104,"longitude":0.0857069,"name":"Philippa Fawcett Drive near Charles Babbage Road","properties":{"access":"private","bicycle_pa":"stands","capacity":66,"covered":"yes","fee":"","operator":"University of Cambridge","nameSource":"junction"},"sourceId":"osm"},{"id":"osm:node:4290907506","latitude":52.2090438,"longitude":0.085486,"name":"Philippa Fawcett Drive near Canal Path","properties":{"access":"private","bicycle_pa":"stands","capacity":180,"covered":"yes","fee":"","operator":"University of Cambridge","nameSource":"junction"},"sourceId":"osm"},{"id":"osm:node:4512373696","latitude":52.2129836,"longitude":0.067183,"name":"Adaptive Services Ltd cycle parking","properties":{"access":"customers","bicycle_pa":"stands","capacity":0,"covered":"no","fee":"","operator":"","nameSource":"landmark"},"sourceId":"osm"},{"id":"osm:node:5212677756","latitude":52.1817001,"longitude":0.0596456,"name":"Allen's Close near Mailes Close","properties":{"access":"customers","bicycle_pa":"stands","capacity":8,"covered":"no","fee":"no","operator":"","nameSource":"junction"},"sourceId":"osm"},{"id":"osm:node:8447551060","latitude":52.210334,"longitude":0.0620461,"name":"High Street by Coton Village Hall","properties":{"access":"unknown","bicycle_pa":"stands","capacity":6,"covered":"no","fee":"","operator":"","nameSource":"landmark"},"sourceId":"osm"},{"id":"osm:node:8662618523","latitude":52.1824562,"longitude":0.0558836,"name":"New Road near School Lane","properties":{"access":"unknown","bicycle_pa":"stands","capacity":6,"covered":"no","fee":"","operator":"","nameSource":"junction"},"sourceId":"osm"},{"id":"osm:node:8755961464","latitude":52.2101566,"longitude":0.0590693,"name":"Whitwell Way near Church End","properties":{"access":"destination","bicycle_pa":"stands","capacity":20,"covered":"yes","fee":"","operator":"","nameSource":"junction"},"sourceId":"osm"},{"id":"osm:node:8914127672","latitude":52.1886582,"longitude":0.0200012,"name":"Hines Lane cycle parking","properties":{"access":"unknown","bicycle_pa":"","capacity":2,"covered":"","fee":"","operator":"","nameSource":"street"},"sourceId":"osm"},{"id":"osm:node:9329654587","latitude":52.2106319,"longitude":0.0787264,"name":"M11 cycle parking","properties":{"access":"private","bicycle_pa":"stands","capacity":10,"covered":"no","fee":"","operator":"","nameSource":"street"},"sourceId":"osm"},{"id":"osm:node:9741268369","latitude":52.185956,"longitude":0.0109287,"name":"Morris Close near Burdeley's Way","properties":{"access":"unknown","bicycle_pa":"","capacity":12,"covered":"yes","fee":"","operator":"","nameSource":"junction"},"sourceId":"osm"},{"id":"osm:node:9775016496","latitude":52.1862084,"longitude":0.0113947,"name":"Morris Close cycle parking","properties":{"access":"unknown","bicycle_pa":"","capacity":2,"covered":"yes","fee":"","operator":"","nameSource":"street"},"sourceId":"osm"},{"id":"osm:way:1056582515","latitude":52.208551979999996,"longitude":0.08553812000000001,"name":"Philippa Fawcett Drive near Canal Path","properties":{"access":"private","bicycle_pa":"stands","capacity":50,"covered":"yes","fee":"","operator":"University of Cambridge","nameSource":"junction"},"sourceId":"osm"},{"id":"osm:way:1056582516","latitude":52.20849838,"longitude":0.0861173,"name":"Philippa Fawcett Drive cycle parking","properties":{"access":"private","bicycle_pa":"stands","capacity":50,"covered":"yes","fee":"","operator":"University of Cambridge","nameSource":"street"},"sourceId":"osm"},{"id":"osm:way:1385839205","latitude":52.209929699999996,"longitude":0.08300643999999999,"name":"Charles Babbage Road cycle parking","properties":{"access":"private","bicycle_pa":"stands","capacity":50,"covered":"yes","fee":"","operator":"University of Cambridge","nameSource":"street"},"sourceId":"osm"},{"id":"osm:way:1385839206","latitude":52.20982126,"longitude":0.08446363999999999,"name":"Charles Babbage Road cycle parking","properties":{"access":"private","bicycle_pa":"stands","capacity":50,"covered":"yes","fee":"","operator":"University of Cambridge","nameSource":"street"},"sourceId":"osm"},{"id":"osm:way:1431212455","latitude":52.18916964,"longitude":0.023475859999999998,"name":"Hillfield Road by Habitat Garden","properties":{"access":"private","bicycle_pa":"","capacity":28,"covered":"yes","fee":"","operator":"","nameSource":"landmark"},"sourceId":"osm"},{"id":"osm:way:164348305","latitude":52.211904871428565,"longitude":0.07929118571428571,"name":"High Cross cycle parking","properties":{"access":"private","bicycle_pa":"stands","capacity":100,"covered":"yes","fee":"","operator":"British Antarctic Survey","nameSource":"street"},"sourceId":"osm"},{"id":"osm:way:164365657","latitude":52.213546666666666,"longitude":0.08099216666666666,"name":"High Cross cycle parking","properties":{"access":"private","bicycle_pa":"stands","capacity":60,"covered":"yes","fee":"","operator":"British Antarctic Survey","nameSource":"street"},"sourceId":"osm"},{"id":"osm:way:474797816","latitude":52.21282643333333,"longitude":0.08086834999999999,"name":"High Cross cycle parking","properties":{"access":"private","bicycle_pa":"stands","capacity":0,"covered":"yes","fee":"","operator":"British Antarctic Survey","nameSource":"street"},"sourceId":"osm"}],"schemaVersion":2}
