{"key":"12/2048/1351","points":[{"id":"osm:node:10958115327","latitude":52.0932445,"longitude":0.0702634,"name":"Westfield Road near The Butts","properties":{"access":"yes","bicycle_pa":"stands","capacity":6,"covered":"no","fee":"no","operator":"","nameSource":"junction"},"sourceId":"osm"},{"id":"osm:node:13737491482","latitude":52.0991081,"longitude":0.0373352,"name":"Cambridge Road by Hot Numbers Roastery","properties":{"access":"unknown","bicycle_pa":"stands","capacity":0,"covered":"no","fee":"no","operator":"","nameSource":"landmark"},"sourceId":"osm"},{"id":"osm:node:528064785","latitude":52.0931826,"longitude":0.0535507,"name":"Boardwalk cycle parking","properties":{"access":"unknown","bicycle_pa":"","capacity":12,"covered":"no","fee":"","operator":"RSPB","nameSource":"street"},"sourceId":"osm"},{"id":"osm:node:8889100493","latitude":52.0853734,"longitude":0.0185562,"name":"Brooksbank near High Street","properties":{"access":"unknown","bicycle_pa":"stands","capacity":8,"covered":"yes","fee":"","operator":"","nameSource":"junction"},"sourceId":"osm"},{"id":"osm:way:332060443","latitude":52.09058118,"longitude":0.00876152,"name":"Meldreth Station Link by Spice Hut","properties":{"access":"unknown","bicycle_pa":"stands","capacity":8,"covered":"no","fee":"","operator":"","nameSource":"landmark"},"sourceId":"osm"}],"schemaVersion":2}
