{"key":"12/2048/1359","points":[{"id":"osm:node:10607575092","latitude":51.6333691,"longitude":0.0536548,"name":"Green Walk by Valley Wines","properties":{"access":"unknown","bicycle_pa":"shed","capacity":0,"covered":"","fee":"","operator":"","nameSource":"landmark"},"sourceId":"osm"},{"id":"osm:node:1216071905","latitude":51.6417622,"longitude":0.0546257,"name":"Gillingham Path by Brick Lane Bagel Co.","properties":{"access":"unknown","bicycle_pa":"","capacity":22,"covered":"yes","fee":"","operator":"","nameSource":"landmark"},"sourceId":"osm"},{"id":"osm:node:12987650024","latitude":51.6343394,"longitude":0.0173706,"name":"Ranger's Road near Warren Pond Road","properties":{"access":"unknown","bicycle_pa":"stands","capacity":8,"covered":"no","fee":"no","operator":"","nameSource":"junction"},"sourceId":"osm"},{"id":"osm:node:13359434072","latitude":51.6658654,"longitude":0.0400301,"name":"Manor Road near Wake Road","properties":{"access":"unknown","bicycle_pa":"stands","capacity":0,"covered":"no","fee":"","operator":"","nameSource":"junction"},"sourceId":"osm"},{"id":"osm:node:13375973534","latitude":51.6372588,"longitude":0.0283737,"name":"Main footpath cycle parking","properties":{"access":"unknown","bicycle_pa":"stands","capacity":6,"covered":"no","fee":"","operator":"","nameSource":"street"},"sourceId":"osm"},{"id":"osm:node:1463052585","latitude":51.6313996,"longitude":0.0028848,"name":"Station Road near Richmond Road","properties":{"access":"unknown","bicycle_pa":"stands","capacity":16,"covered":"no","fee":"","operator":"","nameSource":"junction"},"sourceId":"osm"},{"id":"osm:node:3666562724","latitude":51.6240054,"longitude":0.0325296,"name":"Knighton Lane cycle parking","properties":{"access":"unknown","bicycle_pa":"stands","capacity":4,"covered":"yes","fee":"","operator":"","nameSource":"street"},"sourceId":"osm"},{"id":"osm:node:8354845921","latitude":51.631423,"longitude":0.0038661,"name":"Station Road near Queen's Grove Road","properties":{"access":"unknown","bicycle_pa":"stands","capacity":4,"covered":"no","fee":"","operator":"","nameSource":"junction"},"sourceId":"osm"},{"id":"osm:node:8354845922","latitude":51.6321865,"longitude":0.0059888,"name":"Station Road near Garfield Road","properties":{"access":"unknown","bicycle_pa":"stands","capacity":8,"covered":"no","fee":"","operator":"","nameSource":"junction"},"sourceId":"osm"},{"id":"osm:node:8354845923","latitude":51.6324086,"longitude":0.0070703,"name":"Connaught Road near Station Road","properties":{"access":"unknown","bicycle_pa":"stands","capacity":4,"covered":"no","fee":"","operator":"","nameSource":"junction"},"sourceId":"osm"},{"id":"osm:node:8354845924","latitude":51.6330952,"longitude":0.00834,"name":"Station Road near Springfield Road","properties":{"access":"unknown","bicycle_pa":"stands","capacity":4,"covered":"no","fee":"","operator":"","nameSource":"junction"},"sourceId":"osm"},{"id":"osm:node:8354845925","latitude":51.6189133,"longitude":0.0055461,"name":"Hatch Lane near Chadwick Avenue","properties":{"access":"unknown","bicycle_pa":"stands","capacity":4,"covered":"no","fee":"","operator":"","nameSource":"junction"},"sourceId":"osm"},{"id":"osm:node:8354845926","latitude":51.631108,"longitude":0.0027558,"name":"Station Road near Richmond Road","properties":{"access":"unknown","bicycle_pa":"stands","capacity":6,"covered":"no","fee":"","operator":"","nameSource":"junction"},"sourceId":"osm"},{"id":"osm:node:8354845927","latitude":51.632026,"longitude":0.0054325,"name":"Stanley Road near Station Road","properties":{"access":"unknown","bicycle_pa":"stands","capacity":2,"covered":"no","fee":"","operator":"","nameSource":"junction"},"sourceId":"osm"},{"id":"osm:node:8354845928","latitude":51.6322775,"longitude":0.0066714,"name":"Cart Lane near Station Road","properties":{"access":"unknown","bicycle_pa":"stands","capacity":2,"covered":"no","fee":"","operator":"","nameSource":"junction"},"sourceId":"osm"},{"id":"osm:node:8354845929","latitude":51.6330077,"longitude":0.0084814,"name":"Station Road near Springfield Road","properties":{"access":"unknown","bicycle_pa":"stands","capacity":2,"covered":"no","fee":"","operator":"","nameSource":"junction"},"sourceId":"osm"},{"id":"osm:node:8354845930","latitude":51.6189037,"longitude":0.0057629,"name":"Chadwick Avenue near Hatch Lane","properties":{"access":"unknown","bicycle_pa":"stands","capacity":4,"covered":"no","fee":"","operator":"","nameSource":"junction"},"sourceId":"osm"},{"id":"osm:node:8354845931","latitude":51.6309156,"longitude":0.0022851,"name":"Richmond Road near Station Road","properties":{"access":"unknown","bicycle_pa":"stands","capacity":6,"covered":"no","fee":"","operator":"","nameSource":"junction"},"sourceId":"osm"},{"id":"osm:node:8354845932","latitude":51.6318433,"longitude":0.0049465,"name":"Station Road near Willow Street","properties":{"access":"unknown","bicycle_pa":"stands","capacity":4,"covered":"no","fee":"","operator":"","nameSource":"junction"},"sourceId":"osm"},{"id":"osm:node:8354845933","latitude":51.6321571,"longitude":0.0063304,"name":"Garfield Road near Station Road","properties":{"access":"unknown","bicycle_pa":"stands","capacity":2,"covered":"no","fee":"","operator":"","nameSource":"junction"},"sourceId":"osm"},{"id":"osm:node:8354845934","latitude":51.6328631,"longitude":0.0078336,"name":"Station Road near Connaught Road","properties":{"access":"unknown","bicycle_pa":"stands","capacity":4,"covered":"no","fee":"","operator":"","nameSource":"junction"},"sourceId":"osm"},{"id":"osm:node:8354845935","latitude":51.633399,"longitude":0.009151,"name":"Station Road near Springfield Road","properties":{"access":"unknown","bicycle_pa":"stands","capacity":8,"covered":"no","fee":"","operator":"","nameSource":"junction"},"sourceId":"osm"},{"id":"osm:node:8442434674","latitude":51.6246747,"longitude":0.0062539,"name":"Simmons Lane by Pimp Hall Park","properties":{"access":"unknown","bicycle_pa":"stands","capacity":4,"covered":"no","fee":"","operator":"","nameSource":"landmark"},"sourceId":"osm"},{"id":"osm:node:8602491686","latitude":51.6332372,"longitude":0.0100278,"name":"Chingford Bus Station near Station Road","properties":{"access":"unknown","bicycle_pa":"","capacity":8,"covered":"","fee":"","operator":"","nameSource":"junction"},"sourceId":"osm"},{"id":"osm:node:8602491687","latitude":51.6325148,"longitude":0.007042,"name":"Connaught Road near Station Road","properties":{"access":"unknown","bicycle_pa":"","capacity":10,"covered":"","fee":"","operator":"","nameSource":"junction"},"sourceId":"osm"},{"id":"osm:node:8602491688","latitude":51.6301315,"longitude":0.0010614,"name":"King's Road near Pretoria Road","properties":{"access":"unknown","bicycle_pa":"","capacity":4,"covered":"","fee":"","operator":"","nameSource":"junction"},"sourceId":"osm"},{"id":"osm:node:8602491690","latitude":51.6284605,"longitude":0.0030168,"name":"King's Road near Balgonie Road","properties":{"access":"unknown","bicycle_pa":"","capacity":0,"covered":"","fee":"","operator":"","nameSource":"junction"},"sourceId":"osm"},{"id":"osm:node:8602491691","latitude":51.6285206,"longitude":0.0029022,"name":"King's Road near Balgonie Road","properties":{"access":"unknown","bicycle_pa":"","capacity":0,"covered":"","fee":"","operator":"","nameSource":"junction"},"sourceId":"osm"},{"id":"osm:node:8661568913","latitude":51.6329453,"longitude":0.0085353,"name":"Station Road near Springfield Road","properties":{"access":"unknown","bicycle_pa":"stands","capacity":2,"covered":"no","fee":"","operator":"","nameSource":"junction"},"sourceId":"osm"},{"id":"osm:node:8661700283","latitude":51.6336065,"longitude":0.0093795,"name":"Connaught Avenue near Station Road","properties":{"access":"unknown","bicycle_pa":"stands","capacity":4,"covered":"no","fee":"","operator":"","nameSource":"junction"},"sourceId":"osm"},{"id":"osm:node:8755171776","latitude":51.631759,"longitude":0.0046467,"name":"Queen's Grove Road near Station Road","properties":{"access":"unknown","bicycle_pa":"stands","capacity":6,"covered":"no","fee":"","operator":"","nameSource":"junction"},"sourceId":"osm"},{"id":"osm:node:8755212603","latitude":51.6306687,"longitude":0.0016856,"name":"Carbis Close near Station Road","properties":{"access":"unknown","bicycle_pa":"stands","capacity":16,"covered":"","fee":"","operator":"","nameSource":"junction"},"sourceId":"osm"},{"id":"osm:node:9007809507","latitude":51.6188388,"longitude":0.0066738,"name":"Hatch Lane near Connington Crescent","properties":{"access":"unknown","bicycle_pa":"stands","capacity":8,"covered":"no","fee":"","operator":"","nameSource":"junction"},"sourceId":"osm"},{"id":"osm:node:9042485020","latitude":51.6185876,"longitude":0.0035878,"name":"Hatch Lane near New Road","properties":{"access":"unknown","bicycle_pa":"stands","capacity":4,"covered":"no","fee":"","operator":"","nameSource":"junction"},"sourceId":"osm"},{"id":"osm:node:9360483592","latitude":51.6344768,"longitude":0.0183397,"name":"Ranger's Road near Warren Pond Road","properties":{"access":"unknown","bicycle_pa":"stands","capacity":8,"covered":"","fee":"","operator":"","nameSource":"junction"},"sourceId":"osm"},{"id":"osm:node:9360873204","latitude":51.618995,"longitude":0.0072401,"name":"Connington Crescent near Hatch Lane","properties":{"access":"unknown","bicycle_pa":"stands","capacity":4,"covered":"","fee":"","operator":"","nameSource":"junction"},"sourceId":"osm"},{"id":"osm:node:9777683931","latitude":51.6353026,"longitude":0.0127151,"name":"Bury Road by Go Further Cycling","properties":{"access":"unknown","bicycle_pa":"stands","capacity":4,"covered":"no","fee":"","operator":"","nameSource":"landmark"},"sourceId":"osm"},{"id":"osm:node:9777683932","latitude":51.6268449,"longitude":0.0216681,"name":"Brook Road cycle parking","properties":{"access":"unknown","bicycle_pa":"stands","capacity":4,"covered":"no","fee":"","operator":"","nameSource":"street"},"sourceId":"osm"},{"id":"osm:node:9777683935","latitude":51.6348326,"longitude":0.0113368,"name":"Forest Approach near Forest View","properties":{"access":"unknown","bicycle_pa":"stands","capacity":4,"covered":"no","fee":"","operator":"","nameSource":"junction"},"sourceId":"osm"},{"id":"osm:node:9777683936","latitude":51.6189884,"longitude":0.0090434,"name":"A1009 near Chingford Lane","properties":{"access":"unknown","bicycle_pa":"stands","capacity":4,"covered":"no","fee":"","operator":"","nameSource":"junction"},"sourceId":"osm"},{"id":"osm:node:9777683937","latitude":51.6351236,"longitude":0.024542,"name":"Ranger's Road cycle parking","properties":{"access":"unknown","bicycle_pa":"stands","capacity":4,"covered":"no","fee":"","operator":"","nameSource":"street"},"sourceId":"osm"},{"id":"osm:node:9777683938","latitude":51.6343293,"longitude":0.0187141,"name":"Ranger's Road near Warren Pond Road","properties":{"access":"unknown","bicycle_pa":"stands","capacity":4,"covered":"no","fee":"","operator":"","nameSource":"junction"},"sourceId":"osm"},{"id":"osm:way:1174585970","latitude":51.633290640000006,"longitude":0.01001772,"name":"Chingford Bus Station near Station Road","properties":{"access":"unknown","bicycle_pa":"shed","capacity":26,"covered":"","fee":"yes","operator":"","nameSource":"junction"},"sourceId":"osm"},{"id":"osm:way:724336868","latitude":51.643505222222224,"longitude":0.05311021111111111,"name":"Old Station Road by Sainsbury's","properties":{"access":"unknown","bicycle_pa":"","capacity":0,"covered":"","fee":"","operator":"","nameSource":"landmark"},"sourceId":"osm"}],"schemaVersion":2}
