{"key":"12/2048/1360","points":[{"id":"osm:node:10220288055","latitude":51.586317,"longitude":0.0082728,"name":"College Place cycle parking","properties":{"access":"unknown","bicycle_pa":"stands","capacity":24,"covered":"","fee":"","operator":"","nameSource":"street"},"sourceId":"osm"},{"id":"osm:node:10221663184","latitude":51.5854977,"longitude":0.0095975,"name":"Oakhurst Gardens near The Forest","properties":{"access":"unknown","bicycle_pa":"wall_loops","capacity":10,"covered":"yes","fee":"","operator":"","nameSource":"junction"},"sourceId":"osm"},{"id":"osm:node:10228454147","latitude":51.6034125,"longitude":0.0021841,"name":"Forster Close near Hale End Road","properties":{"access":"unknown","bicycle_pa":"stands","capacity":4,"covered":"no","fee":"","operator":"","nameSource":"junction"},"sourceId":"osm"},{"id":"osm:node:10228454148","latitude":51.6033627,"longitude":0.0021507,"name":"Forster Close near Hale End Road","properties":{"access":"unknown","bicycle_pa":"stands","capacity":4,"covered":"no","fee":"","operator":"","nameSource":"junction"},"sourceId":"osm"},{"id":"osm:node:10280269990","latitude":51.5739382,"longitude":0.0663076,"name":"Cranbrook Road near Blenheim Avenue","properties":{"access":"unknown","bicycle_pa":"stands","capacity":8,"covered":"","fee":"","operator":"","nameSource":"junction"},"sourceId":"osm"},{"id":"osm:node:10280269991","latitude":51.5772329,"longitude":0.0655833,"name":"Woodford Avenue near Gants Hill Roundabout","properties":{"access":"unknown","bicycle_pa":"stands","capacity":4,"covered":"","fee":"no","operator":"","nameSource":"junction"},"sourceId":"osm"},{"id":"osm:node:10280270645","latitude":51.5761454,"longitude":0.0660612,"name":"Cranbrook Road near Clarence Avenue","properties":{"access":"unknown","bicycle_pa":"stands","capacity":18,"covered":"","fee":"no","operator":"","nameSource":"junction"},"sourceId":"osm"},{"id":"osm:node:10280270646","latitude":51.5763921,"longitude":0.0677248,"name":"Eastern Avenue near Perth Road","properties":{"access":"unknown","bicycle_pa":"stands","capacity":14,"covered":"","fee":"","operator":"","nameSource":"junction"},"sourceId":"osm"},{"id":"osm:node:10280274711","latitude":51.5763203,"longitude":0.0669383,"name":"Frinton Mews near Eastern Avenue","properties":{"access":"unknown","bicycle_pa":"stands","capacity":10,"covered":"","fee":"","operator":"","nameSource":"junction"},"sourceId":"osm"},{"id":"osm:node:10280274712","latitude":51.5765343,"longitude":0.0670705,"name":"Eastern Avenue near Gants Hill Roundabout","properties":{"access":"unknown","bicycle_pa":"stands","capacity":14,"covered":"","fee":"","operator":"","nameSource":"junction"},"sourceId":"osm"},{"id":"osm:node:10281975255","latitude":51.5813069,"longitude":0.0215996,"name":"High Street by Beaute Parfait","properties":{"access":"unknown","bicycle_pa":"post_hoop","capacity":4,"covered":"no","fee":"","operator":"","nameSource":"landmark"},"sourceId":"osm"},{"id":"osm:node:10281997732","latitude":51.5813911,"longitude":0.021469,"name":"High Street by Beaute Parfait","properties":{"access":"unknown","bicycle_pa":"post_hoop","capacity":2,"covered":"no","fee":"","operator":"","nameSource":"landmark"},"sourceId":"osm"},{"id":"osm:node:10281997733","latitude":51.5815791,"longitude":0.0211589,"name":"High Street near Station Approach","properties":{"access":"unknown","bicycle_pa":"post_hoop","capacity":4,"covered":"no","fee":"","operator":"","nameSource":"junction"},"sourceId":"osm"},{"id":"osm:node:10281997734","latitude":51.579816,"longitude":0.0238616,"name":"High Street near Hermon Hill","properties":{"access":"unknown","bicycle_pa":"stands","capacity":4,"covered":"","fee":"","operator":"","nameSource":"junction"},"sourceId":"osm"},{"id":"osm:node:10281997808","latitude":51.56974,"longitude":0.0154176,"name":"Browning Road near Beacontree Road","properties":{"access":"unknown","bicycle_pa":"post_hoop","capacity":6,"covered":"","fee":"","operator":"","nameSource":"junction"},"sourceId":"osm"},{"id":"osm:node:10281997818","latitude":51.5814973,"longitude":0.0213049,"name":"High Street near Station Approach","properties":{"access":"unknown","bicycle_pa":"post_hoop","capacity":2,"covered":"no","fee":"","operator":"","nameSource":"junction"},"sourceId":"osm"},{"id":"osm:node:10281998443","latitude":51.5688236,"longitude":0.0093297,"name":"Kirkdale Road near Church Lane","properties":{"access":"unknown","bicycle_pa":"stands","capacity":2,"covered":"no","fee":"","operator":"","nameSource":"junction"},"sourceId":"osm"},{"id":"osm:node:10281998957","latitude":51.5756718,"longitude":0.0252406,"name":"Spratt Hall Road near Woodbine Place","properties":{"access":"unknown","bicycle_pa":"stands","capacity":10,"covered":"no","fee":"","operator":"","nameSource":"junction"},"sourceId":"osm"},{"id":"osm:node:10281998985","latitude":51.5679109,"longitude":0.0107682,"name":"High Road Leytonstone near Harvey Road","properties":{"access":"unknown","bicycle_pa":"","capacity":4,"covered":"no","fee":"","operator":"","nameSource":"junction"},"sourceId":"osm"},{"id":"osm:node:10281999008","latitude":51.5674933,"longitude":0.0006498,"name":"Cavendish Drive near Scarborough Road","properties":{"access":"private","bicycle_pa":"shed","capacity":6,"covered":"yes","fee":"","operator":"Cyclehoop Rentals","nameSource":"junction"},"sourceId":"osm"},{"id":"osm:node:10281999087","latitude":51.5766481,"longitude":0.0293741,"name":"Gardner Close cycle parking","properties":{"access":"private","bicycle_pa":"shed","capacity":6,"covered":"yes","fee":"","operator":"Cyclehoop Rentals","nameSource":"street"},"sourceId":"osm"},{"id":"osm:node:10282005809","latitude":51.5683405,"longitude":0.0169295,"name":"Beacontree Road near Hartley Road","properties":{"access":"private","bicycle_pa":"shed","capacity":6,"covered":"yes","fee":"","operator":"Cyclehoop Rentals","nameSource":"junction"},"sourceId":"osm"},{"id":"osm:node:10282005810","latitude":51.5695998,"longitude":0.0161722,"name":"Beacontree Road near Browning Road","properties":{"access":"private","bicycle_pa":"shed","capacity":6,"covered":"yes","fee":"","operator":"Cyclehoop Rentals","nameSource":"junction"},"sourceId":"osm"},{"id":"osm:node:10282005811","latitude":51.5702068,"longitude":0.0136556,"name":"High Road Leytonstone near Mornington Road","properties":{"access":"unknown","bicycle_pa":"stands","capacity":4,"covered":"","fee":"","operator":"","nameSource":"junction"},"sourceId":"osm"},{"id":"osm:node:10282005812","latitude":51.5689008,"longitude":0.0130028,"name":"Aylmer Road near Carlton Road","properties":{"access":"private","bicycle_pa":"shed","capacity":12,"covered":"yes","fee":"","operator":"Cyclehoop Rentals","nameSource":"junction"},"sourceId":"osm"},{"id":"osm:node:10282006018","latitude":51.5771028,"longitude":0.0311568,"name":"Gardner Close cycle parking","properties":{"access":"private","bicycle_pa":"shed","capacity":6,"covered":"yes","fee":"","operator":"Cyclehoop Rentals","nameSource":"street"},"sourceId":"osm"},{"id":"osm:node:10282006217","latitude":51.566719,"longitude":0.0877391,"name":"Benton Road near Charter Avenue","properties":{"access":"unknown","bicycle_pa":"stands","capacity":10,"covered":"","fee":"","operator":"","nameSource":"junction"},"sourceId":"osm"},{"id":"osm:node:10282006256","latitude":51.6096982,"longitude":0.0453999,"name":"Ray Park Cafe cycle parking","properties":{"access":"unknown","bicycle_pa":"stands","capacity":8,"covered":"no","fee":"","operator":"","nameSource":"landmark"},"sourceId":"osm"},{"id":"osm:node:10282006262","latitude":51.5665432,"longitude":0.016666,"name":"Leybourne Road near Woodville Road","properties":{"access":"private","bicycle_pa":"shed","capacity":6,"covered":"yes","fee":"","operator":"Cyclehoop Rentals","nameSource":"junction"},"sourceId":"osm"},{"id":"osm:node:10282006312","latitude":51.5938409,"longitude":0.0239589,"name":"George Lane by Cardcraft","properties":{"access":"unknown","bicycle_pa":"stands","capacity":7,"covered":"","fee":"","operator":"","nameSource":"landmark"},"sourceId":"osm"},{"id":"osm:node:10282006431","latitude":51.5764971,"longitude":0.0618226,"name":"Eastern Avenue by Big Yellow Self Storage","properties":{"access":"unknown","bicycle_pa":"stands","capacity":8,"covered":"","fee":"","operator":"","nameSource":"landmark"},"sourceId":"osm"},{"id":"osm:node:10282006438","latitude":51.5997295,"longitude":0.0759615,"name":"Acle Close near Hoveton Way","properties":{"access":"unknown","bicycle_pa":"stands","capacity":6,"covered":"","fee":"","operator":"","nameSource":"junction"},"sourceId":"osm"},{"id":"osm:node:10282006478","latitude":51.5802745,"longitude":0.0733297,"name":"Cranbrook Road near Pershore Close","properties":{"access":"unknown","bicycle_pa":"stands","capacity":6,"covered":"","fee":"","operator":"","nameSource":"junction"},"sourceId":"osm"},{"id":"osm:node:10282007508","latitude":51.5642533,"longitude":0.0761553,"name":"Melbourne Road near Wellesley Road","properties":{"access":"private","bicycle_pa":"shed","capacity":6,"covered":"yes","fee":"","operator":"Cyclehoop Rentals","nameSource":"junction"},"sourceId":"osm"},{"id":"osm:node:10282007512","latitude":51.5677051,"longitude":0.0108546,"name":"Burghley Road near High Road Leytonstone","properties":{"access":"unknown","bicycle_pa":"","capacity":4,"covered":"","fee":"","operator":"","nameSource":"junction"},"sourceId":"osm"},{"id":"osm:node:10282007513","latitude":51.5676688,"longitude":0.0108343,"name":"Burghley Road near High Road Leytonstone","properties":{"access":"unknown","bicycle_pa":"","capacity":6,"covered":"","fee":"","operator":"","nameSource":"junction"},"sourceId":"osm"},{"id":"osm:node:10282007514","latitude":51.5654622,"longitude":0.0110979,"name":"Lister Road near Pastures Path","properties":{"access":"private","bicycle_pa":"shed","capacity":6,"covered":"yes","fee":"","operator":"Cyclehoop Rentals","nameSource":"junction"},"sourceId":"osm"},{"id":"osm:node:10282007515","latitude":51.5649887,"longitude":0.0081389,"name":"Harold Road by Haroldstone Home","properties":{"access":"private","bicycle_pa":"shed","capacity":6,"covered":"yes","fee":"","operator":"Cyclehoop Rentals","nameSource":"landmark"},"sourceId":"osm"},{"id":"osm:node:10282007578","latitude":51.5723454,"longitude":0.065468,"name":"Emerson Road near Beehive Lane","properties":{"access":"unknown","bicycle_pa":"stands","capacity":12,"covered":"","fee":"","operator":"","nameSource":"junction"},"sourceId":"osm"},{"id":"osm:node:10282007579","latitude":51.5642776,"longitude":0.0762047,"name":"Melbourne Road near Wellesley Road","properties":{"access":"private","bicycle_pa":"shed","capacity":12,"covered":"yes","fee":"","operator":"Cyclehoop Rentals","nameSource":"junction"},"sourceId":"osm"},{"id":"osm:node:10282007724","latitude":51.5677348,"longitude":0.0106825,"name":"Burghley Road near High Road Leytonstone","properties":{"access":"unknown","bicycle_pa":"","capacity":4,"covered":"","fee":"","operator":"","nameSource":"junction"},"sourceId":"osm"},{"id":"osm:node:10282007832","latitude":51.565075,"longitude":0.0030565,"name":"Grove Green Road near Madeira Road","properties":{"access":"unknown","bicycle_pa":"","capacity":2,"covered":"","fee":"","operator":"","nameSource":"junction"},"sourceId":"osm"},{"id":"osm:node:10282007849","latitude":51.6002373,"longitude":0.055712,"name":"Roding Lane North cycle parking","properties":{"access":"unknown","bicycle_pa":"stands","capacity":6,"covered":"","fee":"","operator":"","nameSource":"street"},"sourceId":"osm"},{"id":"osm:node:10282007900","latitude":51.5921566,"longitude":0.08421,"name":"Virginia Gardens near High Street","properties":{"access":"unknown","bicycle_pa":"stands","capacity":4,"covered":"","fee":"","operator":"","nameSource":"junction"},"sourceId":"osm"},{"id":"osm:node:10282007946","latitude":51.5838946,"longitude":0.057805,"name":"Lord Gardens by Clayhall Park","properties":{"access":"unknown","bicycle_pa":"","capacity":4,"covered":"","fee":"","operator":"","nameSource":"landmark"},"sourceId":"osm"},{"id":"osm:node:10282007947","latitude":51.5779295,"longitude":0.0578612,"name":"Radnor Crescent cycle parking","properties":{"access":"private","bicycle_pa":"shed","capacity":6,"covered":"yes","fee":"","operator":"Cyclehoop Rentals","nameSource":"street"},"sourceId":"osm"},{"id":"osm:node:10282007948","latitude":51.5977585,"longitude":0.0635686,"name":"Fullwell Avenue cycle parking","properties":{"access":"unknown","bicycle_pa":"stands","capacity":20,"covered":"yes","fee":"","operator":"","nameSource":"street"},"sourceId":"osm"},{"id":"osm:node:10282007964","latitude":51.5666516,"longitude":0.0074297,"name":"Harold Road near Vernon Road","properties":{"access":"unknown","bicycle_pa":"","capacity":10,"covered":"","fee":"","operator":"","nameSource":"junction"},"sourceId":"osm"},{"id":"osm:node:10282007998","latitude":51.5947634,"longitude":0.0013462,"name":"Ulverston Road near Belle Vue Road","properties":{"access":"private","bicycle_pa":"shed","capacity":6,"covered":"yes","fee":"","operator":"Cyclehoop Rentals","nameSource":"junction"},"sourceId":"osm"},{"id":"osm:node:10282008314","latitude":51.5772886,"longitude":0.0833852,"name":"Horns Road near Tring Close","properties":{"access":"unknown","bicycle_pa":"stands","capacity":6,"covered":"","fee":"","operator":"","nameSource":"junction"},"sourceId":"osm"},{"id":"osm:node:10282008335","latitude":51.6058371,"longitude":0.0525054,"name":"Chigwell Road near Green Walk","properties":{"access":"unknown","bicycle_pa":"stands","capacity":4,"covered":"no","fee":"","operator":"","nameSource":"junction"},"sourceId":"osm"},{"id":"osm:node:10282008347","latitude":51.5651292,"longitude":0.003712,"name":"Madeira Road near Grove Green Road","properties":{"access":"private","bicycle_pa":"shed","capacity":6,"covered":"yes","fee":"","operator":"Cyclehoop Rentals","nameSource":"junction"},"sourceId":"osm"},{"id":"osm:node:10282008380","latitude":51.5980283,"longitude":0.0571241,"name":"The Glade near Wensleydale Avenue","properties":{"access":"unknown","bicycle_pa":"stands","capacity":6,"covered":"","fee":"","operator":"","nameSource":"junction"},"sourceId":"osm"},{"id":"osm:node:10282008812","latitude":51.5929956,"longitude":0.0849503,"name":"High Street near Fairlop Road","properties":{"access":"unknown","bicycle_pa":"stands","capacity":6,"covered":"","fee":"","operator":"","nameSource":"junction"},"sourceId":"osm"},{"id":"osm:node:10282009614","latitude":51.5642957,"longitude":0.0762447,"name":"Melbourne Road near Wellesley Road","properties":{"access":"private","bicycle_pa":"shed","capacity":6,"covered":"yes","fee":"","operator":"Cyclehoop Rentals","nameSource":"junction"},"sourceId":"osm"},{"id":"osm:node:10282009619","latitude":51.5814447,"longitude":0.0582774,"name":"Beehive Lane near Woodford Avenue","properties":{"access":"unknown","bicycle_pa":"stands","capacity":8,"covered":"","fee":"","operator":"","nameSource":"junction"},"sourceId":"osm"},{"id":"osm:node:10282010045","latitude":51.5733898,"longitude":0.0835279,"name":"Eastern Avenue near Ley Street","properties":{"access":"unknown","bicycle_pa":"stands","capacity":2,"covered":"","fee":"","operator":"","nameSource":"junction"},"sourceId":"osm"},{"id":"osm:node:10282010046","latitude":51.5738328,"longitude":0.0846456,"name":"Eastern Avenue near Horns Road","properties":{"access":"unknown","bicycle_pa":"","capacity":8,"covered":"","fee":"","operator":"","nameSource":"junction"},"sourceId":"osm"},{"id":"osm:node:10282010047","latitude":51.5750809,"longitude":0.0838048,"name":"Horns Road near Perrymans Farm Road","properties":{"access":"unknown","bicycle_pa":"","capacity":12,"covered":"","fee":"","operator":"","nameSource":"junction"},"sourceId":"osm"},{"id":"osm:node:10282010415","latitude":51.6059274,"longitude":0.0532981,"name":"Chigwell Road near Gainsborough Road","properties":{"access":"unknown","bicycle_pa":"stands","capacity":2,"covered":"no","fee":"","operator":"","nameSource":"junction"},"sourceId":"osm"},{"id":"osm:node:10282010416","latitude":51.6058932,"longitude":0.0530312,"name":"Chigwell Road near Gainsborough Road","properties":{"access":"unknown","bicycle_pa":"stands","capacity":4,"covered":"no","fee":"","operator":"","nameSource":"junction"},"sourceId":"osm"},{"id":"osm:node:10282010417","latitude":51.5927463,"longitude":0.0844406,"name":"High Street near Fairlop Road","properties":{"access":"unknown","bicycle_pa":"stands","capacity":12,"covered":"","fee":"","operator":"","nameSource":"junction"},"sourceId":"osm"},{"id":"osm:node:10282010428","latitude":51.5928699,"longitude":0.0285208,"name":"Mulberry Way near Primrose Road","properties":{"access":"unknown","bicycle_pa":"upright_stands","capacity":6,"covered":"","fee":"","operator":"","nameSource":"junction"},"sourceId":"osm"},{"id":"osm:node:10282010429","latitude":51.5972866,"longitude":0.0215631,"name":"High Road near Queen Mary Avenue","properties":{"access":"unknown","bicycle_pa":"stands","capacity":6,"covered":"","fee":"","operator":"","nameSource":"junction"},"sourceId":"osm"},{"id":"osm:node:10282010430","latitude":51.5944273,"longitude":0.0188828,"name":"Grove Crescent near Hillcrest Road","properties":{"access":"unknown","bicycle_pa":"upright_stands","capacity":5,"covered":"","fee":"","operator":"","nameSource":"junction"},"sourceId":"osm"},{"id":"osm:node:10282015759","latitude":51.6095958,"longitude":0.0218846,"name":"Johnston Road near High Road Woodford Green","properties":{"access":"unknown","bicycle_pa":"stands","capacity":6,"covered":"","fee":"","operator":"","nameSource":"junction"},"sourceId":"osm"},{"id":"osm:node:10282015770","latitude":51.5678802,"longitude":0.0714668,"name":"Valentines Park Cafe cycle parking","properties":{"access":"unknown","bicycle_pa":"stands","capacity":6,"covered":"","fee":"","operator":"","nameSource":"landmark"},"sourceId":"osm"},{"id":"osm:node:10282016929","latitude":51.5687472,"longitude":0.0092688,"name":"Kirkdale Road near Church Lane","properties":{"access":"unknown","bicycle_pa":"stands","capacity":2,"covered":"no","fee":"","operator":"","nameSource":"junction"},"sourceId":"osm"},{"id":"osm:node:10282020609","latitude":51.592837,"longitude":0.0285074,"name":"Primrose Road near Mulberry Way","properties":{"access":"unknown","bicycle_pa":"stands","capacity":6,"covered":"","fee":"","operator":"","nameSource":"junction"},"sourceId":"osm"},{"id":"osm:node:10282021860","latitude":51.5909703,"longitude":0.0824672,"name":"Sydney Road near High Street","properties":{"access":"unknown","bicycle_pa":"stands","capacity":6,"covered":"","fee":"","operator":"","nameSource":"junction"},"sourceId":"osm"},{"id":"osm:node:10282034411","latitude":51.6136913,"longitude":0.0037512,"name":"Richmond Crescent cycle parking","properties":{"access":"unknown","bicycle_pa":"","capacity":4,"covered":"","fee":"","operator":"","nameSource":"street"},"sourceId":"osm"},{"id":"osm:node:10294825426","latitude":51.6081025,"longitude":0.0230863,"name":"Broadmead Road near Broomhill Road","properties":{"access":"unknown","bicycle_pa":"stands","capacity":8,"covered":"no","fee":"","operator":"","nameSource":"junction"},"sourceId":"osm"},{"id":"osm:node:10587016949","latitude":51.5766379,"longitude":0.0655517,"name":"Eastern Avenue near Gants Hill Roundabout","properties":{"access":"unknown","bicycle_pa":"","capacity":12,"covered":"","fee":"","operator":"","nameSource":"junction"},"sourceId":"osm"},{"id":"osm:node:10596710446","latitude":51.5772257,"longitude":0.002091,"name":"Hospital Road near Bridge Road","properties":{"access":"unknown","bicycle_pa":"stands","capacity":8,"covered":"no","fee":"","operator":"","nameSource":"junction"},"sourceId":"osm"},{"id":"osm:node:1059994182","latitude":51.5931723,"longitude":0.0286405,"name":"Primrose Road near Mulberry Way","properties":{"access":"unknown","bicycle_pa":"","capacity":3,"covered":"yes","fee":"","operator":"","nameSource":"junction"},"sourceId":"osm"},{"id":"osm:node:10728702190","latitude":51.5901333,"longitude":0.0823322,"name":"Baron Gardens near Fremantle Road","properties":{"access":"yes","bicycle_pa":"","capacity":0,"covered":"no","fee":"no","operator":"","nameSource":"junction"},"sourceId":"osm"},{"id":"osm:node:10938432923","latitude":51.5699073,"longitude":0.0134609,"name":"High Road Leytonstone near Gainsborough Road","properties":{"access":"unknown","bicycle_pa":"stands","capacity":4,"covered":"","fee":"","operator":"","nameSource":"junction"},"sourceId":"osm"},{"id":"osm:node:10945257233","latitude":51.5637901,"longitude":0.0139994,"name":"Davies Lane cycle parking","properties":{"access":"unknown","bicycle_pa":"stands","capacity":4,"covered":"no","fee":"","operator":"","nameSource":"street"},"sourceId":"osm"},{"id":"osm:node:10945305641","latitude":51.5638066,"longitude":0.0142133,"name":"Davies Lane cycle parking","properties":{"access":"unknown","bicycle_pa":"stands","capacity":6,"covered":"no","fee":"","operator":"","nameSource":"street"},"sourceId":"osm"},{"id":"osm:node:11036100776","latitude":51.606042,"longitude":0.0538957,"name":"Chigwell Road near Roding Lane North","properties":{"access":"yes","bicycle_pa":"stands","capacity":6,"covered":"no","fee":"no","operator":"","nameSource":"junction"},"sourceId":"osm"},{"id":"osm:node:11072072268","latitude":51.5868581,"longitude":0.0807929,"name":"Cranbrook Road cycle parking","properties":{"access":"yes","bicycle_pa":"","capacity":0,"covered":"no","fee":"no","operator":"","nameSource":"street"},"sourceId":"osm"},{"id":"osm:node:11322690609","latitude":51.590312,"longitude":0.0817901,"name":"Fremantle Road near Baron Gardens","properties":{"access":"yes","bicycle_pa":"","capacity":0,"covered":"no","fee":"no","operator":"","nameSource":"junction"},"sourceId":"osm"},{"id":"osm:node:11352289977","latitude":51.5897963,"longitude":0.0818493,"name":"High Street near Baron Gardens","properties":{"access":"yes","bicycle_pa":"","capacity":0,"covered":"no","fee":"no","operator":"","nameSource":"junction"},"sourceId":"osm"},{"id":"osm:node:11446049723","latitude":51.5771344,"longitude":0.0269544,"name":"High Street near Woodbine Place","properties":{"access":"unknown","bicycle_pa":"stands","capacity":6,"covered":"no","fee":"","operator":"","nameSource":"junction"},"sourceId":"osm"},{"id":"osm:node:11456391496","latitude":51.5763562,"longitude":0.0659465,"name":"Clarence Avenue near Cranbrook Road","properties":{"access":"unknown","bicycle_pa":"stands","capacity":10,"covered":"","fee":"no","operator":"","nameSource":"junction"},"sourceId":"osm"},{"id":"osm:node:11459526773","latitude":51.5769184,"longitude":0.0676113,"name":"Cranbrook Road near Gants Hill Roundabout","properties":{"access":"unknown","bicycle_pa":"safe_loops","capacity":10,"covered":"","fee":"no","operator":"","nameSource":"junction"},"sourceId":"osm"},{"id":"osm:node:11484021500","latitude":51.5930919,"longitude":0.0858886,"name":"Craven Gardens near Fullwell Cross Roundabout","properties":{"access":"unknown","bicycle_pa":"lockers","capacity":0,"covered":"no","fee":"","operator":"","nameSource":"junction"},"sourceId":"osm"},{"id":"osm:node:11542943323","latitude":51.5757086,"longitude":0.0679992,"name":"Perth Road cycle parking","properties":{"access":"unknown","bicycle_pa":"","capacity":10,"covered":"","fee":"","operator":"","nameSource":"street"},"sourceId":"osm"},{"id":"osm:node:1170052044","latitude":51.5920982,"longitude":0.0273626,"name":"Station Approach near George Lane","properties":{"access":"unknown","bicycle_pa":"","capacity":12,"covered":"","fee":"","operator":"","nameSource":"junction"},"sourceId":"osm"},{"id":"osm:node:11997916327","latitude":51.5858235,"longitude":0.0815799,"name":"Civic Way by Tesco","properties":{"access":"customers","bicycle_pa":"","capacity":0,"covered":"","fee":"no","operator":"","nameSource":"landmark"},"sourceId":"osm"},{"id":"osm:node:12269021322","latitude":51.5962028,"longitude":0.0214494,"name":"High Road by The Canteen Cafe","properties":{"access":"unknown","bicycle_pa":"stands","capacity":10,"covered":"no","fee":"","operator":"","nameSource":"landmark"},"sourceId":"osm"},{"id":"osm:node:12269021323","latitude":51.5958252,"longitude":0.0216011,"name":"High Road cycle parking","properties":{"access":"unknown","bicycle_pa":"stands","capacity":6,"covered":"no","fee":"","operator":"","nameSource":"street"},"sourceId":"osm"},{"id":"osm:node:12269021324","latitude":51.5959743,"longitude":0.0215324,"name":"High Road by The Canteen Cafe","properties":{"access":"unknown","bicycle_pa":"stands","capacity":6,"covered":"no","fee":"","operator":"","nameSource":"landmark"},"sourceId":"osm"},{"id":"osm:node:12269041064","latitude":51.5972316,"longitude":0.0215094,"name":"High Road near Queen Mary Avenue","properties":{"access":"unknown","bicycle_pa":"stands","capacity":6,"covered":"","fee":"","operator":"","nameSource":"junction"},"sourceId":"osm"},{"id":"osm:node:13159514916","latitude":51.565879,"longitude":0.0552753,"name":"Belgrave Road near Stanhope Gardens","properties":{"access":"private","bicycle_pa":"shed","capacity":0,"covered":"yes","fee":"","operator":"Cyclehoop","nameSource":"junction"},"sourceId":"osm"},{"id":"osm:node:14004900368","latitude":51.5813375,"longitude":0.0210035,"name":"High Street near Station Approach","properties":{"access":"unknown","bicycle_pa":"stands","capacity":6,"covered":"no","fee":"","operator":"","nameSource":"junction"},"sourceId":"osm"},{"id":"osm:node:2376361854","latitude":51.5682597,"longitude":0.011026,"name":"High Road Leytonstone near Church Lane","properties":{"access":"unknown","bicycle_pa":"stands","capacity":6,"covered":"no","fee":"","operator":"","nameSource":"junction"},"sourceId":"osm"},{"id":"osm:node:2376361864","latitude":51.5692171,"longitude":0.0099136,"name":"Kirkdale Road cycle parking","properties":{"access":"yes","bicycle_pa":"stands","capacity":20,"covered":"no","fee":"","operator":"","nameSource":"street"},"sourceId":"osm"},{"id":"osm:node:2376361865","latitude":51.5693947,"longitude":0.0123007,"name":"High Road Leytonstone near Aylmer Road","properties":{"access":"unknown","bicycle_pa":"stands","capacity":8,"covered":"no","fee":"","operator":"","nameSource":"junction"},"sourceId":"osm"},{"id":"osm:node:2376361866","latitude":51.5696458,"longitude":0.0127404,"name":"High Road Leytonstone near Gainsborough Road","properties":{"access":"unknown","bicycle_pa":"stands","capacity":8,"covered":"no","fee":"","operator":"","nameSource":"junction"},"sourceId":"osm"},{"id":"osm:node:2376604106","latitude":51.5635051,"longitude":0.0096373,"name":"High Road Leytonstone near Ferndale Road","properties":{"access":"unknown","bicycle_pa":"stands","capacity":4,"covered":"no","fee":"","operator":"","nameSource":"junction"},"sourceId":"osm"},{"id":"osm:node:2376604111","latitude":51.5662336,"longitude":0.0101732,"name":"High Road Leytonstone near Michael Road","properties":{"access":"unknown","bicycle_pa":"stands","capacity":4,"covered":"no","fee":"","operator":"","nameSource":"junction"},"sourceId":"osm"},{"id":"osm:node:2376604117","latitude":51.5679422,"longitude":0.0073757,"name":"Eastern Avenue by Perky Blenders","properties":{"access":"unknown","bicycle_pa":"stands","capacity":18,"covered":"no","fee":"","operator":"","nameSource":"landmark"},"sourceId":"osm"},{"id":"osm:node:2376604119","latitude":51.5681947,"longitude":0.0077028,"name":"Grove Green Road near Fairlop Road","properties":{"access":"unknown","bicycle_pa":"stands","capacity":18,"covered":"no","fee":"","operator":"","nameSource":"junction"},"sourceId":"osm"},{"id":"osm:node:2376604120","latitude":51.5683292,"longitude":0.0090106,"name":"Church Lane near Kirkdale Road","properties":{"access":"unknown","bicycle_pa":"stands","capacity":32,"covered":"no","fee":"","operator":"","nameSource":"junction"},"sourceId":"osm"},{"id":"osm:node:2376604121","latitude":51.568328,"longitude":0.0076506,"name":"Eastern Avenue by Perky Blenders","properties":{"access":"unknown","bicycle_pa":"stands","capacity":12,"covered":"","fee":"","operator":"","nameSource":"landmark"},"sourceId":"osm"},{"id":"osm:node:2376604122","latitude":51.5684337,"longitude":0.0109655,"name":"High Road Leytonstone near Church Lane","properties":{"access":"unknown","bicycle_pa":"stands","capacity":10,"covered":"no","fee":"","operator":"","nameSource":"junction"},"sourceId":"osm"},{"id":"osm:node:2378048696","latitude":51.5646296,"longitude":0.0098533,"name":"Brockway Close near High Road Leytonstone","properties":{"access":"unknown","bicycle_pa":"stands","capacity":4,"covered":"no","fee":"","operator":"","nameSource":"junction"},"sourceId":"osm"},{"id":"osm:node:2498848583","latitude":51.5670945,"longitude":0.0106079,"name":"Barclay Road near High Road Leytonstone","properties":{"access":"unknown","bicycle_pa":"stands","capacity":6,"covered":"no","fee":"","operator":"","nameSource":"junction"},"sourceId":"osm"},{"id":"osm:node:2498848586","latitude":51.5659588,"longitude":0.0101517,"name":"High Road Leytonstone near Michael Road","properties":{"access":"unknown","bicycle_pa":"stands","capacity":2,"covered":"no","fee":"","operator":"","nameSource":"junction"},"sourceId":"osm"},{"id":"osm:node:2498848593","latitude":51.56636,"longitude":0.0102111,"name":"Harrington Road near High Road Leytonstone","properties":{"access":"unknown","bicycle_pa":"stands","capacity":4,"covered":"no","fee":"","operator":"","nameSource":"junction"},"sourceId":"osm"},{"id":"osm:node:2498848601","latitude":51.5642942,"longitude":0.0099991,"name":"High Road Leytonstone near Davies Lane","properties":{"access":"unknown","bicycle_pa":"stands","capacity":4,"covered":"no","fee":"","operator":"","nameSource":"junction"},"sourceId":"osm"},{"id":"osm:node:2498848604","latitude":51.5660905,"longitude":0.0101672,"name":"High Road Leytonstone near Michael Road","properties":{"access":"unknown","bicycle_pa":"stands","capacity":2,"covered":"no","fee":"","operator":"","nameSource":"junction"},"sourceId":"osm"},{"id":"osm:node:2498848612","latitude":51.5688268,"longitude":0.0116068,"name":"High Road Leytonstone near Kirkdale Road","properties":{"access":"unknown","bicycle_pa":"stands","capacity":8,"covered":"no","fee":"","operator":"","nameSource":"junction"},"sourceId":"osm"},{"id":"osm:node:2629051347","latitude":51.5868974,"longitude":0.0857107,"name":"Horns Road near Craven Gardens","properties":{"access":"unknown","bicycle_pa":"","capacity":6,"covered":"","fee":"","operator":"","nameSource":"junction"},"sourceId":"osm"},{"id":"osm:node:4003246855","latitude":51.579492,"longitude":0.0017299,"name":"Hospital Road cycle parking","properties":{"access":"yes","bicycle_pa":"stands","capacity":12,"covered":"yes","fee":"","operator":"","nameSource":"street"},"sourceId":"osm"},{"id":"osm:node:4256124679","latitude":51.57686,"longitude":0.0660731,"name":"Woodford Avenue near Gants Hill Roundabout","properties":{"access":"unknown","bicycle_pa":"rack","capacity":0,"covered":"","fee":"","operator":"","nameSource":"junction"},"sourceId":"osm"},{"id":"osm:node:4256124680","latitude":51.5773231,"longitude":0.0659522,"name":"Woodford Avenue near Gants Hill Roundabout","properties":{"access":"unknown","bicycle_pa":"rack","capacity":14,"covered":"","fee":"no","operator":"","nameSource":"junction"},"sourceId":"osm"},{"id":"osm:node:4256124681","latitude":51.5760831,"longitude":0.0458016,"name":"Eastern Avenue near Studley Drive","properties":{"access":"unknown","bicycle_pa":"rack","capacity":6,"covered":"no","fee":"","operator":"TfL","nameSource":"junction"},"sourceId":"osm"},{"id":"osm:node:4256370817","latitude":51.6075586,"longitude":0.0346317,"name":"Snakes Lane East near Madeira Grove","properties":{"access":"unknown","bicycle_pa":"rack","capacity":0,"covered":"","fee":"","operator":"TfL","nameSource":"junction"},"sourceId":"osm"},{"id":"osm:node:4256370818","latitude":51.6068854,"longitude":0.0334801,"name":"Charteris Road by Woodford","properties":{"access":"unknown","bicycle_pa":"rack","capacity":0,"covered":"yes","fee":"no","operator":"TfL","nameSource":"landmark"},"sourceId":"osm"},{"id":"osm:node:4258664737","latitude":51.6060496,"longitude":0.054226,"name":"Chigwell Road near Roding Lane North","properties":{"access":"yes","bicycle_pa":"stands","capacity":8,"covered":"no","fee":"no","operator":"","nameSource":"junction"},"sourceId":"osm"},{"id":"osm:node:4258694252","latitude":51.593513,"longitude":0.0847636,"name":"High Street near Fullwell Cross Roundabout","properties":{"access":"unknown","bicycle_pa":"stands","capacity":0,"covered":"","fee":"","operator":"","nameSource":"junction"},"sourceId":"osm"},{"id":"osm:node:4258694253","latitude":51.5931746,"longitude":0.0859182,"name":"Craven Gardens near Fullwell Cross Roundabout","properties":{"access":"unknown","bicycle_pa":"rack","capacity":0,"covered":"","fee":"","operator":"","nameSource":"junction"},"sourceId":"osm"},{"id":"osm:node:4258719684","latitude":51.5755376,"longitude":0.028392,"name":"Eastern Avenue by Wanstead","properties":{"access":"unknown","bicycle_pa":"stands","capacity":12,"covered":"no","fee":"","operator":"TfL","nameSource":"landmark"},"sourceId":"osm"},{"id":"osm:node:4313691200","latitude":51.5785073,"longitude":0.0258585,"name":"High Street near Wanstead Place","properties":{"access":"unknown","bicycle_pa":"stands","capacity":6,"covered":"no","fee":"","operator":"","nameSource":"junction"},"sourceId":"osm"},{"id":"osm:node:4313691217","latitude":51.577497,"longitude":0.0266713,"name":"Clock House Parade by Elegance Dry Cleaners","properties":{"access":"unknown","bicycle_pa":"stands","capacity":6,"covered":"no","fee":"","operator":"","nameSource":"landmark"},"sourceId":"osm"},{"id":"osm:node:4561875502","latitude":51.5929611,"longitude":0.0048289,"name":"Hylands Road cycle parking","properties":{"access":"unknown","bicycle_pa":"stands","capacity":8,"covered":"no","fee":"","operator":"","nameSource":"street"},"sourceId":"osm"},{"id":"osm:node:4588616059","latitude":51.5807809,"longitude":0.0006219,"name":"Eatington Road near Forest View Avenue","properties":{"access":"private","bicycle_pa":"stands","capacity":10,"covered":"no","fee":"","operator":"","nameSource":"junction"},"sourceId":"osm"},{"id":"osm:node:4971995232","latitude":51.5652576,"longitude":0.0673414,"name":"Cranbrook Road cycle parking","properties":{"access":"unknown","bicycle_pa":"stands","capacity":0,"covered":"","fee":"","operator":"","nameSource":"street"},"sourceId":"osm"},{"id":"osm:node:4972071285","latitude":51.5680503,"longitude":0.0694997,"name":"Valentines Park Cafe cycle parking","properties":{"access":"unknown","bicycle_pa":"","capacity":0,"covered":"","fee":"","operator":"","nameSource":"landmark"},"sourceId":"osm"},{"id":"osm:node:4972321833","latitude":51.5708489,"longitude":0.0669655,"name":"Emerson Road near Bethell Avenue","properties":{"access":"unknown","bicycle_pa":"","capacity":0,"covered":"","fee":"","operator":"","nameSource":"junction"},"sourceId":"osm"},{"id":"osm:node:5002838761","latitude":51.5702842,"longitude":0.0141875,"name":"Browning Road near High Road Leytonstone","properties":{"access":"unknown","bicycle_pa":"stands","capacity":6,"covered":"no","fee":"","operator":"","nameSource":"junction"},"sourceId":"osm"},{"id":"osm:node:5002838762","latitude":51.5702438,"longitude":0.0141134,"name":"Browning Road near High Road Leytonstone","properties":{"access":"unknown","bicycle_pa":"stands","capacity":6,"covered":"no","fee":"","operator":"","nameSource":"junction"},"sourceId":"osm"},{"id":"osm:node:5008506919","latitude":51.5689477,"longitude":0.0126607,"name":"Aylmer Road near Carlton Road","properties":{"access":"unknown","bicycle_pa":"stands","capacity":20,"covered":"","fee":"","operator":"","nameSource":"junction"},"sourceId":"osm"},{"id":"osm:node:5013047113","latitude":51.567061,"longitude":0.0107184,"name":"Barclay Road near High Road Leytonstone","properties":{"access":"private","bicycle_pa":"shed","capacity":0,"covered":"","fee":"yes","operator":"Cyclehoop","nameSource":"junction"},"sourceId":"osm"},{"id":"osm:node:5194187549","latitude":51.5764136,"longitude":0.0449588,"name":"Redbridge Lane East near Redbridge Roundabout","properties":{"access":"unknown","bicycle_pa":"stands","capacity":8,"covered":"","fee":"","operator":"","nameSource":"junction"},"sourceId":"osm"},{"id":"osm:node:5194391232","latitude":51.5821429,"longitude":0.0573598,"name":"Woodford Avenue near Grasmere Gardens","properties":{"access":"unknown","bicycle_pa":"stands","capacity":8,"covered":"","fee":"","operator":"","nameSource":"junction"},"sourceId":"osm"},{"id":"osm:node:5535338952","latitude":51.5995914,"longitude":0.0201265,"name":"Derby Road near High Road Woodford Green","properties":{"access":"unknown","bicycle_pa":"stands","capacity":3,"covered":"no","fee":"","operator":"","nameSource":"junction"},"sourceId":"osm"},{"id":"osm:node:6104381861","latitude":51.5807438,"longitude":0.0212734,"name":"Station Approach by Snaresbrook","properties":{"access":"unknown","bicycle_pa":"stands","capacity":0,"covered":"","fee":"","operator":"","nameSource":"landmark"},"sourceId":"osm"},{"id":"osm:node:6239567386","latitude":51.608455,"longitude":0.0099767,"name":"The Charter Road cycle parking","properties":{"access":"unknown","bicycle_pa":"stands","capacity":10,"covered":"no","fee":"no","operator":"","nameSource":"street"},"sourceId":"osm"},{"id":"osm:node:6310893938","latitude":51.5922614,"longitude":0.0276731,"name":"Mulberry Way near George Lane","properties":{"access":"unknown","bicycle_pa":"","capacity":0,"covered":"","fee":"","operator":"","nameSource":"junction"},"sourceId":"osm"},{"id":"osm:node:6598895017","latitude":51.6172022,"longitude":0.0438232,"name":"Station Approach by Roding Valley","properties":{"access":"unknown","bicycle_pa":"stands","capacity":6,"covered":"no","fee":"","operator":"","nameSource":"landmark"},"sourceId":"osm"},{"id":"osm:node:6612395018","latitude":51.595157,"longitude":0.0223154,"name":"High Road near George Lane","properties":{"access":"unknown","bicycle_pa":"stands","capacity":0,"covered":"no","fee":"no","operator":"","nameSource":"junction"},"sourceId":"osm"},{"id":"osm:node:6878885415","latitude":51.5770382,"longitude":0.0028983,"name":"Hospital Road near Bridge Road","properties":{"access":"unknown","bicycle_pa":"","capacity":12,"covered":"yes","fee":"","operator":"","nameSource":"junction"},"sourceId":"osm"},{"id":"osm:node:6878895814","latitude":51.5769461,"longitude":0.0034483,"name":"Hospital Road near Bridge Road","properties":{"access":"unknown","bicycle_pa":"","capacity":0,"covered":"yes","fee":"","operator":"","nameSource":"junction"},"sourceId":"osm"},{"id":"osm:node:7231517316","latitude":51.5871298,"longitude":0.0434729,"name":"Roding Lane South cycle parking","properties":{"access":"unknown","bicycle_pa":"wall_loops","capacity":2,"covered":"","fee":"","operator":"","nameSource":"street"},"sourceId":"osm"},{"id":"osm:node:7231553878","latitude":51.5666192,"longitude":0.0034351,"name":"Grove Green Road near Connaught Road","properties":{"access":"unknown","bicycle_pa":"stands","capacity":10,"covered":"no","fee":"","operator":"","nameSource":"junction"},"sourceId":"osm"},{"id":"osm:node:7620508996","latitude":51.5696911,"longitude":0.0104551,"name":"Kirkdale Road near Lemna Road","properties":{"access":"unknown","bicycle_pa":"","capacity":0,"covered":"","fee":"","operator":"","nameSource":"junction"},"sourceId":"osm"},{"id":"osm:node:8292912984","latitude":51.6093158,"longitude":0.0009814,"name":"Castle Avenue near The Avenue","properties":{"access":"unknown","bicycle_pa":"stands","capacity":12,"covered":"","fee":"","operator":"","nameSource":"junction"},"sourceId":"osm"},{"id":"osm:node:8292912985","latitude":51.6086153,"longitude":0.0003551,"name":"The Avenue by Kings Barber","properties":{"access":"unknown","bicycle_pa":"stands","capacity":2,"covered":"no","fee":"","operator":"","nameSource":"landmark"},"sourceId":"osm"},{"id":"osm:node:8292912986","latitude":51.6082022,"longitude":0.0002089,"name":"The Avenue by Clean Inn","properties":{"access":"unknown","bicycle_pa":"stands","capacity":2,"covered":"","fee":"","operator":"","nameSource":"landmark"},"sourceId":"osm"},{"id":"osm:node:8292936054","latitude":51.6071853,"longitude":0.0007185,"name":"Hale End Road near Handsworth Avenue","properties":{"access":"unknown","bicycle_pa":"stands","capacity":2,"covered":"","fee":"","operator":"","nameSource":"junction"},"sourceId":"osm"},{"id":"osm:node:8292936055","latitude":51.607052,"longitude":0.0007493,"name":"Hale End Road near Handsworth Avenue","properties":{"access":"unknown","bicycle_pa":"stands","capacity":2,"covered":"","fee":"","operator":"","nameSource":"junction"},"sourceId":"osm"},{"id":"osm:node:8380735462","latitude":51.6073893,"longitude":0.0001937,"name":"Beech Hall Road near Hale End Road","properties":{"access":"unknown","bicycle_pa":"stands","capacity":2,"covered":"no","fee":"","operator":"","nameSource":"junction"},"sourceId":"osm"},{"id":"osm:node:8387986361","latitude":51.6063031,"longitude":0.0039595,"name":"Vincent Road cycle parking","properties":{"access":"unknown","bicycle_pa":"stands","capacity":4,"covered":"","fee":"","operator":"","nameSource":"street"},"sourceId":"osm"},{"id":"osm:node:8418284356","latitude":51.6094593,"longitude":0.0123167,"name":"Tamworth Avenue by Humphry's","properties":{"access":"unknown","bicycle_pa":"stands","capacity":12,"covered":"no","fee":"","operator":"","nameSource":"landmark"},"sourceId":"osm"},{"id":"osm:node:8422237288","latitude":51.6106283,"longitude":0.0121703,"name":"The Highams Park cycle parking","properties":{"access":"unknown","bicycle_pa":"stands","capacity":6,"covered":"no","fee":"","operator":"","nameSource":"landmark"},"sourceId":"osm"},{"id":"osm:node:8558062754","latitude":51.5754475,"longitude":0.007141,"name":"Colworth Road near Forest Road","properties":{"access":"unknown","bicycle_pa":"stands","capacity":4,"covered":"no","fee":"","operator":"","nameSource":"junction"},"sourceId":"osm"},{"id":"osm:node:8558062755","latitude":51.5753623,"longitude":0.0071281,"name":"Colworth Road near Forest Road","properties":{"access":"unknown","bicycle_pa":"stands","capacity":6,"covered":"no","fee":"","operator":"","nameSource":"junction"},"sourceId":"osm"},{"id":"osm:node:8569357041","latitude":51.5748651,"longitude":0.0059247,"name":"Forest Road cycle parking","properties":{"access":"customers","bicycle_pa":"stands","capacity":0,"covered":"yes","fee":"","operator":"","nameSource":"street"},"sourceId":"osm"},{"id":"osm:node:8569357043","latitude":51.5747696,"longitude":0.0078125,"name":"Colworth Road near Hainault Road","properties":{"access":"customers","bicycle_pa":"stands","capacity":0,"covered":"yes","fee":"","operator":"","nameSource":"junction"},"sourceId":"osm"},{"id":"osm:node:8569639278","latitude":51.5753675,"longitude":0.0070321,"name":"Colworth Road near Forest Road","properties":{"access":"unknown","bicycle_pa":"stands","capacity":6,"covered":"no","fee":"","operator":"","nameSource":"junction"},"sourceId":"osm"},{"id":"osm:node:8611020778","latitude":51.6080549,"longitude":0.0011991,"name":"Handsworth Avenue by Handsworth Medical Practice","properties":{"access":"unknown","bicycle_pa":"","capacity":4,"covered":"","fee":"","operator":"","nameSource":"landmark"},"sourceId":"osm"},{"id":"osm:node:8611020781","latitude":51.607319,"longitude":0.0000229,"name":"Beech Hall Road near Hale End Road","properties":{"access":"unknown","bicycle_pa":"","capacity":4,"covered":"","fee":"","operator":"","nameSource":"junction"},"sourceId":"osm"},{"id":"osm:node:8826715701","latitude":51.5654866,"longitude":0.0100757,"name":"Vernon Road near High Road Leytonstone","properties":{"access":"unknown","bicycle_pa":"stands","capacity":4,"covered":"no","fee":"","operator":"","nameSource":"junction"},"sourceId":"osm"},{"id":"osm:node:9015696970","latitude":51.5816591,"longitude":0.0022805,"name":"Whipps Cross Road near Lea Bridge Road","properties":{"access":"unknown","bicycle_pa":"stands","capacity":8,"covered":"no","fee":"","operator":"","nameSource":"junction"},"sourceId":"osm"},{"id":"osm:node:9064130817","latitude":51.5870988,"longitude":0.0062499,"name":"Woodford New Road by St Peter-in-the-Forest","properties":{"access":"unknown","bicycle_pa":"stands","capacity":4,"covered":"no","fee":"","operator":"","nameSource":"landmark"},"sourceId":"osm"},{"id":"osm:node:9064142018","latitude":51.5883523,"longitude":0.0044195,"name":"Forest Rise near Upper Walthamstow Road","properties":{"access":"unknown","bicycle_pa":"stands","capacity":10,"covered":"no","fee":"","operator":"","nameSource":"junction"},"sourceId":"osm"},{"id":"osm:node:9277009152","latitude":51.6037625,"longitude":0.00268,"name":"Hale End Road near Oak Hill","properties":{"access":"unknown","bicycle_pa":"stands","capacity":6,"covered":"","fee":"","operator":"","nameSource":"junction"},"sourceId":"osm"},{"id":"osm:node:9334748397","latitude":51.6071677,"longitude":0.0337469,"name":"Charteris Road near The Broadway","properties":{"access":"yes","bicycle_pa":"stands","capacity":16,"covered":"yes","fee":"no","operator":"","nameSource":"junction"},"sourceId":"osm"},{"id":"osm:node:9361055235","latitude":51.6170171,"longitude":0.026513,"name":"High Road Woodford Green near Knighton Drive","properties":{"access":"unknown","bicycle_pa":"wall_loops","capacity":5,"covered":"","fee":"","operator":"","nameSource":"junction"},"sourceId":"osm"},{"id":"osm:node:9383751720","latitude":51.5780287,"longitude":0.0095666,"name":"Whipps Cross Road near James Lane","properties":{"access":"unknown","bicycle_pa":"stands","capacity":10,"covered":"","fee":"","operator":"","nameSource":"junction"},"sourceId":"osm"},{"id":"osm:node:9562651673","latitude":51.5659011,"longitude":0.0414988,"name":"Wanstead Tea Hut cycle parking","properties":{"access":"unknown","bicycle_pa":"stands","capacity":6,"covered":"no","fee":"","operator":"","nameSource":"landmark"},"sourceId":"osm"},{"id":"osm:node:9562651674","latitude":51.5660332,"longitude":0.0415176,"name":"Wanstead Tea Hut cycle parking","properties":{"access":"unknown","bicycle_pa":"stands","capacity":6,"covered":"no","fee":"","operator":"","nameSource":"landmark"},"sourceId":"osm"},{"id":"osm:node:9674030607","latitude":51.5700766,"longitude":0.0383872,"name":"Warren Road cycle parking","properties":{"access":"unknown","bicycle_pa":"stands","capacity":4,"covered":"no","fee":"","operator":"","nameSource":"street"},"sourceId":"osm"},{"id":"osm:node:9674030608","latitude":51.5679455,"longitude":0.0417967,"name":"The Temple cycle parking","properties":{"access":"unknown","bicycle_pa":"stands","capacity":4,"covered":"no","fee":"","operator":"","nameSource":"landmark"},"sourceId":"osm"},{"id":"osm:node:9674907288","latitude":51.5795079,"longitude":0.0050733,"name":"Whipps Cross Road by Boat House Kiosk","properties":{"access":"unknown","bicycle_pa":"stands","capacity":6,"covered":"no","fee":"","operator":"","nameSource":"landmark"},"sourceId":"osm"},{"id":"osm:node:9674907289","latitude":51.5795256,"longitude":0.0050042,"name":"Whipps Cross Road by Boat House Kiosk","properties":{"access":"unknown","bicycle_pa":"stands","capacity":4,"covered":"no","fee":"","operator":"","nameSource":"landmark"},"sourceId":"osm"},{"id":"osm:node:9674907291","latitude":51.5814874,"longitude":0.0025071,"name":"Whipps Cross Road near Lea Bridge Road","properties":{"access":"unknown","bicycle_pa":"stands","capacity":4,"covered":"no","fee":"","operator":"","nameSource":"junction"},"sourceId":"osm"},{"id":"osm:node:9689450694","latitude":51.6099305,"longitude":0.0111143,"name":"Tamworth Avenue cycle parking","properties":{"access":"unknown","bicycle_pa":"stands","capacity":4,"covered":"no","fee":"","operator":"","nameSource":"street"},"sourceId":"osm"},{"id":"osm:node:9757128358","latitude":51.5672089,"longitude":0.010452,"name":"High Road Leytonstone near Barclay Road","properties":{"access":"unknown","bicycle_pa":"stands","capacity":4,"covered":"no","fee":"","operator":"","nameSource":"junction"},"sourceId":"osm"},{"id":"osm:node:9762443190","latitude":51.5715184,"longitude":0.038398,"name":"Warren Road near The Warren Drive","properties":{"access":"unknown","bicycle_pa":"stands","capacity":4,"covered":"no","fee":"","operator":"","nameSource":"junction"},"sourceId":"osm"},{"id":"osm:node:9762443191","latitude":51.5657151,"longitude":0.0482884,"name":"Dell Bridge cycle parking","properties":{"access":"unknown","bicycle_pa":"stands","capacity":4,"covered":"no","fee":"","operator":"","nameSource":"street"},"sourceId":"osm"},{"id":"osm:node:9762443192","latitude":51.5679276,"longitude":0.0433054,"name":"The Temple cycle parking","properties":{"access":"unknown","bicycle_pa":"stands","capacity":4,"covered":"no","fee":"","operator":"","nameSource":"landmark"},"sourceId":"osm"},{"id":"osm:node:9762443193","latitude":51.565945,"longitude":0.0327196,"name":"Northumberland Avenue cycle parking","properties":{"access":"unknown","bicycle_pa":"stands","capacity":4,"covered":"no","fee":"","operator":"","nameSource":"street"},"sourceId":"osm"},{"id":"osm:node:9762443194","latitude":51.5661351,"longitude":0.0250894,"name":"Blake Hall Road near Blake Hall Crescent","properties":{"access":"unknown","bicycle_pa":"stands","capacity":4,"covered":"no","fee":"","operator":"","nameSource":"junction"},"sourceId":"osm"},{"id":"osm:node:9762681362","latitude":51.5796048,"longitude":0.0052357,"name":"Whipps Cross Road by Hollowponds Rowboat Hire","properties":{"access":"unknown","bicycle_pa":"stands","capacity":6,"covered":"no","fee":"","operator":"","nameSource":"landmark"},"sourceId":"osm"},{"id":"osm:node:9762785037","latitude":51.5992704,"longitude":0.0123261,"name":"Oak Hill Gardens cycle parking","properties":{"access":"unknown","bicycle_pa":"stands","capacity":4,"covered":"no","fee":"","operator":"","nameSource":"street"},"sourceId":"osm"},{"id":"osm:node:9762790539","latitude":51.5738757,"longitude":0.0416815,"name":"Royston Gardens cycle parking","properties":{"access":"unknown","bicycle_pa":"stands","capacity":4,"covered":"no","fee":"","operator":"","nameSource":"street"},"sourceId":"osm"},{"id":"osm:node:9762814922","latitude":51.578173,"longitude":0.0106443,"name":"Whipps Cross Road cycle parking","properties":{"access":"unknown","bicycle_pa":"stands","capacity":4,"covered":"no","fee":"","operator":"","nameSource":"street"},"sourceId":"osm"},{"id":"osm:node:9762835700","latitude":51.5852414,"longitude":0.0095156,"name":"The Forest near Oakhurst Gardens","properties":{"access":"unknown","bicycle_pa":"stands","capacity":4,"covered":"no","fee":"","operator":"","nameSource":"junction"},"sourceId":"osm"},{"id":"osm:node:9762843622","latitude":51.5949043,"longitude":0.0114463,"name":"Waterworks Roundabout near Woodford New Road","properties":{"access":"unknown","bicycle_pa":"stands","capacity":4,"covered":"no","fee":"","operator":"","nameSource":"junction"},"sourceId":"osm"},{"id":"osm:node:9762843623","latitude":51.5940003,"longitude":0.0051954,"name":"Beacontree Avenue cycle parking","properties":{"access":"unknown","bicycle_pa":"stands","capacity":4,"covered":"no","fee":"","operator":"","nameSource":"street"},"sourceId":"osm"},{"id":"osm:node:9777683930","latitude":51.6179423,"longitude":0.0374622,"name":"Monkham's Lane near Farm Way","properties":{"access":"unknown","bicycle_pa":"stands","capacity":4,"covered":"no","fee":"","operator":"","nameSource":"junction"},"sourceId":"osm"},{"id":"osm:node:9794632617","latitude":51.5672573,"longitude":0.0155034,"name":"Leyspring Road near Stanmore Road","properties":{"access":"unknown","bicycle_pa":"lockers","capacity":0,"covered":"","fee":"","operator":"","nameSource":"junction"},"sourceId":"osm"},{"id":"osm:node:9794646717","latitude":51.5673988,"longitude":0.0135853,"name":"Mornington Road near Harvey Road","properties":{"access":"private","bicycle_pa":"shed","capacity":0,"covered":"","fee":"","operator":"Waltham Forest","nameSource":"junction"},"sourceId":"osm"},{"id":"osm:node:9821323836","latitude":51.5664447,"longitude":0.0188069,"name":"Bushwood near Leybourne Road","properties":{"access":"unknown","bicycle_pa":"stands","capacity":2,"covered":"no","fee":"","operator":"","nameSource":"junction"},"sourceId":"osm"},{"id":"osm:node:9823178647","latitude":51.5695685,"longitude":0.012598,"name":"High Road Leytonstone near Aylmer Road","properties":{"access":"unknown","bicycle_pa":"stands","capacity":4,"covered":"no","fee":"","operator":"","nameSource":"junction"},"sourceId":"osm"},{"id":"osm:node:9831675379","latitude":51.5685757,"longitude":0.0109392,"name":"High Road Leytonstone near Church Lane","properties":{"access":"customers","bicycle_pa":"stands","capacity":10,"covered":"no","fee":"","operator":"","nameSource":"junction"},"sourceId":"osm"},{"id":"osm:node:9833121019","latitude":51.5750685,"longitude":0.0264702,"name":"Cambridge Mews near Cambridge Park","properties":{"access":"unknown","bicycle_pa":"stands","capacity":6,"covered":"no","fee":"","operator":"","nameSource":"junction"},"sourceId":"osm"},{"id":"osm:node:9846447918","latitude":51.5667909,"longitude":0.0035575,"name":"Drayton Road near Grove Green Road","properties":{"access":"unknown","bicycle_pa":"stands","capacity":14,"covered":"no","fee":"","operator":"","nameSource":"junction"},"sourceId":"osm"},{"id":"osm:node:9846518917","latitude":51.5667057,"longitude":0.0036297,"name":"Drayton Road near Grove Green Road","properties":{"access":"unknown","bicycle_pa":"stands","capacity":6,"covered":"no","fee":"","operator":"","nameSource":"junction"},"sourceId":"osm"},{"id":"osm:node:9846525817","latitude":51.5668344,"longitude":0.0052483,"name":"Grove Green Road near Dyers Hall Road","properties":{"access":"unknown","bicycle_pa":"stands","capacity":4,"covered":"no","fee":"","operator":"","nameSource":"junction"},"sourceId":"osm"},{"id":"osm:node:9864018926","latitude":51.5636484,"longitude":0.032659,"name":"Park Road by Aldersbrook Library","properties":{"access":"unknown","bicycle_pa":"stands","capacity":5,"covered":"no","fee":"","operator":"","nameSource":"landmark"},"sourceId":"osm"},{"id":"osm:node:9905719125","latitude":51.5898253,"longitude":0.0015118,"name":"Bisterne Avenue by Bisterne Avenue Park","properties":{"access":"unknown","bicycle_pa":"stands","capacity":6,"covered":"no","fee":"","operator":"","nameSource":"landmark"},"sourceId":"osm"},{"id":"osm:node:9930440434","latitude":51.565646,"longitude":0.0165813,"name":"Bushwood near Woodville Road","properties":{"access":"unknown","bicycle_pa":"stands","capacity":2,"covered":"","fee":"","operator":"","nameSource":"junction"},"sourceId":"osm"},{"id":"osm:node:9937572218","latitude":51.5756056,"longitude":0.0282595,"name":"Eastern Avenue by Wanstead","properties":{"access":"unknown","bicycle_pa":"stands","capacity":14,"covered":"no","fee":"","operator":"","nameSource":"landmark"},"sourceId":"osm"},{"id":"osm:node:9938881468","latitude":51.5785831,"longitude":0.0258041,"name":"High Street near Wanstead Place","properties":{"access":"unknown","bicycle_pa":"stands","capacity":6,"covered":"no","fee":"","operator":"","nameSource":"junction"},"sourceId":"osm"},{"id":"osm:node:9939004241","latitude":51.5775776,"longitude":0.0264749,"name":"High Street near Grove Park","properties":{"access":"unknown","bicycle_pa":"stands","capacity":6,"covered":"no","fee":"","operator":"","nameSource":"junction"},"sourceId":"osm"},{"id":"osm:way:1017908297","latitude":51.568233,"longitude":0.015255033333333333,"name":"Woodville Road near Stanmore Road","properties":{"access":"customers","bicycle_pa":"stands","capacity":6,"covered":"yes","fee":"","operator":"","nameSource":"junction"},"sourceId":"osm"},{"id":"osm:way:1047662588","latitude":51.566021660000004,"longitude":0.00191762,"name":"Pretoria Road near Richmond Road","properties":{"access":"customers","bicycle_pa":"stands","capacity":6,"covered":"yes","fee":"","operator":"","nameSource":"junction"},"sourceId":"osm"},{"id":"osm:way:1077727126","latitude":51.56757734,"longitude":0.0080499,"name":"Vernon Road near Harrington Road","properties":{"access":"yes","bicycle_pa":"building","capacity":0,"covered":"","fee":"yes","operator":"Waltham Forest","nameSource":"junction"},"sourceId":"osm"},{"id":"osm:way:1180252579","latitude":51.564092216666666,"longitude":0.012846416666666666,"name":"Davies Lane cycle parking","properties":{"access":"private","bicycle_pa":"shed","capacity":0,"covered":"","fee":"","operator":"","nameSource":"street"},"sourceId":"osm"},{"id":"osm:way:1219625135","latitude":51.58687578888889,"longitude":0.07158373333333333,"name":"Gaysham Hall cycle parking","properties":{"access":"unknown","bicycle_pa":"shed","capacity":0,"covered":"","fee":"","operator":"","nameSource":"street"},"sourceId":"osm"},{"id":"osm:way:1219625145","latitude":51.586911199999996,"longitude":0.07236521428571428,"name":"Gaysham Hall cycle parking","properties":{"access":"unknown","bicycle_pa":"shed","capacity":0,"covered":"","fee":"","operator":"","nameSource":"street"},"sourceId":"osm"},{"id":"osm:way:1219625148","latitude":51.58714565555556,"longitude":0.07103735555555556,"name":"Gaysham Hall near Longwood Gardens","properties":{"access":"unknown","bicycle_pa":"shed","capacity":0,"covered":"","fee":"","operator":"","nameSource":"junction"},"sourceId":"osm"},{"id":"osm:way:1231171903","latitude":51.591415319999996,"longitude":0.0763582,"name":"Mossford Lane near Clayhall Avenue","properties":{"access":"private","bicycle_pa":"shed","capacity":0,"covered":"","fee":"no","operator":"","nameSource":"junction"},"sourceId":"osm"},{"id":"osm:way:1232511727","latitude":51.5711323,"longitude":0.056400460000000006,"name":"The Drive near Lincoln Gardens","properties":{"access":"private","bicycle_pa":"shed","capacity":0,"covered":"yes","fee":"no","operator":"","nameSource":"junction"},"sourceId":"osm"},{"id":"osm:way:1232549283","latitude":51.5814531,"longitude":0.051692779999999994,"name":"Keswick Gardens near Ridgeway Gardens","properties":{"access":"private","bicycle_pa":"shed","capacity":0,"covered":"","fee":"no","operator":"","nameSource":"junction"},"sourceId":"osm"},{"id":"osm:way:228994131","latitude":51.57004836,"longitude":0.01348052,"name":"High Road Leytonstone near Mornington Road","properties":{"access":"unknown","bicycle_pa":"stands","capacity":16,"covered":"no","fee":"","operator":"","nameSource":"junction"},"sourceId":"osm"}],"schemaVersion":2}
