{"key":"12/2002/1360","points":[{"categories":["repair"],"id":"osm:node:12325682849","latitude":51.6114143,"longitude":-3.9656942,"name":"Swansea Council","properties":{"fee":"no","openingHours":"24/7","operator":"Swansea Council","servicePump":"yes","serviceRepair":"yes","serviceTools":"yes"},"sourceId":"osm"},{"categories":["hire"],"id":"osm:node:12997548536","latitude":51.5746842,"longitude":-3.9968629,"name":"Cycle hire","properties":{},"sourceId":"osm"},{"categories":["shop"],"id":"osm:node:6263672245","latitude":51.6161424,"longitude":-3.9591449,"name":"Re-cycle South Wales","properties":{"website":"https://recyclesouthwales.wordpress.com/"},"sourceId":"osm"},{"categories":["shop","repair","hire"],"id":"osm:way:1266106085","latitude":51.61598565,"longitude":-3.9568560749999997,"name":"The Bike Hub","properties":{"serviceRental":"yes","serviceRepair":"yes"},"sourceId":"osm"},{"categories":["hire"],"id":"osm:way:835871357","latitude":51.60931954,"longitude":-3.98089784,"name":"Santander Cycles","properties":{"brand":"Santander Cycles","network":"nextbike","operator":"nextbike"},"sourceId":"osm"}],"schemaVersion":2}
