{"key":"12/2083/1554","points":[{"categories":["shop","hire"],"id":"osm:node:1191294286","latitude":39.771983,"longitude":3.1445318,"name":"Easy Tours","properties":{"servicePump":"no","serviceRental":"yes"},"sourceId":"osm"},{"categories":["shop","hire"],"id":"osm:node:252119230","latitude":39.7655393,"longitude":3.1479954,"name":"Huerzeler Cycling Station","properties":{"openingHours":"Feb 02-Jun 08 09:00-12:00,15:00-19:00; Jun 09-Sep 13 09:00-12:00,16:00-19:00; Sep 14-Oct 25 09:00-12:00,15:00-19:00; Oct 26-Nov 03 09:00-12:00,15:00-18:00","operator":"Huerzeler","serviceRental":"yes"},"sourceId":"osm"},{"categories":["shop","hire"],"id":"osm:node:4058562277","latitude":39.7672672,"longitude":3.1468287,"name":"Velo-plus","properties":{"serviceRental":"yes"},"sourceId":"osm"},{"categories":["hire"],"id":"osm:node:4758052323","latitude":39.7648003,"longitude":3.1494905,"name":"MallorcaOnBike","properties":{"fee":"yes","openingHours":"09:00-12:00,16:30-18:00","operator":"Paul Tenambergen (Nachfolger von Olaf Schmidt)"},"sourceId":"osm"},{"categories":["shop","hire"],"id":"osm:node:550554937","latitude":39.7673771,"longitude":3.1462977,"name":"Wheelsport","properties":{"serviceRental":"yes"},"sourceId":"osm"},{"categories":["shop"],"id":"osm:node:8510775065","latitude":39.7641467,"longitude":3.1622537,"name":"Bike Infinity","properties":{},"sourceId":"osm"},{"categories":["repair","hire"],"id":"osm:way:1024654703","latitude":39.77279640909091,"longitude":3.138128645454545,"name":"Valentin Playa de Muro","properties":{"brand":"Valentin Hotels","openingHours":"24/7","operator":"VALENTIN GESTION SL","serviceRental":"yes","serviceRepair":"yes"},"sourceId":"osm"},{"categories":["repair","hire"],"id":"osm:way:270511188","latitude":39.77340398,"longitude":3.13929612,"name":"Triathlon & Cycling Center","properties":{"brand":"Canyon;Orbea","fee":"yes","openingHours":"Mar 01-May 31: 09:00-12:00,16:00-18:00","operator":"Active Mallorca","servicePump":"yes","serviceRepair":"yes"},"sourceId":"osm"}],"schemaVersion":2}
