{"key":"12/2049/1355","points":[{"id":"osm:node:10693524057","latitude":51.8673285,"longitude":0.1659833,"name":"London Road near Station Road","properties":{"access":"yes","bicycle_pa":"stands","capacity":0,"covered":"no","fee":"no","operator":"","nameSource":"junction"},"sourceId":"osm"},{"id":"osm:node:11115196481","latitude":51.867379,"longitude":0.163437,"name":"Anchor Street near Station Road","properties":{"access":"unknown","bicycle_pa":"","capacity":0,"covered":"","fee":"","operator":"","nameSource":"junction"},"sourceId":"osm"},{"id":"osm:node:11212487543","latitude":51.8481175,"longitude":0.1587245,"name":"Eyre Close near Pearce Road","properties":{"access":"private","bicycle_pa":"shed","capacity":0,"covered":"yes","fee":"","operator":"","nameSource":"junction"},"sourceId":"osm"},{"id":"osm:node:11761872096","latitude":51.8727924,"longitude":0.1598489,"name":"Water Lane near Florence Walk","properties":{"access":"unknown","bicycle_pa":"stands","capacity":4,"covered":"no","fee":"","operator":"","nameSource":"junction"},"sourceId":"osm"},{"id":"osm:node:11763544605","latitude":51.8726216,"longitude":0.1584515,"name":"North Street near Water Lane","properties":{"access":"unknown","bicycle_pa":"stands","capacity":2,"covered":"no","fee":"","operator":"","nameSource":"junction"},"sourceId":"osm"},{"id":"osm:node:11764481939","latitude":51.8768271,"longitude":0.1613751,"name":"Stane Close by Levi-Scot","properties":{"access":"unknown","bicycle_pa":"stands","capacity":60,"covered":"no","fee":"","operator":"","nameSource":"landmark"},"sourceId":"osm"},{"id":"osm:node:11898859945","latitude":51.8854171,"longitude":0.1409822,"name":"Bishop's Stortford Bridleway 8 cycle parking","properties":{"access":"unknown","bicycle_pa":"stands","capacity":10,"covered":"","fee":"","operator":"","nameSource":"street"},"sourceId":"osm"},{"id":"osm:node:12101532887","latitude":51.8714451,"longitude":0.1626076,"name":"Link Road by Terrace Park Café and Kitchen","properties":{"access":"yes","bicycle_pa":"stands","capacity":12,"covered":"no","fee":"no","operator":"","nameSource":"landmark"},"sourceId":"osm"},{"id":"osm:node:12293741622","latitude":51.8714656,"longitude":0.1586683,"name":"The George Courtyard near North Street","properties":{"access":"unknown","bicycle_pa":"stands","capacity":2,"covered":"no","fee":"","operator":"","nameSource":"junction"},"sourceId":"osm"},{"id":"osm:node:12293756806","latitude":51.8700059,"longitude":0.1597912,"name":"Apton Road near Potter Street","properties":{"access":"unknown","bicycle_pa":"wall_loops","capacity":3,"covered":"yes","fee":"","operator":"","nameSource":"junction"},"sourceId":"osm"},{"id":"osm:node:12293804644","latitude":51.8686574,"longitude":0.1606087,"name":"South Street near Riverside Walk","properties":{"access":"unknown","bicycle_pa":"stands","capacity":2,"covered":"no","fee":"","operator":"","nameSource":"junction"},"sourceId":"osm"},{"id":"osm:node:12293805554","latitude":51.868702,"longitude":0.1606043,"name":"South Street near Nails Lane","properties":{"access":"unknown","bicycle_pa":"stands","capacity":2,"covered":"no","fee":"","operator":"","nameSource":"junction"},"sourceId":"osm"},{"id":"osm:node:12293807964","latitude":51.8687507,"longitude":0.1606864,"name":"South Street near Nails Lane","properties":{"access":"unknown","bicycle_pa":"stands","capacity":2,"covered":"no","fee":"","operator":"","nameSource":"junction"},"sourceId":"osm"},{"id":"osm:node:12293814258","latitude":51.8690159,"longitude":0.1606207,"name":"Nails Lane near South Street","properties":{"access":"unknown","bicycle_pa":"stands","capacity":2,"covered":"no","fee":"","operator":"","nameSource":"junction"},"sourceId":"osm"},{"id":"osm:node:12293814585","latitude":51.8688464,"longitude":0.1606888,"name":"South Street near Nails Lane","properties":{"access":"unknown","bicycle_pa":"stands","capacity":2,"covered":"no","fee":"","operator":"","nameSource":"junction"},"sourceId":"osm"},{"id":"osm:node:12293818015","latitude":51.8697813,"longitude":0.1601013,"name":"South Street near The Dells","properties":{"access":"unknown","bicycle_pa":"stands","capacity":2,"covered":"no","fee":"","operator":"","nameSource":"junction"},"sourceId":"osm"},{"id":"osm:node:12304987358","latitude":51.8709675,"longitude":0.1592256,"name":"Palmers Lane near Potter Street","properties":{"access":"unknown","bicycle_pa":"stands","capacity":2,"covered":"no","fee":"","operator":"","nameSource":"junction"},"sourceId":"osm"},{"id":"osm:node:12304990296","latitude":51.870938,"longitude":0.1586383,"name":"Market Square near High Street","properties":{"access":"unknown","bicycle_pa":"stands","capacity":2,"covered":"no","fee":"","operator":"","nameSource":"junction"},"sourceId":"osm"},{"id":"osm:node:12305028072","latitude":51.8711936,"longitude":0.1585028,"name":"Market Square near High Street","properties":{"access":"unknown","bicycle_pa":"stands","capacity":2,"covered":"no","fee":"","operator":"","nameSource":"junction"},"sourceId":"osm"},{"id":"osm:node:12305032310","latitude":51.8710497,"longitude":0.1585683,"name":"Market Square near High Street","properties":{"access":"unknown","bicycle_pa":"stands","capacity":2,"covered":"no","fee":"","operator":"","nameSource":"junction"},"sourceId":"osm"},{"id":"osm:node:12394903116","latitude":51.8748606,"longitude":0.1360409,"name":"Lancaster Way by Johnsons","properties":{"access":"unknown","bicycle_pa":"stands","capacity":8,"covered":"yes","fee":"","operator":"","nameSource":"landmark"},"sourceId":"osm"},{"id":"osm:node:12864958767","latitude":51.8615788,"longitude":0.1555498,"name":"Norfolk Way near Elizabeth Road","properties":{"access":"unknown","bicycle_pa":"stands","capacity":4,"covered":"no","fee":"","operator":"","nameSource":"junction"},"sourceId":"osm"},{"id":"osm:node:13094397064","latitude":51.870919,"longitude":0.1595084,"name":"Potter Street near Palmers Lane","properties":{"access":"unknown","bicycle_pa":"stands","capacity":1,"covered":"no","fee":"","operator":"","nameSource":"junction"},"sourceId":"osm"},{"id":"osm:node:13169487594","latitude":51.883069,"longitude":0.1716372,"name":"Stansted Road cycle parking","properties":{"access":"unknown","bicycle_pa":"","capacity":0,"covered":"","fee":"","operator":"","nameSource":"street"},"sourceId":"osm"},{"id":"osm:node:5291240848","latitude":51.8874642,"longitude":0.1719046,"name":"Hazel End Road cycle parking","properties":{"access":"unknown","bicycle_pa":"stands","capacity":6,"covered":"no","fee":"","operator":"","nameSource":"street"},"sourceId":"osm"},{"id":"osm:node:7924113765","latitude":51.8746649,"longitude":0.1351989,"name":"Lancaster Way near Burghley Avenue","properties":{"access":"unknown","bicycle_pa":"stands","capacity":5,"covered":"yes","fee":"","operator":"","nameSource":"junction"},"sourceId":"osm"},{"id":"osm:node:8681228545","latitude":51.8671147,"longitude":0.164744,"name":"CyclePark PLUS","properties":{"access":"unknown","bicycle_pa":"stands","capacity":0,"covered":"yes","fee":"","operator":"","nameSource":"source"},"sourceId":"osm"},{"id":"osm:node:8882768628","latitude":51.8632439,"longitude":0.1544884,"name":"Knights Row near Waytemore Road","properties":{"access":"unknown","bicycle_pa":"stands","capacity":10,"covered":"no","fee":"","operator":"","nameSource":"junction"},"sourceId":"osm"},{"id":"osm:node:9297901004","latitude":51.8765887,"longitude":0.1613468,"name":"Stane Close cycle parking","properties":{"access":"unknown","bicycle_pa":"stands","capacity":64,"covered":"no","fee":"","operator":"","nameSource":"street"},"sourceId":"osm"},{"id":"osm:node:9297901006","latitude":51.8768637,"longitude":0.1617639,"name":"Levi-Scot cycle parking","properties":{"access":"unknown","bicycle_pa":"stands","capacity":48,"covered":"yes","fee":"","operator":"","nameSource":"landmark"},"sourceId":"osm"},{"id":"osm:node:9371333858","latitude":51.8745999,"longitude":0.135297,"name":"Lancaster Way near Burghley Avenue","properties":{"access":"unknown","bicycle_pa":"stands","capacity":0,"covered":"","fee":"","operator":"","nameSource":"junction"},"sourceId":"osm"},{"id":"osm:node:9385773874","latitude":51.8673873,"longitude":0.1625944,"name":"Anchor Street near Station Road","properties":{"access":"unknown","bicycle_pa":"stands","capacity":0,"covered":"","fee":"","operator":"","nameSource":"junction"},"sourceId":"osm"},{"id":"osm:node:9385773875","latitude":51.8673815,"longitude":0.1626614,"name":"Anchor Street near Station Road","properties":{"access":"unknown","bicycle_pa":"stands","capacity":0,"covered":"","fee":"","operator":"","nameSource":"junction"},"sourceId":"osm"},{"id":"osm:node:9773743884","latitude":51.852341,"longitude":0.1557383,"name":"Atherton Close near Ellis Drive","properties":{"access":"unknown","bicycle_pa":"stands","capacity":0,"covered":"","fee":"","operator":"","nameSource":"junction"},"sourceId":"osm"},{"id":"osm:node:9984151217","latitude":51.8708711,"longitude":0.1614575,"name":"The Causeway by Bishops Stortford Library","properties":{"access":"unknown","bicycle_pa":"stands","capacity":0,"covered":"no","fee":"","operator":"","nameSource":"landmark"},"sourceId":"osm"},{"id":"osm:way:1244767368","latitude":51.879565160000006,"longitude":0.14503918,"name":"Rainbird Road near Cole Way","properties":{"access":"unknown","bicycle_pa":"shed","capacity":0,"covered":"yes","fee":"no","operator":"","nameSource":"junction"},"sourceId":"osm"},{"id":"osm:way:1266581514","latitude":51.879368320000005,"longitude":0.14499573999999998,"name":"Swinscoe Drive near Rainbird Road","properties":{"access":"unknown","bicycle_pa":"shed","capacity":0,"covered":"yes","fee":"no","operator":"","nameSource":"junction"},"sourceId":"osm"},{"id":"osm:way:1362390111","latitude":51.84946566,"longitude":0.15184128000000002,"name":"Thorley Footpath 1 cycle parking","properties":{"access":"unknown","bicycle_pa":"two-tier","capacity":0,"covered":"yes","fee":"","operator":"","nameSource":"street"},"sourceId":"osm"},{"id":"osm:way:1452231720","latitude":51.88477107999999,"longitude":0.15209335999999998,"name":"Newland Avenue cycle parking","properties":{"access":"unknown","bicycle_pa":"","capacity":0,"covered":"yes","fee":"","operator":"","nameSource":"street"},"sourceId":"osm"},{"id":"osm:way:1452231721","latitude":51.88468666,"longitude":0.15210142,"name":"McDowell Street cycle parking","properties":{"access":"unknown","bicycle_pa":"","capacity":0,"covered":"yes","fee":"","operator":"","nameSource":"street"},"sourceId":"osm"},{"id":"osm:way:1452231722","latitude":51.88461050000001,"longitude":0.15211214,"name":"McDowell Street cycle parking","properties":{"access":"unknown","bicycle_pa":"","capacity":0,"covered":"yes","fee":"","operator":"","nameSource":"street"},"sourceId":"osm"},{"id":"osm:way:1456754092","latitude":51.86544256,"longitude":0.16365774,"name":"Bishop's Stortford Footpath 42 cycle parking","properties":{"access":"unknown","bicycle_pa":"rack","capacity":16,"covered":"no","fee":"no","operator":"","nameSource":"street"},"sourceId":"osm"},{"id":"osm:way:894757583","latitude":51.88665355,"longitude":0.17067593333333334,"name":"Hazel End Road near Cursoner Avenue","properties":{"access":"yes","bicycle_pa":"stands","capacity":14,"covered":"no","fee":"","operator":"","nameSource":"junction"},"sourceId":"osm"},{"id":"osm:way:933659188","latitude":51.84836438,"longitude":0.14197040000000002,"name":"Thorley Bridleway 12 near Thorley Bridleway 10","properties":{"access":"unknown","bicycle_pa":"","capacity":0,"covered":"yes","fee":"","operator":"","nameSource":"junction"},"sourceId":"osm"},{"id":"osm:way:967689985","latitude":51.877089160000004,"longitude":0.1368452,"name":"Franklin Street near Newland Avenue","properties":{"access":"unknown","bicycle_pa":"stands","capacity":0,"covered":"yes","fee":"no","operator":"","nameSource":"junction"},"sourceId":"osm"}],"schemaVersion":2}
