{"key":"12/2047/1362","points":[{"categories":["repair"],"id":"osm:node:10219842195","latitude":51.4977332,"longitude":-0.04755,"name":"Bicycle repair station","properties":{"fee":"no","servicePump":"yes","serviceRental":"no","serviceRepair":"yes","serviceTools":"yes"},"sourceId":"osm"},{"categories":["shop"],"id":"osm:node:10259345989","latitude":51.457086,"longitude":-0.0139574,"name":"The Cyclery Lewisham","properties":{},"sourceId":"osm"},{"categories":["hire"],"id":"osm:node:10270470487","latitude":51.4922246,"longitude":-0.0624653,"name":"The Blue","properties":{"brand":"Santander Cycles","network":"tfl_cycle_hire","operator":"Serco"},"sourceId":"osm"},{"categories":["hire"],"id":"osm:node:10270470488","latitude":51.4955958,"longitude":-0.0788623,"name":"Crimscott Street","properties":{"brand":"Santander Cycles","network":"tfl_cycle_hire","operator":"Serco"},"sourceId":"osm"},{"categories":["hire"],"id":"osm:node:10270470489","latitude":51.4927018,"longitude":-0.0724143,"name":"Harris Academy","properties":{"brand":"Santander Cycles","network":"tfl_cycle_hire","operator":"Serco"},"sourceId":"osm"},{"categories":["hire"],"id":"osm:node:10270470490","latitude":51.4954049,"longitude":-0.0616968,"name":"Clements Road","properties":{"brand":"Santander Cycles","network":"tfl_cycle_hire","operator":"Serco"},"sourceId":"osm"},{"categories":["hire"],"id":"osm:node:10270470491","latitude":51.488096,"longitude":-0.0578064,"name":"South Bermondsey Station","properties":{"brand":"Santander Cycles","network":"tfl_cycle_hire","operator":"Serco"},"sourceId":"osm"},{"categories":["shop","repair"],"id":"osm:node:10745161066","latitude":51.4958303,"longitude":-0.046942,"name":"The Charity Bike Shop","properties":{"openingHours":"Mo-Sa 10:00-18:00; Su off","operator":"Cyclists Fighting Cancer","servicePump":"yes","serviceRepair":"yes","serviceTools":"yes"},"sourceId":"osm"},{"categories":["shop","repair"],"id":"osm:node:11167057082","latitude":51.5006089,"longitude":-0.0739944,"name":"NipNip Tower Bridge","properties":{"operator":"NipNip","servicePump":"yes","serviceRepair":"yes"},"sourceId":"osm"},{"categories":["hire"],"id":"osm:node:11799883769","latitude":51.5086145,"longitude":-0.0032154,"name":"Brompton","properties":{"operator":"Brompton"},"sourceId":"osm"},{"categories":["shop","repair"],"id":"osm:node:11802018721","latitude":51.4692682,"longitude":-0.0717522,"name":"Seabass Cycles","properties":{"serviceRepair":"yes"},"sourceId":"osm"},{"categories":["shop"],"id":"osm:node:12989995692","latitude":51.4596945,"longitude":-0.0119526,"name":"XO Bikes","properties":{},"sourceId":"osm"},{"categories":["shop"],"id":"osm:node:13596166968","latitude":51.4861045,"longitude":-0.0723289,"name":"Charged Electrics","properties":{},"sourceId":"osm"},{"categories":["shop"],"id":"osm:node:13701638084","latitude":51.4926328,"longitude":-0.0464319,"name":"LowKey Cycles","properties":{"openingHours":"Mo,Fr 11:00-19:00; Tu-Th 10:00-19:00","servicePump":"no"},"sourceId":"osm"},{"categories":["shop","repair"],"id":"osm:node:1387300399","latitude":51.4812546,"longitude":-0.019822,"name":"Cycles UK","properties":{"openingHours":"Mo-Sa 10:00-18:30; Su 10:00-16:00","serviceRepair":"yes"},"sourceId":"osm"},{"categories":["hire"],"id":"osm:node:1631976807","latitude":51.5057967,"longitude":-0.0705771,"name":"St. Katharine's Way","properties":{"brand":"Santander Cycles","network":"tfl_cycle_hire","operator":"Serco"},"sourceId":"osm"},{"categories":["hire"],"id":"osm:node:1666672999","latitude":51.4876073,"longitude":-0.0214425,"name":"Napier Avenue","properties":{"brand":"Santander Cycles","network":"tfl_cycle_hire","operator":"Serco"},"sourceId":"osm"},{"categories":["shop","repair"],"id":"osm:node:1686333122","latitude":51.4965052,"longitude":-0.0826104,"name":"Machine","properties":{"servicePump":"yes","serviceRepair":"yes"},"sourceId":"osm"},{"categories":["hire"],"id":"osm:node:1693801788","latitude":51.5020093,"longitude":-0.0164504,"name":"South Quay East","properties":{"brand":"Santander Cycles","network":"tfl_cycle_hire","operator":"Serco"},"sourceId":"osm"},{"categories":["hire"],"id":"osm:node:1812472437","latitude":51.5031099,"longitude":-0.0176538,"name":"Upper Bank Street","properties":{"brand":"Santander Cycles","network":"tfl_cycle_hire","operator":"Serco"},"sourceId":"osm"},{"categories":["hire"],"id":"osm:node:2024044310","latitude":51.4960637,"longitude":-0.0193831,"name":"Millharbour","properties":{"brand":"Santander Cycles","network":"tfl_cycle_hire","operator":"Serco"},"sourceId":"osm"},{"categories":["hire"],"id":"osm:node:2028840378","latitude":51.4944229,"longitude":-0.0143504,"name":"East Ferry Road","properties":{"brand":"Santander Cycles","network":"tfl_cycle_hire","operator":"Serco"},"sourceId":"osm"},{"categories":["hire"],"id":"osm:node:2028840379","latitude":51.4908014,"longitude":-0.0146604,"name":"Mudchute DLR","properties":{"brand":"Santander Cycles","network":"tfl_cycle_hire","operator":"Serco"},"sourceId":"osm"},{"categories":["hire"],"id":"osm:node:2324723803","latitude":51.487177,"longitude":-0.0086532,"name":"Saunders Ness Road","properties":{"brand":"Santander Cycles","network":"tfl_cycle_hire","operator":"Serco"},"sourceId":"osm"},{"categories":["hire"],"id":"osm:node:2452252819","latitude":51.5071392,"longitude":-0.0670444,"name":"Nesham Street","properties":{"brand":"Santander Cycles","network":"tfl_cycle_hire","operator":"Serco"},"sourceId":"osm"},{"categories":["shop"],"id":"osm:node:247956793","latitude":51.506204,"longitude":-0.0877234,"name":"Evans Cycles","properties":{"brand":"Evans Cycles","openingHours":"Mo-Fr 08:00-20:00; Sa 09:30-18:00; Su 11:00-17:00","servicePump":"yes","serviceRepair":"no"},"sourceId":"osm"},{"categories":["shop","repair","hire"],"id":"osm:node:247957484","latitude":51.5061488,"longitude":-0.08721,"name":"On Your Bike","properties":{"openingHours":"Mo-Fr 07:30-19:30; Sa 10:00-18:00","serviceRental":"yes","serviceRepair":"yes"},"sourceId":"osm"},{"categories":["hire"],"id":"osm:node:2748387557","latitude":51.4935438,"longitude":-0.0076602,"name":"Jubilee Crescent","properties":{"brand":"Santander Cycles","network":"tfl_cycle_hire","operator":"Serco"},"sourceId":"osm"},{"categories":["hire"],"id":"osm:node:2904986613","latitude":51.4963933,"longitude":-0.0093967,"name":"St. John's Park","properties":{"brand":"Santander Cycles","network":"tfl_cycle_hire","operator":"Serco"},"sourceId":"osm"},{"categories":["hire"],"id":"osm:node:3037119959","latitude":51.46991,"longitude":-0.0692352,"name":"Cycle Hub","properties":{"operator":"Brompton Dock"},"sourceId":"osm"},{"categories":["hire"],"id":"osm:node:3147207127","latitude":51.5048555,"longitude":-0.0575978,"name":"Wapping Lane","properties":{"brand":"Santander Cycles","network":"tfl_cycle_hire","operator":"Serco"},"sourceId":"osm"},{"categories":["shop"],"id":"osm:node:3601428911","latitude":51.4568039,"longitude":-0.019605,"name":"Ladywell Village Cycles","properties":{"openingHours":"Mo-Sa 09:00-18:00","operator":"Ladywell Village Cycles"},"sourceId":"osm"},{"categories":["hire"],"id":"osm:node:3655633118","latitude":51.5062687,"longitude":-0.0230081,"name":"Fisherman's Walk West","properties":{"brand":"Santander Cycles","network":"tfl_cycle_hire","operator":"Serco"},"sourceId":"osm"},{"categories":["hire"],"id":"osm:node:3655633119","latitude":51.5026474,"longitude":-0.0216621,"name":"Heron Quays DLR","properties":{"brand":"Santander Cycles","network":"tfl_cycle_hire","operator":"Serco"},"sourceId":"osm"},{"categories":["hire"],"id":"osm:node:3655633120","latitude":51.5032629,"longitude":-0.0083653,"name":"Lancaster Drive","properties":{"brand":"Santander Cycles","network":"tfl_cycle_hire","operator":"Serco"},"sourceId":"osm"},{"categories":["hire"],"id":"osm:node:3655633121","latitude":51.499359,"longitude":-0.009203,"name":"Preston's Road","properties":{"brand":"Santander Cycles","network":"tfl_cycle_hire","operator":"Serco"},"sourceId":"osm"},{"categories":["hire"],"id":"osm:node:3655633122","latitude":51.4891046,"longitude":-0.0091729,"name":"Stebondale Street","properties":{"brand":"Santander Cycles","network":"tfl_cycle_hire","operator":"Serco"},"sourceId":"osm"},{"categories":["hire"],"id":"osm:node:3655633123","latitude":51.4911006,"longitude":-0.0189765,"name":"Spindrift Avenue","properties":{"brand":"Santander Cycles","network":"tfl_cycle_hire","operator":"Serco"},"sourceId":"osm"},{"categories":["hire"],"id":"osm:node:3655633124","latitude":51.4972891,"longitude":-0.0227878,"name":"Alpha Grove","properties":{"brand":"Santander Cycles","network":"tfl_cycle_hire","operator":"Serco"},"sourceId":"osm"},{"categories":["hire"],"id":"osm:node:3655634825","latitude":51.4990306,"longitude":-0.020052,"name":"Lightermans Road","properties":{"brand":"Santander Cycles","network":"tfl_cycle_hire","operator":"Serco"},"sourceId":"osm"},{"categories":["repair"],"id":"osm:node:3879235239","latitude":51.5029982,"longitude":-0.0875881,"name":"Bicycle repair station","properties":{"fee":"no","openingHours":"24/7","servicePump":"no"},"sourceId":"osm"},{"categories":["hire"],"id":"osm:node:4389041889","latitude":51.5021425,"longitude":-0.0835961,"name":"Snowsfields","properties":{"brand":"Santander Cycles","network":"tfl_cycle_hire","operator":"Serco"},"sourceId":"osm"},{"categories":["hire"],"id":"osm:node:4595511681","latitude":51.5086508,"longitude":-0.0650376,"name":"Pennington Street","properties":{"brand":"Santander Cycles","network":"tfl_cycle_hire","operator":"Serco"},"sourceId":"osm"},{"categories":["hire"],"id":"osm:node:4635513331","latitude":51.5056423,"longitude":-0.0277331,"name":"Westferry Circus","properties":{"brand":"Santander Cycles","network":"tfl_cycle_hire","operator":"Serco"},"sourceId":"osm"},{"categories":["repair"],"id":"osm:node:5829727355","latitude":51.474832,"longitude":-0.0357507,"name":"Bicycle repair station","properties":{"servicePump":"yes","serviceRepair":"yes","serviceTools":"yes"},"sourceId":"osm"},{"categories":["hire"],"id":"osm:node:6472846807","latitude":51.5056681,"longitude":-0.0161085,"name":"Import Dock","properties":{"brand":"Santander Cycles","fee":"yes","network":"tfl_cycle_hire","operator":"Serco"},"sourceId":"osm"},{"categories":["repair"],"id":"osm:node:6521516268","latitude":51.4827518,"longitude":-0.0397124,"name":"Bicycle repair station","properties":{"fee":"no","openingHours":"24/7","servicePump":"yes","serviceRepair":"yes","serviceTools":"yes"},"sourceId":"osm"},{"categories":["repair"],"id":"osm:node:6521516269","latitude":51.4810346,"longitude":-0.0310984,"name":"Bicycle repair station","properties":{"fee":"no","openingHours":"24/7","servicePump":"yes"},"sourceId":"osm"},{"categories":["hire"],"id":"osm:node:6711365858","latitude":51.5062866,"longitude":-0.0872533,"name":"Duke Street Hill","properties":{"brand":"Santander Cycles","network":"tfl_cycle_hire","operator":"Serco"},"sourceId":"osm"},{"categories":["hire"],"id":"osm:node:6865223991","latitude":51.5069685,"longitude":-0.0586475,"name":"Reardon Street","properties":{"brand":"Santander Cycles","network":"tfl_cycle_hire","operator":"Serco"},"sourceId":"osm"},{"categories":["hire"],"id":"osm:node:6865264344","latitude":51.508469,"longitude":-0.0551512,"name":"Garnet Street","properties":{"brand":"Santander Cycles","network":"tfl_cycle_hire","operator":"Serco"},"sourceId":"osm"},{"categories":["hire"],"id":"osm:node:6907279833","latitude":51.5047587,"longitude":-0.063525,"name":"Hermitage Court","properties":{"brand":"Santander Cycles","network":"tfl_cycle_hire","operator":"Serco"},"sourceId":"osm"},{"categories":["hire"],"id":"osm:node:7007319909","latitude":51.4980016,"longitude":-0.0634584,"name":"Bermondsey Station","properties":{"brand":"Santander Cycles","network":"tfl_cycle_hire","operator":"Serco"},"sourceId":"osm"},{"categories":["hire"],"id":"osm:node:7330673485","latitude":51.5008272,"longitude":-0.0746486,"name":"Tower Wharf","properties":{"brand":"Santander Cycles","network":"tfl_cycle_hire","operator":"Serco"},"sourceId":"osm"},{"categories":["hire"],"id":"osm:node:7330673585","latitude":51.4985831,"longitude":-0.0689381,"name":"George Row","properties":{"brand":"Santander Cycles","network":"tfl_cycle_hire","operator":"Serco"},"sourceId":"osm"},{"categories":["hire"],"id":"osm:node:7330673586","latitude":51.4984711,"longitude":-0.0490974,"name":"Canada Water Station","properties":{"brand":"Santander Cycles","network":"tfl_cycle_hire","operator":"Serco"},"sourceId":"osm"},{"categories":["hire"],"id":"osm:node:7330673685","latitude":51.4991778,"longitude":-0.055794,"name":"Rotherhithe Roundabout","properties":{"brand":"Santander Cycles","network":"tfl_cycle_hire","operator":"Serco"},"sourceId":"osm"},{"categories":["repair"],"id":"osm:node:7761614067","latitude":51.4579315,"longitude":-0.0389181,"name":"Bicycle repair station","properties":{},"sourceId":"osm"},{"categories":["shop","repair"],"id":"osm:node:7904704574","latitude":51.5061705,"longitude":-0.0259742,"name":"NipNip","properties":{"openingHours":"Mo-Fr 08:00-18:00; Sa 08:30-17:30","serviceRepair":"yes"},"sourceId":"osm"},{"categories":["hire"],"id":"osm:node:833725050","latitude":51.5005902,"longitude":-0.078626,"name":"Tanner Street","properties":{"brand":"Santander Cycles","network":"tfl_cycle_hire","operator":"Serco"},"sourceId":"osm"},{"categories":["hire"],"id":"osm:node:834364172","latitude":51.5034278,"longitude":-0.0795057,"name":"Tooley Street","properties":{"brand":"Santander Cycles","network":"tfl_cycle_hire","operator":"Serco"},"sourceId":"osm"},{"categories":["hire"],"id":"osm:node:834671469","latitude":51.4950715,"longitude":-0.0859437,"name":"Bricklayers Arms","properties":{"brand":"Santander Cycles","network":"tfl_cycle_hire","operator":"Serco"},"sourceId":"osm"},{"categories":["hire"],"id":"osm:node:836094160","latitude":51.4977886,"longitude":-0.0816649,"name":"Bermondsey Street","properties":{"brand":"Santander Cycles","network":"tfl_cycle_hire","operator":"Serco"},"sourceId":"osm"},{"categories":["hire"],"id":"osm:node:836876287","latitude":51.4990306,"longitude":-0.0855933,"name":"Long Lane","properties":{"brand":"Santander Cycles","network":"tfl_cycle_hire","operator":"Serco"},"sourceId":"osm"},{"categories":["hire"],"id":"osm:node:837172153","latitude":51.50218,"longitude":-0.0742235,"name":"Curlew Street","properties":{"brand":"Santander Cycles","network":"tfl_cycle_hire","operator":"Serco"},"sourceId":"osm"},{"categories":["hire"],"id":"osm:node:848611702","latitude":51.5009011,"longitude":-0.0834731,"name":"Tyers Gate","properties":{"brand":"Santander Cycles","network":"tfl_cycle_hire","operator":"Serco"},"sourceId":"osm"},{"categories":["shop","repair"],"id":"osm:node:8950915317","latitude":51.4713101,"longitude":-0.030426,"name":"Parts and Labour Cycles","properties":{"openingHours":"Tu-Fr 09:00-18:00, Sa 10:00-18:00","servicePump":"yes","serviceRepair":"yes"},"sourceId":"osm"},{"categories":["shop"],"id":"osm:node:9429526671","latitude":51.4985969,"longitude":-0.0595149,"name":"Southwark Cycles","properties":{"openingHours":"Mo-Fr 09:00-19:00; Sa 09:00-18:30; Su 11:00-17:00","servicePump":"yes"},"sourceId":"osm"},{"categories":["shop","repair"],"id":"osm:way:1205250863","latitude":51.47645668,"longitude":-0.021290540000000004,"name":"Evelyn Wharf Cycles","properties":{"serviceRepair":"yes"},"sourceId":"osm"},{"categories":["shop"],"id":"osm:way:152844268","latitude":51.466167142857145,"longitude":-0.0571822,"name":"Rat Race Cycles","properties":{},"sourceId":"osm"},{"categories":["shop"],"id":"osm:way:284450422","latitude":51.477773766666665,"longitude":-0.06486510000000001,"name":"Jozef's Cycles & Repairs","properties":{},"sourceId":"osm"},{"categories":["hire"],"id":"osm:way:403615731","latitude":51.504788340000005,"longitude":-0.06769246,"name":"Wapping High Street","properties":{"brand":"Santander Cycles","network":"tfl_cycle_hire","operator":"Serco"},"sourceId":"osm"},{"categories":["shop","repair"],"id":"osm:way:71378222","latitude":51.46210588,"longitude":-0.06965166,"name":"Balfe's Bikes","properties":{"brand":"Balfe's Bikes","servicePump":"yes","serviceRepair":"yes"},"sourceId":"osm"},{"categories":["repair"],"id":"osm:way:729958296","latitude":51.49774334,"longitude":-0.04740066,"name":"Decathlon","properties":{"brand":"Decathlon","openingHours":"Mo-Sa 09:00-20:00;Su 11:00-17:00;PH 9:00-18:00","serviceRepair":"yes"},"sourceId":"osm"},{"categories":["shop"],"id":"osm:way:73423349","latitude":51.473299100000006,"longitude":-0.07153772,"name":"A. E. Wilson","properties":{},"sourceId":"osm"}],"schemaVersion":2}
