{"key":"12/2047/1374","points":[{"categories":["repair"],"id":"osm:node:10032147613","latitude":50.8020962,"longitude":-0.0561289,"name":"Bicycle repair station","properties":{"fee":"no","servicePump":"yes","serviceTools":"yes"},"sourceId":"osm"},{"categories":["hire"],"id":"osm:node:11945657687","latitude":50.8357967,"longitude":-0.0796182,"name":"Warren Road","properties":{"fee":"yes","network":"btnbikeshare","website":"https://beryl.cc/scheme/brighton-and-hove"},"sourceId":"osm"},{"categories":["hire"],"id":"osm:node:11947503986","latitude":50.801958,"longitude":-0.0417358,"name":"Saltdean Lido","properties":{"fee":"yes","network":"btnbikeshare","website":"https://beryl.cc/scheme/brighton"},"sourceId":"osm"},{"categories":["hire"],"id":"osm:node:8949335433","latitude":50.80152,"longitude":-0.0415806,"name":"Saltdean Lido","properties":{"fee":"yes","network":"btnbikeshare","website":"https://beryl.cc/scheme/brighton"},"sourceId":"osm"},{"categories":["hire"],"id":"osm:node:8949335434","latitude":50.8031446,"longitude":-0.0573979,"name":"Rottingdean White Horse","properties":{"fee":"yes","network":"btnbikeshare","website":"https://beryl.cc/scheme/brighton"},"sourceId":"osm"}],"schemaVersion":2}
