{"key":"12/2047/1550","points":[{"categories":["repair"],"id":"osm:node:10604675693","latitude":39.9914696,"longitude":-0.0301179,"name":"Bicycle repair station","properties":{"fee":"no","servicePump":"yes","serviceTools":"yes"},"sourceId":"osm"},{"categories":["shop"],"id":"osm:node:11159156595","latitude":39.9902012,"longitude":-0.0525224,"name":"Escapa Castellón-Monpedal","properties":{},"sourceId":"osm"},{"categories":["shop"],"id":"osm:node:11990236537","latitude":39.9931223,"longitude":-0.0342231,"name":"Cicles AB","properties":{},"sourceId":"osm"},{"categories":["hire"],"id":"osm:node:12250212385","latitude":39.9841671,"longitude":-0.0379911,"name":"Bicicas 41","properties":{"brand":"Bicicas","network":"Bicicas","operator":"Ajuntament Castelló, Mobilitat"},"sourceId":"osm"},{"categories":["hire"],"id":"osm:node:12397550154","latitude":39.9863441,"longitude":-0.0367831,"name":"Cycle hire","properties":{},"sourceId":"osm"},{"categories":["hire"],"id":"osm:node:1276922489","latitude":39.9911557,"longitude":-0.0362875,"name":"Bicicas San Roque","properties":{"network":"Bicicas","openingHours":"24/7","operator":"Ajuntament Castelló, Mobilitat"},"sourceId":"osm"},{"categories":["shop"],"id":"osm:node:12881396469","latitude":39.9925248,"longitude":-0.0482675,"name":"Cicles AB","properties":{"openingHours":"Mo-Su 09:00-20:00"},"sourceId":"osm"},{"categories":["hire"],"id":"osm:node:1320952272","latitude":39.9825891,"longitude":-0.0496251,"name":"Bicicas Gran Vía","properties":{"brand":"Bicicas","network":"Bicicas","openingHours":"24/7","operator":"Ajuntament Castelló, Mobilitat"},"sourceId":"osm"},{"categories":["hire"],"id":"osm:node:1320952277","latitude":39.9795101,"longitude":-0.0304495,"name":"Bicicas Fernando el Católico","properties":{"brand":"Bicicas","network":"Bicicas","openingHours":"24/7","operator":"Ajuntament Castelló, Mobilitat"},"sourceId":"osm"},{"categories":["hire"],"id":"osm:node:1320952287","latitude":39.9803607,"longitude":-0.0462318,"name":"Bicicas Parque del Oeste","properties":{"brand":"Bicicas","network":"Bicicas","openingHours":"24/7","operator":"Ajuntament Castelló, Mobilitat"},"sourceId":"osm"},{"categories":["hire"],"id":"osm:node:1320952289","latitude":39.9848478,"longitude":-0.0295913,"name":"Bicicas Avenida del Mar","properties":{"brand":"Bicicas","fee":"yes","network":"Bicicas","openingHours":"24/7","operator":"Ajuntament Castelló, Mobilitat"},"sourceId":"osm"},{"categories":["hire"],"id":"osm:node:1320952294","latitude":39.9788494,"longitude":-0.0526215,"name":"Bicicas Río Adra","properties":{"brand":"Bicicas","network":"Bicicas","openingHours":"24/7","operator":"Ajuntament Castelló, Mobilitat"},"sourceId":"osm"},{"categories":["hire"],"id":"osm:node:1320952300","latitude":39.9914722,"longitude":-0.0492318,"name":"Bicicas AvenidaVall d`Uxo - Cardenal Costa","properties":{"network":"Bicicas","openingHours":"24/7","operator":"Ajuntament Castelló, Mobilitat"},"sourceId":"osm"},{"categories":["repair"],"id":"osm:node:13906402456","latitude":39.9924211,"longitude":-0.0645279,"name":"Bicycle repair station","properties":{},"sourceId":"osm"},{"categories":["hire"],"id":"osm:node:1962274712","latitude":39.9928778,"longitude":-0.0674858,"name":"Bicicas Station 46 - UJI - ESTCE","properties":{"network":"Bicicas","openingHours":"24/7","operator":"Ajuntament Castelló, Mobilitat"},"sourceId":"osm"},{"categories":["hire"],"id":"osm:node:2252809248","latitude":39.9887642,"longitude":-0.0375215,"name":"Bicicas Plaza Clavé","properties":{"network":"Bicicas","openingHours":"24/7","operator":"Ajuntament Castelló, Mobilitat"},"sourceId":"osm"},{"categories":["hire"],"id":"osm:node:2872950662","latitude":39.994986,"longitude":-0.0672098,"name":"UJI - Facultad de Ciencias Jurídicas y Económicas","properties":{"brand":"Bicicas","network":"Bicicas","openingHours":"24/7","operator":"Ajuntament Castelló, Mobilitat"},"sourceId":"osm"},{"categories":["hire"],"id":"osm:node:388223131","latitude":39.9858723,"longitude":-0.038008,"name":"Bicicas Plaza de la Pescadería","properties":{"brand":"Bicicas","network":"Bicicas","openingHours":"24/7","operator":"Ajuntament Castelló, Mobilitat"},"sourceId":"osm"},{"categories":["hire"],"id":"osm:node:388223251","latitude":39.9947489,"longitude":-0.0373606,"name":"Bicicas Plaza Teodoro Izquierdo","properties":{"network":"Bicicas","openingHours":"24/7","operator":"Ajuntament Castelló, Mobilitat"},"sourceId":"osm"},{"categories":["hire"],"id":"osm:node:388275650","latitude":39.9921039,"longitude":-0.0337387,"name":"Bicicas Primer Molí","properties":{"brand":"Bicicas","network":"Bicicas","openingHours":"24/7","operator":"Ajuntament Castelló, Mobilitat"},"sourceId":"osm"},{"categories":["hire"],"id":"osm:node:388275665","latitude":39.9838196,"longitude":-0.0353189,"name":"Bicicas Plaça Borrull","properties":{"network":"Bicicas","openingHours":"24/7","operator":"Ajuntament Castelló, Mobilitat"},"sourceId":"osm"},{"categories":["hire"],"id":"osm:node:390927234","latitude":39.987578,"longitude":-0.0528483,"name":"Bicicas Estación de Ferrocarril","properties":{"brand":"Bicicas","network":"Bicicas","openingHours":"24/7","operator":"Ajuntament Castelló, Mobilitat"},"sourceId":"osm"},{"categories":["hire"],"id":"osm:node:392063775","latitude":40.0016938,"longitude":-0.0419806,"name":"Bicicas Hospital General","properties":{"brand":"Bicicas","network":"Bicicas","openingHours":"24/7","operator":"Ajuntament Castelló, Mobilitat"},"sourceId":"osm"},{"categories":["hire"],"id":"osm:node:4326015552","latitude":39.9878643,"longitude":-0.0430987,"name":"Bicicas Station 53 - Farola","properties":{"brand":"Bicicas","network":"Bicicas","openingHours":"24/7","operator":"Ajuntament Castelló, Mobilitat"},"sourceId":"osm"},{"categories":["hire"],"id":"osm:node:5161774784","latitude":39.9782033,"longitude":-0.0420924,"name":"Bicicas Plaza Sequiol","properties":{"brand":"Bicicas","network":"Bicicas","openingHours":"24/7","operator":"Ajuntament Castelló, Mobilitat"},"sourceId":"osm"},{"categories":["hire"],"id":"osm:node:5161774788","latitude":39.9937173,"longitude":-0.0733477,"name":"Bicicas UJI - PayNoPain","properties":{"network":"Bicicas","openingHours":"24/7","operator":"Ajuntament Castelló, Mobilitat"},"sourceId":"osm"},{"categories":["hire"],"id":"osm:node:5161774789","latitude":39.9835903,"longitude":-0.0225818,"name":"Bicicas Av. del Mar - Recinto de Ferias","properties":{"brand":"Bicicas","network":"Bicicas","openingHours":"24/7","operator":"Ajuntament Castelló, Mobilitat"},"sourceId":"osm"},{"categories":["hire"],"id":"osm:node:5161774790","latitude":40.0007055,"longitude":-0.0463392,"name":"Bicicas San Agustín","properties":{"brand":"Bicicas","network":"Bicicas","openingHours":"24/7","operator":"Ajuntament Castelló, Mobilitat"},"sourceId":"osm"},{"categories":["hire"],"id":"osm:node:5161774791","latitude":39.9917082,"longitude":-0.0305252,"name":"Bicicas Tombatossals","properties":{"brand":"Bicicas","network":"Bicicas","openingHours":"24/7","operator":"Ajuntament Castelló, Mobilitat"},"sourceId":"osm"},{"categories":["hire"],"id":"osm:node:591800048","latitude":39.9874865,"longitude":-0.0473656,"name":"Bicicas Tenencia Alcaldia Oeste","properties":{"brand":"Bicicas","network":"Bicicas","openingHours":"24/7","operator":"Ajuntament Castelló, Mobilitat"},"sourceId":"osm"},{"categories":["hire"],"id":"osm:node:591800052","latitude":39.981608,"longitude":-0.0261361,"name":"Bicicas Ginjols","properties":{"brand":"Bicicas","network":"Bicicas","openingHours":"24/7","operator":"Ajuntament Castelló, Mobilitat"},"sourceId":"osm"},{"categories":["hire"],"id":"osm:node:591800054","latitude":39.9944564,"longitude":-0.0699437,"name":"Bicicas Station 1 - Facultad de Ciencias Humanas y Sociales","properties":{"brand":"Bicicas","network":"Bicicas","openingHours":"24/7","operator":"Ajuntament Castelló, Mobilitat"},"sourceId":"osm"},{"categories":["hire"],"id":"osm:node:591800056","latitude":39.992547,"longitude":-0.064125,"name":"Bicicas Avenida Sos Baynat","properties":{"brand":"Bicicas","network":"Bicicas","openingHours":"24/7","operator":"Ajuntament Castelló, Mobilitat"},"sourceId":"osm"},{"categories":["hire"],"id":"osm:node:591800063","latitude":39.9911542,"longitude":-0.0440232,"name":"Bicicas Donoso Cortés","properties":{"network":"Bicicas","openingHours":"24/7","operator":"Ajuntament Castelló, Mobilitat"},"sourceId":"osm"},{"categories":["hire"],"id":"osm:node:5928918540","latitude":39.992521,"longitude":-0.0698717,"name":"59. UJI - FCS","properties":{"brand":"Bicicas","network":"Bicicas","operator":"Ajuntament Castelló, Mobilitat"},"sourceId":"osm"},{"categories":["hire"],"id":"osm:node:615813671","latitude":39.9813489,"longitude":-0.0641403,"name":"Bicicas Piscina Municipal","properties":{"network":"Bicicas","openingHours":"24/7","operator":"Ajuntament Castelló, Mobilitat"},"sourceId":"osm"},{"categories":["hire"],"id":"osm:node:615813679","latitude":39.9867731,"longitude":-0.05861,"name":"Bicicas Alcora","properties":{"brand":"Bicicas","network":"Bicicas","openingHours":"24/7","operator":"Ajuntament Castelló, Mobilitat"},"sourceId":"osm"},{"categories":["hire"],"id":"osm:node:615813682","latitude":39.9792299,"longitude":-0.0427486,"name":"Bicicas Plaza Botánico Calduch","properties":{"brand":"Bicicas","network":"Bicicas","openingHours":"24/7","operator":"Ajuntament Castelló, Mobilitat"},"sourceId":"osm"},{"categories":["hire"],"id":"osm:node:615813690","latitude":39.977971,"longitude":-0.0393489,"name":"Bicicas Parc Geòleg José Royo","properties":{"brand":"Bicicas","network":"Bicicas","openingHours":"24/7","operator":"Ajuntament Castelló, Mobilitat"},"sourceId":"osm"},{"categories":["hire"],"id":"osm:node:615813700","latitude":39.9794859,"longitude":-0.0347297,"name":"Bicicas Station 10 - Plaza Doctor Marañón","properties":{"brand":"Bicicas","network":"Bicicas","openingHours":"24/7","operator":"Ajuntament Castelló, Mobilitat"},"sourceId":"osm"},{"categories":["hire"],"id":"osm:node:615813704","latitude":39.9897174,"longitude":-0.0402686,"name":"Bicicas Plaza Maestrazgo","properties":{"network":"Bicicas","openingHours":"24/7","operator":"Ajuntament Castelló, Mobilitat"},"sourceId":"osm"},{"categories":["hire"],"id":"osm:node:615813708","latitude":39.9827535,"longitude":-0.0307807,"name":"Bicicas Museo Bellas Artes","properties":{"brand":"Bicicas","network":"Bicicas","openingHours":"24/7","operator":"Ajuntament Castelló, Mobilitat"},"sourceId":"osm"},{"categories":["hire"],"id":"osm:node:615813725","latitude":39.9882231,"longitude":-0.0301521,"name":"Bicicas Plaza Fernando Herrero Tejedor","properties":{"brand":"Bicicas","network":"Bicicas","openingHours":"24/7","operator":"Ajuntament Castelló, Mobilitat"},"sourceId":"osm"},{"categories":["hire"],"id":"osm:node:615813730","latitude":39.9910709,"longitude":-0.0578452,"name":"Bicicas Paseo de la Universidad","properties":{"brand":"Bicicas","network":"Bicicas","openingHours":"24/7","operator":"Ajuntament Castelló, Mobilitat"},"sourceId":"osm"},{"categories":["hire"],"id":"osm:node:618725101","latitude":39.988349,"longitude":-0.0335624,"name":"Bicicas Plaza Muralla Liberal","properties":{"brand":"Bicicas","network":"Bicicas","openingHours":"24/7","operator":"Ajuntament Castelló, Mobilitat"},"sourceId":"osm"},{"categories":["hire"],"id":"osm:node:621183606","latitude":39.9857321,"longitude":-0.0353499,"name":"Bicicas Plaza Cardona Vives","properties":{"brand":"Bicicas","network":"Bicicas","openingHours":"24/7","operator":"Ajuntament Castelló, Mobilitat"},"sourceId":"osm"},{"categories":["shop"],"id":"osm:node:6264090940","latitude":39.9822586,"longitude":-0.0429856,"name":"Rafael Abad, Castelló","properties":{},"sourceId":"osm"},{"categories":["hire"],"id":"osm:node:635927350","latitude":39.9860998,"longitude":-0.0411052,"name":"Bicicas Huerto Sogueros","properties":{"brand":"Bicicas","network":"Bicicas","openingHours":"24/7","operator":"Ajuntament Castelló, Mobilitat"},"sourceId":"osm"},{"categories":["hire"],"id":"osm:node:653382949","latitude":39.9876438,"longitude":-0.0397025,"name":"Bicicas Avenida del Rey","properties":{"brand":"Bicicas","network":"Bicicas","openingHours":"24/7","operator":"Ajuntament Castelló, Mobilitat"},"sourceId":"osm"},{"categories":["hire"],"id":"osm:node:656353946","latitude":39.9845781,"longitude":-0.0406628,"name":"Bicicas Plaza del Real","properties":{"brand":"Bicicas","network":"Bicicas","openingHours":"24/7","operator":"Ajuntament Castelló, Mobilitat"},"sourceId":"osm"},{"categories":["hire"],"id":"osm:node:660001463","latitude":39.9925529,"longitude":-0.060208,"name":"Bicicas Escuela Oficial de Idiomas","properties":{"brand":"Bicicas","network":"Bicicas","openingHours":"24/7","operator":"Ajuntament Castelló, Mobilitat"},"sourceId":"osm"},{"categories":["hire"],"id":"osm:node:660532001","latitude":39.9849416,"longitude":-0.0448741,"name":"Bicicas Hospital Provincial","properties":{"brand":"Bicicas","network":"Bicicas","openingHours":"24/7","operator":"Ajuntament Castelló, Mobilitat"},"sourceId":"osm"},{"categories":["hire"],"id":"osm:node:660532002","latitude":39.9885515,"longitude":-0.0471559,"name":"Bicicas Paseo Morella","properties":{"brand":"Bicicas","network":"Bicicas","openingHours":"24/7","operator":"Ajuntament Castelló, Mobilitat"},"sourceId":"osm"},{"categories":["hire"],"id":"osm:node:660735768","latitude":39.9874475,"longitude":-0.0265512,"name":"Bicicas Patronato de Deportes","properties":{"brand":"Bicicas","fee":"yes","network":"Bicicas","openingHours":"24/7","operator":"Ajuntament Castelló, Mobilitat"},"sourceId":"osm"}],"schemaVersion":2}
