{"key":"12/2047/1571","points":[{"categories":["shop"],"id":"osm:node:11220467940","latitude":38.5939468,"longitude":-0.0542298,"name":"Cicles Alvado","properties":{},"sourceId":"osm"},{"categories":["repair"],"id":"osm:node:2059605499","latitude":38.5970543,"longitude":-0.0498544,"name":"Bicycle repair station","properties":{},"sourceId":"osm"},{"categories":["hire"],"id":"osm:node:2063342315","latitude":38.6051959,"longitude":-0.0441407,"name":"biciAltea","properties":{"operator":"biciAltea","website":"http://www.labici.net/altea/"},"sourceId":"osm"},{"categories":["hire"],"id":"osm:node:2063345297","latitude":38.5946856,"longitude":-0.0520317,"name":"biciAltea","properties":{"operator":"biciAltea","website":"http://www.labici.net/altea/"},"sourceId":"osm"},{"categories":["hire"],"id":"osm:node:2063345299","latitude":38.5997152,"longitude":-0.0475609,"name":"biciAltea","properties":{"operator":"biciAltea","website":"http://www.labici.net/altea/"},"sourceId":"osm"},{"categories":["hire"],"id":"osm:node:2063361353","latitude":38.5987095,"longitude":-0.0562918,"name":"biciAltea","properties":{"operator":"biciAltea","website":"http://www.labici.net/altea/"},"sourceId":"osm"},{"categories":["hire"],"id":"osm:node:2063361354","latitude":38.6015721,"longitude":-0.0533702,"name":"biciAltea","properties":{"operator":"biciAltea","website":"http://www.labici.net/altea/"},"sourceId":"osm"},{"categories":["hire"],"id":"osm:node:2063361357","latitude":38.6051715,"longitude":-0.0486763,"name":"biciAltea","properties":{"operator":"biciAltea","website":"http://www.labici.net/altea/"},"sourceId":"osm"},{"categories":["hire"],"id":"osm:node:2063361359","latitude":38.613821,"longitude":-0.0331576,"name":"biciAltea","properties":{"operator":"biciAltea","website":"http://www.labici.net/altea/"},"sourceId":"osm"},{"categories":["hire"],"id":"osm:node:2063361360","latitude":38.6024983,"longitude":-0.0481989,"name":"biciAltea","properties":{"operator":"biciAltea","website":"http://www.labici.net/altea/"},"sourceId":"osm"},{"categories":["hire"],"id":"osm:node:2404967570","latitude":38.6021069,"longitude":-0.0478479,"name":"Cycle hire","properties":{},"sourceId":"osm"},{"categories":["shop"],"id":"osm:node:2436747329","latitude":38.582406,"longitude":-0.0696968,"name":"Cronobike","properties":{},"sourceId":"osm"},{"categories":["shop"],"id":"osm:node:3053084633","latitude":38.5979931,"longitude":-0.049088,"name":"Ashé Bikes","properties":{"website":"https://ashebikes.com/"},"sourceId":"osm"}],"schemaVersion":2}
