{"key":"12/2028/1295","points":[{"id":"osm:node:1809769310","latitude":55.0278781,"longitude":-1.7033373,"name":"Callerton Lane by Callerton Parkway","properties":{"access":"unknown","bicycle_pa":"stands","capacity":8,"covered":"no","fee":"","operator":"","nameSource":"landmark"},"sourceId":"osm"},{"id":"osm:node:1941345629","latitude":54.9846433,"longitude":-1.7527782,"name":"Grange Road by The Keelman","properties":{"access":"unknown","bicycle_pa":"","capacity":0,"covered":"","fee":"","operator":"","nameSource":"landmark"},"sourceId":"osm"},{"id":"osm:node:6551383180","latitude":55.0140473,"longitude":-1.6787715,"name":"Station Road cycle parking","properties":{"access":"unknown","bicycle_pa":"streetpod","capacity":10,"covered":"no","fee":"","operator":"","nameSource":"street"},"sourceId":"osm"},{"id":"osm:node:8176945795","latitude":54.9776962,"longitude":-1.7276077,"name":"Keats Road by Route 72","properties":{"access":"customers","bicycle_pa":"stands","capacity":12,"covered":"","fee":"","operator":"","nameSource":"landmark"},"sourceId":"osm"},{"id":"osm:node:8601965811","latitude":54.9903124,"longitude":-1.6741588,"name":"Stamfordham Road cycle parking","properties":{"access":"unknown","bicycle_pa":"stands","capacity":8,"covered":"yes","fee":"","operator":"","nameSource":"street"},"sourceId":"osm"},{"id":"osm:node:8601965812","latitude":54.9910264,"longitude":-1.675626,"name":"Stamfordham Road by Lidl","properties":{"access":"unknown","bicycle_pa":"stands","capacity":8,"covered":"yes","fee":"","operator":"","nameSource":"landmark"},"sourceId":"osm"},{"id":"osm:node:9895299704","latitude":54.9822161,"longitude":-1.6730313,"name":"Saint Cuthbert's Road by Stocksfield Avenue Primary School","properties":{"access":"unknown","bicycle_pa":"stands","capacity":8,"covered":"no","fee":"","operator":"","nameSource":"landmark"},"sourceId":"osm"}],"schemaVersion":2}
