{"key":"12/2028/1296","points":[{"id":"osm:node:11800116645","latitude":54.9590619,"longitude":-1.6756326,"name":"Hollinside Road by Dreams","properties":{"access":"unknown","bicycle_pa":"stands","capacity":6,"covered":"no","fee":"","operator":"","nameSource":"landmark"},"sourceId":"osm"},{"id":"osm:node:11800129012","latitude":54.9592142,"longitude":-1.675518,"name":"Hollinside Road by Dreams","properties":{"access":"unknown","bicycle_pa":"stands","capacity":6,"covered":"no","fee":"","operator":"","nameSource":"landmark"},"sourceId":"osm"},{"id":"osm:node:11936938607","latitude":54.9472575,"longitude":-1.6804297,"name":"North View cycle parking","properties":{"access":"unknown","bicycle_pa":"stands","capacity":0,"covered":"","fee":"","operator":"","nameSource":"street"},"sourceId":"osm"},{"id":"osm:node:4434073564","latitude":54.9498933,"longitude":-1.6996665,"name":"A694 cycle parking","properties":{"access":"unknown","bicycle_pa":"stands","capacity":0,"covered":"no","fee":"","operator":"","nameSource":"street"},"sourceId":"osm"},{"id":"osm:node:4454884917","latitude":54.9545708,"longitude":-1.7270298,"name":"Front Street by Premier","properties":{"access":"unknown","bicycle_pa":"stands","capacity":2,"covered":"no","fee":"","operator":"","nameSource":"landmark"},"sourceId":"osm"},{"id":"osm:node:5692876727","latitude":54.9659359,"longitude":-1.7132574,"name":"Tyne Street near Blaydon Highway","properties":{"access":"unknown","bicycle_pa":"stands","capacity":10,"covered":"yes","fee":"","operator":"","nameSource":"junction"},"sourceId":"osm"},{"id":"osm:node:6150114217","latitude":54.9585773,"longitude":-1.6738599,"name":"Hollinside Road by Burger King","properties":{"access":"unknown","bicycle_pa":"stands","capacity":20,"covered":"no","fee":"","operator":"","nameSource":"landmark"},"sourceId":"osm"},{"id":"osm:node:6150114230","latitude":54.9588191,"longitude":-1.6752721,"name":"Hollinside Road by Ionity Newcastle","properties":{"access":"unknown","bicycle_pa":"stands","capacity":16,"covered":"no","fee":"","operator":"","nameSource":"landmark"},"sourceId":"osm"},{"id":"osm:node:6150114232","latitude":54.9588937,"longitude":-1.6714139,"name":"McDonald's cycle parking","properties":{"access":"unknown","bicycle_pa":"stands","capacity":12,"covered":"yes","fee":"","operator":"","nameSource":"landmark"},"sourceId":"osm"},{"id":"osm:node:7619277222","latitude":54.9565683,"longitude":-1.6724032,"name":"St Michael's Way by Zara","properties":{"access":"unknown","bicycle_pa":"stands","capacity":12,"covered":"yes","fee":"","operator":"","nameSource":"landmark"},"sourceId":"osm"},{"id":"osm:node:7878603345","latitude":54.942824,"longitude":-1.7099007,"name":"A694 by café shrub","properties":{"access":"unknown","bicycle_pa":"wide_stands","capacity":0,"covered":"","fee":"","operator":"","nameSource":"landmark"},"sourceId":"osm"},{"id":"osm:node:7878603346","latitude":54.9429395,"longitude":-1.7103781,"name":"A694 near Noel Avenue","properties":{"access":"unknown","bicycle_pa":"stands","capacity":6,"covered":"","fee":"","operator":"","nameSource":"junction"},"sourceId":"osm"},{"id":"osm:node:9360856593","latitude":54.9578885,"longitude":-1.6803032,"name":"IKEA cycle parking","properties":{"access":"unknown","bicycle_pa":"stands","capacity":0,"covered":"yes","fee":"no","operator":"","nameSource":"landmark"},"sourceId":"osm"}],"schemaVersion":2}
