{"key":"12/2028/1307","points":[{"id":"osm:node:10294924231","latitude":54.4031542,"longitude":-1.7361631,"name":"Market Place near Millgate","properties":{"access":"unknown","bicycle_pa":"","capacity":4,"covered":"","fee":"","operator":"","nameSource":"junction"},"sourceId":"osm"},{"id":"osm:node:13065344409","latitude":54.3764551,"longitude":-1.7257711,"name":"Gough Road by Catterick Community Library","properties":{"access":"unknown","bicycle_pa":"stands","capacity":20,"covered":"yes","fee":"no","operator":"","nameSource":"landmark"},"sourceId":"osm"},{"id":"osm:node:13272455438","latitude":54.402366,"longitude":-1.7372377,"name":"Tower Street near Castle Hill","properties":{"access":"customers","bicycle_pa":"stands","capacity":6,"covered":"no","fee":"no","operator":"","nameSource":"junction"},"sourceId":"osm"},{"id":"osm:node:4314109393","latitude":54.3755162,"longitude":-1.7073362,"name":"Catterick Road near Byng Road","properties":{"access":"unknown","bicycle_pa":"stands","capacity":20,"covered":"no","fee":"","operator":"","nameSource":"junction"},"sourceId":"osm"},{"id":"osm:node:4314117449","latitude":54.3756896,"longitude":-1.7071807,"name":"Byng Road near Catterick Road","properties":{"access":"unknown","bicycle_pa":"stands","capacity":20,"covered":"no","fee":"","operator":"","nameSource":"junction"},"sourceId":"osm"},{"id":"osm:node:8267097846","latitude":54.3742829,"longitude":-1.7414836,"name":"Plumer Road near Gough Road","properties":{"access":"unknown","bicycle_pa":"stands","capacity":20,"covered":"","fee":"","operator":"","nameSource":"junction"},"sourceId":"osm"},{"id":"osm:node:8267097944","latitude":54.3743577,"longitude":-1.7217241,"name":"Richmond Road cycle parking","properties":{"access":"unknown","bicycle_pa":"stands","capacity":20,"covered":"","fee":"","operator":"","nameSource":"street"},"sourceId":"osm"}],"schemaVersion":2}
