{"key":"12/2028/1316","points":[{"id":"osm:node:11234448478","latitude":53.9076178,"longitude":-1.7527051,"name":"The Robins near Station Approach","properties":{"access":"unknown","bicycle_pa":"stands","capacity":12,"covered":"yes","fee":"","operator":"","nameSource":"junction"},"sourceId":"osm"},{"id":"osm:node:11769574678","latitude":53.904896,"longitude":-1.6940403,"name":"New Inn Yard near Kirkgate","properties":{"access":"unknown","bicycle_pa":"stands","capacity":10,"covered":"yes","fee":"","operator":"","nameSource":"junction"},"sourceId":"osm"},{"id":"osm:node:12106332140","latitude":53.9147804,"longitude":-1.7009902,"name":"Wharfedale General Hospital cycle parking","properties":{"access":"unknown","bicycle_pa":"stands","capacity":10,"covered":"yes","fee":"","operator":"","nameSource":"street"},"sourceId":"osm"},{"id":"osm:node:13382266152","latitude":53.9050952,"longitude":-1.6934861,"name":"New Inn Yard near Otley Market Square","properties":{"access":"unknown","bicycle_pa":"stands","capacity":2,"covered":"no","fee":"","operator":"","nameSource":"junction"},"sourceId":"osm"},{"id":"osm:node:1877261072","latitude":53.9060325,"longitude":-1.6947175,"name":"Manor Square near Clapgate","properties":{"access":"unknown","bicycle_pa":"stands","capacity":4,"covered":"no","fee":"","operator":"","nameSource":"junction"},"sourceId":"osm"},{"id":"osm:node:2353440317","latitude":53.9056025,"longitude":-1.6922809,"name":"Crossgate near Boroughgate","properties":{"access":"unknown","bicycle_pa":"stands","capacity":6,"covered":"no","fee":"","operator":"","nameSource":"junction"},"sourceId":"osm"},{"id":"osm:node:3942727570","latitude":53.904412,"longitude":-1.6942453,"name":"Church Lane near Kirkgate","properties":{"access":"unknown","bicycle_pa":"stands","capacity":2,"covered":"no","fee":"","operator":"","nameSource":"junction"},"sourceId":"osm"},{"id":"osm:node:3942727571","latitude":53.90457,"longitude":-1.6941956,"name":"Kirkgate Arcade near Kirkgate","properties":{"access":"unknown","bicycle_pa":"stands","capacity":6,"covered":"no","fee":"","operator":"","nameSource":"junction"},"sourceId":"osm"},{"id":"osm:node:5132906202","latitude":53.9056495,"longitude":-1.6919871,"name":"Boroughgate near Wesley Street","properties":{"access":"unknown","bicycle_pa":"stands","capacity":4,"covered":"no","fee":"","operator":"","nameSource":"junction"},"sourceId":"osm"},{"id":"osm:node:8291947238","latitude":53.9083265,"longitude":-1.7531456,"name":"Station Approach near The Robins","properties":{"access":"unknown","bicycle_pa":"stands","capacity":2,"covered":"no","fee":"","operator":"","nameSource":"junction"},"sourceId":"osm"},{"id":"osm:node:8402862135","latitude":53.9048778,"longitude":-1.6926312,"name":"Orchard Gate near Newmarket","properties":{"access":"unknown","bicycle_pa":"stands","capacity":6,"covered":"no","fee":"","operator":"","nameSource":"junction"},"sourceId":"osm"}],"schemaVersion":2}
