{"key":"12/2028/1317","points":[{"id":"osm:node:10727450830","latitude":53.8785371,"longitude":-1.7180741,"name":"Netherfield Road cycle parking","properties":{"access":"yes","bicycle_pa":"stands","capacity":4,"covered":"no","fee":"no","operator":"","nameSource":"street"},"sourceId":"osm"},{"id":"osm:node:10778099335","latitude":53.9032451,"longitude":-1.6983098,"name":"Union Court by Waitrose Café","properties":{"access":"unknown","bicycle_pa":"stands","capacity":12,"covered":"no","fee":"","operator":"","nameSource":"landmark"},"sourceId":"osm"},{"id":"osm:node:10857675345","latitude":53.8726719,"longitude":-1.7069775,"name":"The Green near 49","properties":{"access":"yes","bicycle_pa":"stands","capacity":4,"covered":"no","fee":"","operator":"","nameSource":"junction"},"sourceId":"osm"},{"id":"osm:node:11107670733","latitude":53.873151,"longitude":-1.7118943,"name":"Otley Road near Springfield Road","properties":{"access":"yes","bicycle_pa":"stands","capacity":10,"covered":"no","fee":"no","operator":"","nameSource":"junction"},"sourceId":"osm"},{"id":"osm:node:12973904369","latitude":53.8695515,"longitude":-1.7047343,"name":"Ghyll Royd by Argos","properties":{"access":"unknown","bicycle_pa":"stands","capacity":6,"covered":"no","fee":"","operator":"","nameSource":"landmark"},"sourceId":"osm"},{"id":"osm:node:13633486825","latitude":53.9031664,"longitude":-1.6977774,"name":"Burras Lane near Saville Court","properties":{"access":"unknown","bicycle_pa":"","capacity":3,"covered":"","fee":"","operator":"","nameSource":"junction"},"sourceId":"osm"},{"id":"osm:node:3716897024","latitude":53.8661895,"longitude":-1.6809273,"name":"High Street near Harper Lane","properties":{"access":"unknown","bicycle_pa":"","capacity":4,"covered":"","fee":"","operator":"","nameSource":"junction"},"sourceId":"osm"},{"id":"osm:node:5475771242","latitude":53.872056,"longitude":-1.7071563,"name":"The Green near Belle Vue Terrace","properties":{"access":"unknown","bicycle_pa":"stands","capacity":4,"covered":"no","fee":"","operator":"","nameSource":"junction"},"sourceId":"osm"},{"id":"osm:node:6210568137","latitude":53.9037958,"longitude":-1.6906116,"name":"Crow Lane near Bondgate","properties":{"access":"unknown","bicycle_pa":"stands","capacity":6,"covered":"no","fee":"","operator":"","nameSource":"junction"},"sourceId":"osm"},{"id":"osm:node:7799273853","latitude":53.8735275,"longitude":-1.712001,"name":"Otley Road near Springfield Court","properties":{"access":"yes","bicycle_pa":"stands","capacity":2,"covered":"no","fee":"no","operator":"","nameSource":"junction"},"sourceId":"osm"},{"id":"osm:node:8381070766","latitude":53.8894211,"longitude":-1.739655,"name":"Ellicott Court near Park Road","properties":{"access":"unknown","bicycle_pa":"stands","capacity":5,"covered":"no","fee":"no","operator":"","nameSource":"junction"},"sourceId":"osm"},{"id":"osm:node:8829775173","latitude":53.8764396,"longitude":-1.7198945,"name":"Otley Road cycle parking","properties":{"access":"yes","bicycle_pa":"stands","capacity":10,"covered":"no","fee":"","operator":"","nameSource":"street"},"sourceId":"osm"},{"id":"osm:node:8971902775","latitude":53.8722619,"longitude":-1.7072871,"name":"The Green near Belle Vue Terrace","properties":{"access":"unknown","bicycle_pa":"stands","capacity":4,"covered":"no","fee":"","operator":"","nameSource":"junction"},"sourceId":"osm"},{"id":"osm:node:9170392637","latitude":53.865518,"longitude":-1.6893913,"name":"Kirk Lane near Borrowdale Croft","properties":{"access":"unknown","bicycle_pa":"stands","capacity":8,"covered":"no","fee":"","operator":"","nameSource":"junction"},"sourceId":"osm"},{"id":"osm:node:9439349416","latitude":53.8759902,"longitude":-1.7082069,"name":"Oxford Road near Butts Lane","properties":{"access":"customers","bicycle_pa":"stands","capacity":1,"covered":"no","fee":"no","operator":"Triangle","nameSource":"junction"},"sourceId":"osm"},{"id":"osm:node:9878693088","latitude":53.8772574,"longitude":-1.7208335,"name":"Ings Crescent near Ings Lane","properties":{"access":"yes","bicycle_pa":"stands","capacity":8,"covered":"no","fee":"no","operator":"Leeds City Council","nameSource":"junction"},"sourceId":"osm"},{"id":"osm:way:1265495916","latitude":53.8713528,"longitude":-1.71839388,"name":"Fieldhead Drive by Guiseley School","properties":{"access":"private","bicycle_pa":"stands","capacity":0,"covered":"yes","fee":"","operator":"","nameSource":"landmark"},"sourceId":"osm"},{"id":"osm:way:1326215125","latitude":53.89214140000001,"longitude":-1.7355475833333334,"name":"Cleasby Road near Newfield Drive","properties":{"access":"unknown","bicycle_pa":"stand_(supports_bicycle_frame)q","capacity":4,"covered":"yes","fee":"","operator":"","nameSource":"junction"},"sourceId":"osm"},{"id":"osm:way:1412529738","latitude":53.8570913,"longitude":-1.6828133,"name":"Benton Park School cycle parking","properties":{"access":"unknown","bicycle_pa":"","capacity":0,"covered":"","fee":"","operator":"","nameSource":"landmark"},"sourceId":"osm"},{"id":"osm:way:368251095","latitude":53.892168860000005,"longitude":-1.73553812,"name":"Cleasby Road near Newfield Drive","properties":{"access":"yes","bicycle_pa":"lockers","capacity":14,"covered":"","fee":"no","operator":"","nameSource":"junction"},"sourceId":"osm"},{"id":"osm:way:856930822","latitude":53.876062739999995,"longitude":-1.71496134,"name":"Station Road by Guiseley","properties":{"access":"yes","bicycle_pa":"lockers","capacity":5,"covered":"no","fee":"no","operator":"","nameSource":"landmark"},"sourceId":"osm"},{"id":"osm:way:856930823","latitude":53.87593972,"longitude":-1.71517204,"name":"Station Road by Guiseley","properties":{"access":"yes","bicycle_pa":"lockers","capacity":4,"covered":"","fee":"no","operator":"","nameSource":"landmark"},"sourceId":"osm"},{"id":"osm:way:856930824","latitude":53.87577414,"longitude":-1.7149118400000003,"name":"Station Road by Guiseley","properties":{"access":"unknown","bicycle_pa":"stands","capacity":5,"covered":"yes","fee":"no","operator":"","nameSource":"landmark"},"sourceId":"osm"},{"id":"osm:way:930413750","latitude":53.87578824,"longitude":-1.71140772,"name":"Ashtofts Mount near Oxford Road","properties":{"access":"private","bicycle_pa":"shed","capacity":8,"covered":"yes","fee":"","operator":"","nameSource":"junction"},"sourceId":"osm"}],"schemaVersion":2}
