{"key":"12/2028/1327","points":[{"id":"osm:node:13094722361","latitude":53.3625612,"longitude":-1.6988931,"name":"Ashopton Road near Bemrose Gate","properties":{"access":"customers","bicycle_pa":"stands","capacity":8,"covered":"no","fee":"","operator":"","nameSource":"junction"},"sourceId":"osm"},{"id":"osm:node:5422889656","latitude":53.3481626,"longitude":-1.7448005,"name":"Castleton Road cycle parking","properties":{"access":"yes","bicycle_pa":"stands","capacity":8,"covered":"no","fee":"","operator":"","nameSource":"street"},"sourceId":"osm"},{"id":"osm:node:5939393585","latitude":53.3496711,"longitude":-1.6887948,"name":"Taggs Knoll near Ashopton Road","properties":{"access":"unknown","bicycle_pa":"stands","capacity":12,"covered":"no","fee":"","operator":"","nameSource":"junction"},"sourceId":"osm"},{"id":"osm:node:8847844335","latitude":53.3389633,"longitude":-1.6890849,"name":"Station Road by Bamford","properties":{"access":"unknown","bicycle_pa":"stands","capacity":10,"covered":"yes","fee":"","operator":"","nameSource":"landmark"},"sourceId":"osm"},{"id":"osm:node:8847844336","latitude":53.3390546,"longitude":-1.6889991,"name":"Station Road by Bamford","properties":{"access":"unknown","bicycle_pa":"stands","capacity":6,"covered":"yes","fee":"","operator":"","nameSource":"landmark"},"sourceId":"osm"},{"id":"osm:node:8847844337","latitude":53.3496257,"longitude":-1.6888958,"name":"Taggs Knoll near Ashopton Road","properties":{"access":"unknown","bicycle_pa":"stands","capacity":12,"covered":"no","fee":"","operator":"","nameSource":"junction"},"sourceId":"osm"},{"id":"osm:node:8847844339","latitude":53.3459841,"longitude":-1.729892,"name":"Station Road by Hope","properties":{"access":"unknown","bicycle_pa":"stands","capacity":10,"covered":"yes","fee":"","operator":"","nameSource":"landmark"},"sourceId":"osm"}],"schemaVersion":2}
