{"key":"12/2028/1330","points":[{"id":"osm:node:2060066648","latitude":53.2125068,"longitude":-1.6739549,"name":"Granby Road near Orme Court","properties":{"access":"unknown","bicycle_pa":"stands","capacity":4,"covered":"no","fee":"","operator":"","nameSource":"junction"},"sourceId":"osm"},{"id":"osm:node:2060066649","latitude":53.2129389,"longitude":-1.6728995,"name":"Granby Road near Market Street","properties":{"access":"unknown","bicycle_pa":"stands","capacity":4,"covered":"no","fee":"","operator":"","nameSource":"junction"},"sourceId":"osm"},{"id":"osm:node:2060071674","latitude":53.2128337,"longitude":-1.6746027,"name":"Orme Court near Granby Road","properties":{"access":"unknown","bicycle_pa":"wall_hoops","capacity":4,"covered":"no","fee":"","operator":"","nameSource":"junction"},"sourceId":"osm"},{"id":"osm:node:5198582442","latitude":53.194748,"longitude":-1.6972013,"name":"Old Orchard cycle parking","properties":{"access":"unknown","bicycle_pa":"stands","capacity":8,"covered":"","fee":"","operator":"","nameSource":"street"},"sourceId":"osm"},{"id":"osm:node:860110000","latitude":53.2108104,"longitude":-1.6716418,"name":"Bakewell cycle parking","properties":{"access":"unknown","bicycle_pa":"stands","capacity":6,"covered":"no","fee":"","operator":"","nameSource":"place"},"sourceId":"osm"},{"id":"osm:node:8860536634","latitude":53.2131998,"longitude":-1.6729327,"name":"Market Street near Granby Road","properties":{"access":"unknown","bicycle_pa":"stands","capacity":2,"covered":"partial","fee":"","operator":"","nameSource":"junction"},"sourceId":"osm"},{"id":"osm:node:8860536635","latitude":53.2131334,"longitude":-1.6729363,"name":"Granby Road near Market Street","properties":{"access":"unknown","bicycle_pa":"stands","capacity":2,"covered":"partial","fee":"","operator":"","nameSource":"junction"},"sourceId":"osm"}],"schemaVersion":2}
