{"key":"12/2028/1508","points":[{"id":"osm:node:10155241250","latitude":42.790117,"longitude":-1.7017892,"name":"Calle Mindegi kalea near Saguesgaña kalea","properties":{"access":"yes","bicycle_pa":"wall_loops","capacity":7,"covered":"no","fee":"","operator":"","nameSource":"junction"},"sourceId":"osm"},{"id":"osm:node:11211832168","latitude":42.79448,"longitude":-1.6983465,"name":"Calle Arridia kalea near Calle Zubiondoa kalea","properties":{"access":"unknown","bicycle_pa":"","capacity":7,"covered":"","fee":"","operator":"","nameSource":"junction"},"sourceId":"osm"},{"id":"osm:node:11212228356","latitude":42.7963386,"longitude":-1.704134,"name":"Calle Zubiondoa kalea near Calle Garzabala kalea","properties":{"access":"unknown","bicycle_pa":"","capacity":0,"covered":"","fee":"","operator":"","nameSource":"junction"},"sourceId":"osm"},{"id":"osm:node:11212228358","latitude":42.7963433,"longitude":-1.7042752,"name":"Calle Zubiondoa kalea near Calle Garzabala kalea","properties":{"access":"unknown","bicycle_pa":"","capacity":0,"covered":"","fee":"","operator":"","nameSource":"junction"},"sourceId":"osm"},{"id":"osm:node:11300428424","latitude":42.8089917,"longitude":-1.6753579,"name":"NBici-Biziz Mendebaldea","properties":{"access":"yes","bicycle_pa":"shed","capacity":50,"covered":"yes","fee":"yes","operator":"nbici","nameSource":"source"},"sourceId":"osm"},{"id":"osm:node:11634811917","latitude":42.8084728,"longitude":-1.6745286,"name":"Paseo Antonio Pérez Goyena pasealekua by Cafetería Intermezzo","properties":{"access":"unknown","bicycle_pa":"stands","capacity":20,"covered":"no","fee":"","operator":"","nameSource":"landmark"},"sourceId":"osm"},{"id":"osm:node:11634811928","latitude":42.8094232,"longitude":-1.6751797,"name":"Paseo Antonio Pérez Goyena pasealekua by Clínica Maxilofacial - Doctores Garatea","properties":{"access":"unknown","bicycle_pa":"","capacity":0,"covered":"","fee":"","operator":"","nameSource":"landmark"},"sourceId":"osm"},{"id":"osm:node:12961236033","latitude":42.8076412,"longitude":-1.6885562,"name":"Kirolen etorbidea by Sociedad Deportiva Lagunak","properties":{"access":"unknown","bicycle_pa":"stands","capacity":36,"covered":"no","fee":"","operator":"","nameSource":"landmark"},"sourceId":"osm"},{"id":"osm:node:12966152753","latitude":42.8042333,"longitude":-1.6808075,"name":"Ipar plazako etorbidea near Erdiko etorbidea","properties":{"access":"unknown","bicycle_pa":"wall_loops","capacity":5,"covered":"no","fee":"","operator":"","nameSource":"junction"},"sourceId":"osm"},{"id":"osm:node:12966161184","latitude":42.8078694,"longitude":-1.6742327,"name":"Ermitagañako kalea by Ermitagaña","properties":{"access":"unknown","bicycle_pa":"stands","capacity":6,"covered":"no","fee":"","operator":"","nameSource":"landmark"},"sourceId":"osm"},{"id":"osm:node:12967107763","latitude":42.8088952,"longitude":-1.6733755,"name":"Paseo Mariano Arigita pasealekua by Vicky","properties":{"access":"unknown","bicycle_pa":"stands","capacity":0,"covered":"no","fee":"","operator":"","nameSource":"landmark"},"sourceId":"osm"},{"id":"osm:node:12973594701","latitude":42.8040503,"longitude":-1.6802943,"name":"Ipar plazako etorbidea near Done Eztebe kalea","properties":{"access":"unknown","bicycle_pa":"stands","capacity":6,"covered":"no","fee":"","operator":"","nameSource":"junction"},"sourceId":"osm"},{"id":"osm:node:12984341237","latitude":42.8002672,"longitude":-1.6751421,"name":"Avenida Aróstegui by Iglesia Nuestra Señora del Pilar","properties":{"access":"unknown","bicycle_pa":"stands","capacity":6,"covered":"no","fee":"","operator":"","nameSource":"landmark"},"sourceId":"osm"},{"id":"osm:node:12997262358","latitude":42.8073262,"longitude":-1.6750517,"name":"Calle Miluze kalea near Ermitagañako kalea","properties":{"access":"unknown","bicycle_pa":"stands","capacity":18,"covered":"yes","fee":"","operator":"","nameSource":"junction"},"sourceId":"osm"},{"id":"osm:node:13055950941","latitude":42.8057747,"longitude":-1.6792088,"name":"Avenida Comercial near Merkataritza etorbidea","properties":{"access":"unknown","bicycle_pa":"stands","capacity":6,"covered":"no","fee":"","operator":"","nameSource":"junction"},"sourceId":"osm"},{"id":"osm:node:13055952803","latitude":42.8058787,"longitude":-1.6792503,"name":"Avenida Comercial near Merkataritza etorbidea","properties":{"access":"unknown","bicycle_pa":"stands","capacity":6,"covered":"no","fee":"","operator":"","nameSource":"junction"},"sourceId":"osm"},{"id":"osm:node:13055954019","latitude":42.8056844,"longitude":-1.6800736,"name":"Merkataritza etorbidea near Avenida Comercial","properties":{"access":"unknown","bicycle_pa":"stands","capacity":6,"covered":"no","fee":"","operator":"","nameSource":"junction"},"sourceId":"osm"},{"id":"osm:node:13146924305","latitude":42.8049696,"longitude":-1.6743123,"name":"Iruñeko etorbidea near Remiro de Goñi kalea","properties":{"access":"unknown","bicycle_pa":"stands","capacity":6,"covered":"no","fee":"","operator":"","nameSource":"junction"},"sourceId":"osm"},{"id":"osm:node:13277589564","latitude":42.8059795,"longitude":-1.6712736,"name":"Barañaingo etorbidea near Benjamín Tuterakoaren kalea","properties":{"access":"unknown","bicycle_pa":"stands","capacity":0,"covered":"no","fee":"","operator":"","nameSource":"junction"},"sourceId":"osm"},{"id":"osm:node:13296363101","latitude":42.8019551,"longitude":-1.6861692,"name":"Haraneko etorbidea near Eultzako etorbidea","properties":{"access":"unknown","bicycle_pa":"stands","capacity":6,"covered":"no","fee":"","operator":"","nameSource":"junction"},"sourceId":"osm"},{"id":"osm:node:13296366001","latitude":42.8019863,"longitude":-1.684804,"name":"Plaza Caimito de Guayabal by Aitzane","properties":{"access":"unknown","bicycle_pa":"stands","capacity":12,"covered":"no","fee":"","operator":"","nameSource":"landmark"},"sourceId":"osm"},{"id":"osm:node:13440714219","latitude":42.8017007,"longitude":-1.6822837,"name":"Iruñeko etorbidea cycle parking","properties":{"access":"unknown","bicycle_pa":"stands","capacity":12,"covered":"no","fee":"","operator":"","nameSource":"street"},"sourceId":"osm"},{"id":"osm:node:13504918499","latitude":42.8071625,"longitude":-1.6737441,"name":"Ermitagañako kalea by D & M","properties":{"access":"unknown","bicycle_pa":"stands","capacity":12,"covered":"no","fee":"","operator":"","nameSource":"landmark"},"sourceId":"osm"},{"id":"osm:node:13521284059","latitude":42.8050754,"longitude":-1.670818,"name":"Universidad Pública de Navarra - Facultad de Ciencias de la Salud cycle parking","properties":{"access":"unknown","bicycle_pa":"stands","capacity":54,"covered":"no","fee":"","operator":"","nameSource":"landmark"},"sourceId":"osm"},{"id":"osm:node:13766722996","latitude":42.8079663,"longitude":-1.6712266,"name":"Paseo Mariano Arigita pasealekua by Clínica dental Asensio-Salazar","properties":{"access":"unknown","bicycle_pa":"stands","capacity":6,"covered":"no","fee":"","operator":"","nameSource":"landmark"},"sourceId":"osm"},{"id":"osm:node:13766755923","latitude":42.8055035,"longitude":-1.678105,"name":"Done Eztebe plaza by Proyecto","properties":{"access":"unknown","bicycle_pa":"stands","capacity":6,"covered":"no","fee":"","operator":"","nameSource":"landmark"},"sourceId":"osm"},{"id":"osm:node:13766764501","latitude":42.8049938,"longitude":-1.6795631,"name":"Done Eztebe kalea near Erdiko etorbidea","properties":{"access":"unknown","bicycle_pa":"stands","capacity":0,"covered":"no","fee":"","operator":"","nameSource":"junction"},"sourceId":"osm"},{"id":"osm:node:1888425310","latitude":42.8057309,"longitude":-1.6798586,"name":"Merkataritza etorbidea near Avenida Comercial","properties":{"access":"unknown","bicycle_pa":"stands","capacity":6,"covered":"no","fee":"","operator":"","nameSource":"junction"},"sourceId":"osm"},{"id":"osm:node:1888425642","latitude":42.8055976,"longitude":-1.680011,"name":"Merkataritza etorbidea near Avenida Comercial","properties":{"access":"unknown","bicycle_pa":"stands","capacity":6,"covered":"no","fee":"","operator":"","nameSource":"junction"},"sourceId":"osm"},{"id":"osm:node:1888425840","latitude":42.8058107,"longitude":-1.6799076,"name":"Avenida Comercial near Merkataritza etorbidea","properties":{"access":"unknown","bicycle_pa":"wall_loops","capacity":8,"covered":"no","fee":"","operator":"","nameSource":"junction"},"sourceId":"osm"},{"id":"osm:node:2680895470","latitude":42.7880526,"longitude":-1.6804915,"name":"Calle Zelaia kalea near Calle Etxepea kalea","properties":{"access":"unknown","bicycle_pa":"","capacity":0,"covered":"no","fee":"","operator":"","nameSource":"junction"},"sourceId":"osm"},{"id":"osm:node:7004338141","latitude":42.8063517,"longitude":-1.6727107,"name":"Plaza de Julio Altadill plaza near Barañaingo etorbidea","properties":{"access":"unknown","bicycle_pa":"stands","capacity":9,"covered":"no","fee":"","operator":"","nameSource":"junction"},"sourceId":"osm"},{"id":"osm:way:1447128176","latitude":42.80591994,"longitude":-1.6714289399999998,"name":"Barañaingo etorbidea near Benjamín Tuterakoaren kalea","properties":{"access":"yes","bicycle_pa":"building","capacity":0,"covered":"yes","fee":"no","operator":"","nameSource":"junction"},"sourceId":"osm"}],"schemaVersion":2}
