{"key":"12/2070/1527","points":[{"id":"osm:node:1374483176","latitude":41.5630259,"longitude":2.0208973,"name":"Rambla de Sant Nebridi near Carrer de Miquel Vives","properties":{"access":"unknown","bicycle_pa":"","capacity":6,"covered":"","fee":"","operator":"","nameSource":"junction"},"sourceId":"osm"},{"id":"osm:node:1377473315","latitude":41.562143,"longitude":2.0196409,"name":"Carrer de la Igualtat near Carrer de Francesc Català Roca","properties":{"access":"unknown","bicycle_pa":"","capacity":22,"covered":"","fee":"","operator":"","nameSource":"junction"},"sourceId":"osm"},{"id":"osm:node:1377473316","latitude":41.563022,"longitude":2.0194531,"name":"Carrer de la Igualtat near Carrer de Miquel Vives","properties":{"access":"unknown","bicycle_pa":"","capacity":14,"covered":"","fee":"","operator":"","nameSource":"junction"},"sourceId":"osm"},{"id":"osm:node:2034482942","latitude":41.5698893,"longitude":2.0142146,"name":"Passeig del Vint-i-dos de Juliol near Carrer de la Independència","properties":{"access":"unknown","bicycle_pa":"anchors","capacity":10,"covered":"no","fee":"","operator":"","nameSource":"junction"},"sourceId":"osm"},{"id":"osm:node:6598310096","latitude":41.560558,"longitude":2.0076342,"name":"Estació Rambla Egara","properties":{"access":"permit","bicycle_pa":"lockers","capacity":14,"covered":"yes","fee":"no","operator":"TBiciBox","nameSource":"source"},"sourceId":"osm"},{"id":"osm:node:9216135665","latitude":41.5701523,"longitude":2.0154884,"name":"Terrassa Estació del Nord (FGC i Renfe)","properties":{"access":"permit","bicycle_pa":"shed","capacity":50,"covered":"yes","fee":"no","operator":"TBiciBox","nameSource":"source"},"sourceId":"osm"}],"schemaVersion":2}
