{"key":"12/2034/1334","points":[{"id":"osm:node:10188416194","latitude":52.9878354,"longitude":-1.2042607,"name":"Colliers Way near Phoenix Place","properties":{"access":"permissive","bicycle_pa":"stands","capacity":10,"covered":"no","fee":"","operator":"","nameSource":"junction"},"sourceId":"osm"},{"id":"osm:node:10262280327","latitude":52.9889572,"longitude":-1.2067606,"name":"Millennium Way East by Ticket1","properties":{"access":"yes","bicycle_pa":"stands","capacity":18,"covered":"no","fee":"","operator":"","nameSource":"landmark"},"sourceId":"osm"},{"id":"osm:node:1123990746","latitude":52.990332,"longitude":-1.1518673,"name":"Valebrook Road near Linden Way","properties":{"access":"private","bicycle_pa":"","capacity":0,"covered":"yes","fee":"","operator":"","nameSource":"junction"},"sourceId":"osm"},{"id":"osm:node:1123990757","latitude":52.9903167,"longitude":-1.1519518,"name":"Linden Way near South Road","properties":{"access":"private","bicycle_pa":"","capacity":0,"covered":"yes","fee":"","operator":"","nameSource":"junction"},"sourceId":"osm"},{"id":"osm:node:11850575844","latitude":52.9998504,"longitude":-1.1970627,"name":"Vere Street near Main Street","properties":{"access":"yes","bicycle_pa":"stands","capacity":4,"covered":"no","fee":"","operator":"","nameSource":"junction"},"sourceId":"osm"},{"id":"osm:node:13312240901","latitude":52.9669082,"longitude":-1.2187459,"name":"Harvey Hadden Sports Village cycle parking","properties":{"access":"yes","bicycle_pa":"stands","capacity":80,"covered":"partial","fee":"","operator":"","nameSource":"landmark"},"sourceId":"osm"},{"id":"osm:node:13312245501","latitude":52.9668713,"longitude":-1.2178855,"name":"Harvey Hadden Sports Village cycle parking","properties":{"access":"permissive","bicycle_pa":"shed","capacity":0,"covered":"yes","fee":"","operator":"","nameSource":"landmark"},"sourceId":"osm"},{"id":"osm:node:1334665880","latitude":52.9645406,"longitude":-1.1663679,"name":"NET Forest Fields","properties":{"access":"unknown","bicycle_pa":"anchors","capacity":50,"covered":"no","fee":"","operator":"","nameSource":"source"},"sourceId":"osm"},{"id":"osm:node:2206800460","latitude":52.9627952,"longitude":-1.1615889,"name":"Waverley Street near Forest Road East","properties":{"access":"unknown","bicycle_pa":"stands","capacity":6,"covered":"no","fee":"","operator":"","nameSource":"junction"},"sourceId":"osm"},{"id":"osm:node:2281241551","latitude":52.984541,"longitude":-1.1820095,"name":"David Lane near Lincoln Street","properties":{"access":"unknown","bicycle_pa":"stands","capacity":6,"covered":"no","fee":"","operator":"","nameSource":"junction"},"sourceId":"osm"},{"id":"osm:node:2342143540","latitude":52.9731055,"longitude":-1.1520087,"name":"Mansfield Road near Tavistock Drive","properties":{"access":"unknown","bicycle_pa":"stands","capacity":8,"covered":"no","fee":"","operator":"","nameSource":"junction"},"sourceId":"osm"},{"id":"osm:node:2349547171","latitude":52.9863853,"longitude":-1.1594759,"name":"Hucknall Road near Costock Avenue","properties":{"access":"unknown","bicycle_pa":"stands","capacity":4,"covered":"no","fee":"","operator":"","nameSource":"junction"},"sourceId":"osm"},{"id":"osm:node:2349797325","latitude":52.9833445,"longitude":-1.1583496,"name":"Hucknall Road near Perry Road","properties":{"access":"unknown","bicycle_pa":"stands","capacity":6,"covered":"no","fee":"","operator":"","nameSource":"junction"},"sourceId":"osm"},{"id":"osm:node:2973462704","latitude":52.9631403,"longitude":-1.1517761,"name":"Huntingdon Street near Mansfield Road","properties":{"access":"unknown","bicycle_pa":"stands","capacity":8,"covered":"no","fee":"","operator":"","nameSource":"junction"},"sourceId":"osm"},{"id":"osm:node:3428300048","latitude":52.9814306,"longitude":-1.1782751,"name":"Basford Nottingham Express Transport Station","properties":{"access":"unknown","bicycle_pa":"rack","capacity":8,"covered":"no","fee":"","operator":"","nameSource":"source"},"sourceId":"osm"},{"id":"osm:node:3458329980","latitude":52.9653813,"longitude":-1.1596789,"name":"Homemade Café cycle parking","properties":{"access":"unknown","bicycle_pa":"stands","capacity":8,"covered":"no","fee":"no","operator":"","nameSource":"landmark"},"sourceId":"osm"},{"id":"osm:node:3458332397","latitude":52.9672266,"longitude":-1.1568167,"name":"Gregory Boulevard cycle parking","properties":{"access":"unknown","bicycle_pa":"stands","capacity":8,"covered":"","fee":"","operator":"","nameSource":"street"},"sourceId":"osm"},{"id":"osm:node:3609036394","latitude":52.9741243,"longitude":-1.2156448,"name":"Broxtowe Lane near Strelley Road","properties":{"access":"unknown","bicycle_pa":"stands","capacity":10,"covered":"no","fee":"","operator":"","nameSource":"junction"},"sourceId":"osm"},{"id":"osm:node:3609036450","latitude":52.9791858,"longitude":-1.2082666,"name":"Broxtowe Lane near Coleby Road","properties":{"access":"unknown","bicycle_pa":"stands","capacity":6,"covered":"no","fee":"","operator":"","nameSource":"junction"},"sourceId":"osm"},{"id":"osm:node:3622156154","latitude":52.964465,"longitude":-1.2286931,"name":"Graylands Road near Bracebridge Drive","properties":{"access":"unknown","bicycle_pa":"stands","capacity":4,"covered":"no","fee":"","operator":"","nameSource":"junction"},"sourceId":"osm"},{"id":"osm:node:3622156156","latitude":52.9645673,"longitude":-1.2284494,"name":"Graylands Road near Bracebridge Drive","properties":{"access":"unknown","bicycle_pa":"stands","capacity":4,"covered":"no","fee":"","operator":"","nameSource":"junction"},"sourceId":"osm"},{"id":"osm:node:3678096642","latitude":53.0091073,"longitude":-1.1898405,"name":"Leen Drive by Morrisons","properties":{"access":"unknown","bicycle_pa":"stands","capacity":8,"covered":"no","fee":"","operator":"","nameSource":"landmark"},"sourceId":"osm"},{"id":"osm:node:3709810925","latitude":53.0022924,"longitude":-1.1780644,"name":"Rigley Drive near Celandine Close","properties":{"access":"unknown","bicycle_pa":"stands","capacity":18,"covered":"no","fee":"","operator":"Tesco","nameSource":"junction"},"sourceId":"osm"},{"id":"osm:node:3838189970","latitude":53.0029537,"longitude":-1.157274,"name":"Beckhampton Road by Lymn Discounts","properties":{"access":"unknown","bicycle_pa":"stands","capacity":6,"covered":"no","fee":"","operator":"","nameSource":"landmark"},"sourceId":"osm"},{"id":"osm:node:3838245059","latitude":52.998821,"longitude":-1.1735013,"name":"Southglade Road near Padstow Road","properties":{"access":"unknown","bicycle_pa":"stands","capacity":6,"covered":"no","fee":"","operator":"","nameSource":"junction"},"sourceId":"osm"},{"id":"osm:node:3838245067","latitude":52.9990982,"longitude":-1.1738515,"name":"Southglade Road by Mistry's Pharmacy","properties":{"access":"unknown","bicycle_pa":"stands","capacity":6,"covered":"yes","fee":"","operator":"","nameSource":"landmark"},"sourceId":"osm"},{"id":"osm:node:3868228620","latitude":53.0055519,"longitude":-1.1906351,"name":"Bestwood Road near Carey Road","properties":{"access":"unknown","bicycle_pa":"stands","capacity":10,"covered":"no","fee":"","operator":"","nameSource":"junction"},"sourceId":"osm"},{"id":"osm:node:3962148151","latitude":52.9888367,"longitude":-1.2071587,"name":"Millennium Way East by Ticket1","properties":{"access":"permit","bicycle_pa":"stands","capacity":0,"covered":"yes","fee":"","operator":"Nottingham City Council","nameSource":"landmark"},"sourceId":"osm"},{"id":"osm:node:3962627169","latitude":52.9842363,"longitude":-1.1972304,"name":"Nuthall Road cycle parking","properties":{"access":"destination","bicycle_pa":"stands","capacity":10,"covered":"no","fee":"","operator":"","nameSource":"street"},"sourceId":"osm"},{"id":"osm:node:3962627180","latitude":52.9843341,"longitude":-1.1971792,"name":"Nuthall Road cycle parking","properties":{"access":"private","bicycle_pa":"stands","capacity":60,"covered":"yes","fee":"","operator":"","nameSource":"street"},"sourceId":"osm"},{"id":"osm:node:3969522213","latitude":52.9839954,"longitude":-1.197554,"name":"Nuthall Road by Iceland","properties":{"access":"unknown","bicycle_pa":"stands","capacity":4,"covered":"no","fee":"","operator":"","nameSource":"landmark"},"sourceId":"osm"},{"id":"osm:node:4057408748","latitude":52.974056,"longitude":-1.2190694,"name":"Denewood Crescent near Strelley Road","properties":{"access":"unknown","bicycle_pa":"stands","capacity":10,"covered":"no","fee":"","operator":"","nameSource":"junction"},"sourceId":"osm"},{"id":"osm:node:4226931358","latitude":52.9708271,"longitude":-1.1983201,"name":"Robins Wood Road near Aspley Lane","properties":{"access":"yes","bicycle_pa":"stands","capacity":8,"covered":"no","fee":"","operator":"","nameSource":"junction"},"sourceId":"osm"},{"id":"osm:node:4226931368","latitude":52.9714538,"longitude":-1.1995878,"name":"Amersham Rise near Aspley Lane","properties":{"access":"unknown","bicycle_pa":"stands","capacity":6,"covered":"no","fee":"","operator":"","nameSource":"junction"},"sourceId":"osm"},{"id":"osm:node:4229148431","latitude":53.0005494,"longitude":-1.196913,"name":"Market Place near Main Street","properties":{"access":"unknown","bicycle_pa":"stands","capacity":4,"covered":"no","fee":"","operator":"","nameSource":"junction"},"sourceId":"osm"},{"id":"osm:node:4230998686","latitude":53.0023879,"longitude":-1.1961412,"name":"Main Street near Montague Street","properties":{"access":"unknown","bicycle_pa":"stands","capacity":4,"covered":"no","fee":"","operator":"","nameSource":"junction"},"sourceId":"osm"},{"id":"osm:node:4237927715","latitude":52.996859,"longitude":-1.196794,"name":"Coventry Road near Seller's Wood Drive","properties":{"access":"unknown","bicycle_pa":"stands","capacity":4,"covered":"no","fee":"","operator":"","nameSource":"junction"},"sourceId":"osm"},{"id":"osm:node:4237927716","latitude":52.9972675,"longitude":-1.1966786,"name":"Coventry Road near Seller's Wood Drive","properties":{"access":"unknown","bicycle_pa":"stands","capacity":8,"covered":"no","fee":"","operator":"","nameSource":"junction"},"sourceId":"osm"},{"id":"osm:node:4237927717","latitude":52.9972997,"longitude":-1.1969361,"name":"Coventry Road near Seller's Wood Drive","properties":{"access":"unknown","bicycle_pa":"stands","capacity":8,"covered":"no","fee":"","operator":"","nameSource":"junction"},"sourceId":"osm"},{"id":"osm:node:4237927723","latitude":52.997391,"longitude":-1.1967014,"name":"Coventry Road near Main Street","properties":{"access":"unknown","bicycle_pa":"stands","capacity":6,"covered":"no","fee":"","operator":"","nameSource":"junction"},"sourceId":"osm"},{"id":"osm:node:4237927773","latitude":52.9985262,"longitude":-1.1968704,"name":"Main Street near Bulwell High Road","properties":{"access":"unknown","bicycle_pa":"stands","capacity":12,"covered":"no","fee":"","operator":"","nameSource":"junction"},"sourceId":"osm"},{"id":"osm:node:4240314635","latitude":52.985941,"longitude":-1.1593716,"name":"Hucknall Road near Valmont Road","properties":{"access":"unknown","bicycle_pa":"stands","capacity":2,"covered":"no","fee":"","operator":"","nameSource":"junction"},"sourceId":"osm"},{"id":"osm:node:4240314650","latitude":52.9865963,"longitude":-1.1592873,"name":"Hucknall Road near Costock Avenue","properties":{"access":"unknown","bicycle_pa":"stands","capacity":4,"covered":"no","fee":"","operator":"","nameSource":"junction"},"sourceId":"osm"},{"id":"osm:node:4249362238","latitude":52.9781615,"longitude":-1.1568284,"name":"Hucknall Road near Teesdale Road","properties":{"access":"unknown","bicycle_pa":"stands","capacity":2,"covered":"no","fee":"","operator":"","nameSource":"junction"},"sourceId":"osm"},{"id":"osm:node:4286726494","latitude":52.9649406,"longitude":-1.172387,"name":"Hawarden Terrace near Gregory Boulevard","properties":{"access":"unknown","bicycle_pa":"stands","capacity":8,"covered":"no","fee":"","operator":"","nameSource":"junction"},"sourceId":"osm"},{"id":"osm:node:4286726628","latitude":52.965633,"longitude":-1.1702689,"name":"Radford Road near Gregory Boulevard","properties":{"access":"unknown","bicycle_pa":"stands","capacity":6,"covered":"no","fee":"","operator":"","nameSource":"junction"},"sourceId":"osm"},{"id":"osm:node:4286726652","latitude":52.9658822,"longitude":-1.1704661,"name":"Terrace Street near Radford Road","properties":{"access":"unknown","bicycle_pa":"stands","capacity":6,"covered":"no","fee":"","operator":"","nameSource":"junction"},"sourceId":"osm"},{"id":"osm:node:4286726695","latitude":52.9663606,"longitude":-1.1702623,"name":"Hyson Green Market by Hyson Green Market","properties":{"access":"private","bicycle_pa":"stands","capacity":12,"covered":"yes","fee":"","operator":"","nameSource":"landmark"},"sourceId":"osm"},{"id":"osm:node:4286726698","latitude":52.9663852,"longitude":-1.1708433,"name":"Hyson Green Market by Hyson Green Market","properties":{"access":"unknown","bicycle_pa":"stands","capacity":8,"covered":"no","fee":"","operator":"","nameSource":"landmark"},"sourceId":"osm"},{"id":"osm:node:4293813724","latitude":52.9659533,"longitude":-1.1686545,"name":"Gregory Boulevard near Noel Street","properties":{"access":"unknown","bicycle_pa":"stands","capacity":20,"covered":"no","fee":"","operator":"","nameSource":"junction"},"sourceId":"osm"},{"id":"osm:node:4297221810","latitude":52.9829294,"longitude":-1.1452187,"name":"Mansfield Road near Burlington Road","properties":{"access":"unknown","bicycle_pa":"stands","capacity":4,"covered":"no","fee":"","operator":"","nameSource":"junction"},"sourceId":"osm"},{"id":"osm:node:4301295821","latitude":52.9828656,"longitude":-1.1449627,"name":"Mansfield Road near Burlington Road","properties":{"access":"unknown","bicycle_pa":"stands","capacity":6,"covered":"no","fee":"","operator":"","nameSource":"junction"},"sourceId":"osm"},{"id":"osm:node:4329985986","latitude":52.9789908,"longitude":-1.1696582,"name":"Lortas Road near Chelmsford Road","properties":{"access":"unknown","bicycle_pa":"stands","capacity":20,"covered":"partial","fee":"","operator":"","nameSource":"junction"},"sourceId":"osm"},{"id":"osm:node:4382725818","latitude":52.9800432,"longitude":-1.1710059,"name":"Perry Road by Sainsbury's","properties":{"access":"unknown","bicycle_pa":"stands","capacity":34,"covered":"yes","fee":"","operator":"","nameSource":"landmark"},"sourceId":"osm"},{"id":"osm:node:4382725857","latitude":52.985317,"longitude":-1.1747432,"name":"Norburn Crescent near Vernon Avenue","properties":{"access":"unknown","bicycle_pa":"stands","capacity":10,"covered":"no","fee":"","operator":"","nameSource":"junction"},"sourceId":"osm"},{"id":"osm:node:4487705692","latitude":52.9667482,"longitude":-1.1881017,"name":"Aspley Lane near Grace Drive","properties":{"access":"destination","bicycle_pa":"stands","capacity":16,"covered":"no","fee":"","operator":"","nameSource":"junction"},"sourceId":"osm"},{"id":"osm:node:502034439","latitude":53.0057896,"longitude":-1.190506,"name":"Bestwood Road near Carey Road","properties":{"access":"unknown","bicycle_pa":"stands","capacity":0,"covered":"no","fee":"","operator":"","nameSource":"junction"},"sourceId":"osm"},{"id":"osm:node:562893629","latitude":52.9891335,"longitude":-1.2002661,"name":"Bagnall Road near Neston Drive","properties":{"access":"yes","bicycle_pa":"","capacity":10,"covered":"","fee":"","operator":"","nameSource":"junction"},"sourceId":"osm"},{"id":"osm:node:7631512745","latitude":52.9809983,"longitude":-1.1464432,"name":"Mansfield Road near Melrose Street","properties":{"access":"unknown","bicycle_pa":"stands","capacity":4,"covered":"no","fee":"","operator":"","nameSource":"junction"},"sourceId":"osm"},{"id":"osm:node:7631512864","latitude":52.9823208,"longitude":-1.1454105,"name":"Mansfield Road near Newstead Street","properties":{"access":"unknown","bicycle_pa":"stands","capacity":4,"covered":"no","fee":"","operator":"","nameSource":"junction"},"sourceId":"osm"},{"id":"osm:node:9204023727","latitude":52.988602,"longitude":-1.2034961,"name":"Millennium Way East near Colliers Way","properties":{"access":"permissive","bicycle_pa":"stands","capacity":6,"covered":"","fee":"","operator":"","nameSource":"junction"},"sourceId":"osm"},{"id":"osm:node:9204543479","latitude":52.9886158,"longitude":-1.2035241,"name":"Millennium Way East near Colliers Way","properties":{"access":"permissive","bicycle_pa":"stands","capacity":6,"covered":"","fee":"","operator":"","nameSource":"junction"},"sourceId":"osm"},{"id":"osm:node:9569721274","latitude":52.9676982,"longitude":-1.1839066,"name":"Nuthall Road near Aspley Lane","properties":{"access":"yes","bicycle_pa":"wide_stands","capacity":4,"covered":"no","fee":"no","operator":"","nameSource":"junction"},"sourceId":"osm"},{"id":"osm:node:9569739948","latitude":52.972268,"longitude":-1.1787107,"name":"Wilkinson Street cycle parking","properties":{"access":"yes","bicycle_pa":"stands","capacity":14,"covered":"no","fee":"no","operator":"","nameSource":"street"},"sourceId":"osm"},{"id":"osm:node:9569769783","latitude":52.975585,"longitude":-1.1887912,"name":"Nuthall Road near Basford Road","properties":{"access":"unknown","bicycle_pa":"stands","capacity":4,"covered":"no","fee":"no","operator":"","nameSource":"junction"},"sourceId":"osm"},{"id":"osm:node:9569769784","latitude":52.975848,"longitude":-1.1918152,"name":"Melbourne Court near Denehurst Avenue","properties":{"access":"unknown","bicycle_pa":"stands","capacity":4,"covered":"no","fee":"no","operator":"","nameSource":"junction"},"sourceId":"osm"},{"id":"osm:node:9591701592","latitude":52.9809044,"longitude":-1.1467115,"name":"Mansfield Road near Drayton Street","properties":{"access":"yes","bicycle_pa":"stands","capacity":2,"covered":"no","fee":"no","operator":"","nameSource":"junction"},"sourceId":"osm"},{"id":"osm:node:9732785341","latitude":52.9878107,"longitude":-1.2041628,"name":"Colliers Way near Phoenix Place","properties":{"access":"permissive","bicycle_pa":"stands","capacity":10,"covered":"no","fee":"","operator":"","nameSource":"junction"},"sourceId":"osm"},{"id":"osm:node:9798408464","latitude":52.9885787,"longitude":-1.2090112,"name":"Millennium Way West cycle parking","properties":{"access":"permissive","bicycle_pa":"stands","capacity":4,"covered":"no","fee":"","operator":"","nameSource":"street"},"sourceId":"osm"},{"id":"osm:node:9817082080","latitude":52.9884744,"longitude":-1.20299,"name":"Phoenix Place cycle parking","properties":{"access":"private","bicycle_pa":"stands","capacity":8,"covered":"no","fee":"","operator":"","nameSource":"street"},"sourceId":"osm"},{"id":"osm:way:1039203660","latitude":52.972072319999995,"longitude":-1.17807812,"name":"Wilkinson Street cycle parking","properties":{"access":"unknown","bicycle_pa":"lockers","capacity":5,"covered":"yes","fee":"yes","operator":"Nottingham Cycle Parks","nameSource":"street"},"sourceId":"osm"},{"id":"osm:way:1126918094","latitude":53.00838646,"longitude":-1.17569784,"name":"Top Valley Drive cycle parking","properties":{"access":"unknown","bicycle_pa":"","capacity":0,"covered":"yes","fee":"","operator":"","nameSource":"street"},"sourceId":"osm"},{"id":"osm:way:1226265708","latitude":52.96814088000001,"longitude":-1.2141904000000001,"name":"Harvey Road cycle parking","properties":{"access":"private","bicycle_pa":"stands","capacity":0,"covered":"","fee":"","operator":"","nameSource":"street"},"sourceId":"osm"},{"id":"osm:way:1226265709","latitude":52.96817204,"longitude":-1.21419996,"name":"Harvey Road cycle parking","properties":{"access":"private","bicycle_pa":"stands","capacity":0,"covered":"","fee":"","operator":"","nameSource":"street"},"sourceId":"osm"},{"id":"osm:way:1226265710","latitude":52.968152499999995,"longitude":-1.21461122,"name":"Harvey Road cycle parking","properties":{"access":"private","bicycle_pa":"stands","capacity":0,"covered":"","fee":"","operator":"","nameSource":"street"},"sourceId":"osm"},{"id":"osm:way:1226987405","latitude":52.96649176,"longitude":-1.21390672,"name":"Beechdale cycle parking","properties":{"access":"unknown","bicycle_pa":"stands","capacity":0,"covered":"","fee":"","operator":"","nameSource":"place"},"sourceId":"osm"},{"id":"osm:way:791856480","latitude":53.008425,"longitude":-1.17570718,"name":"Top Valley Drive cycle parking","properties":{"access":"unknown","bicycle_pa":"","capacity":0,"covered":"yes","fee":"","operator":"","nameSource":"street"},"sourceId":"osm"}],"schemaVersion":2}
