{"key":"12/2034/1352","points":[{"id":"osm:node:12472698332","latitude":52.0319871,"longitude":-1.1442105,"name":"Cross Keys Court near High Street","properties":{"access":"yes","bicycle_pa":"stands","capacity":4,"covered":"no","fee":"no","operator":"","nameSource":"junction"},"sourceId":"osm"},{"id":"osm:node:12472698333","latitude":52.0295471,"longitude":-1.146723,"name":"High Street near Buckingham Road","properties":{"access":"yes","bicycle_pa":"stands","capacity":4,"covered":"no","fee":"no","operator":"","nameSource":"junction"},"sourceId":"osm"},{"id":"osm:node:12472698334","latitude":52.0279076,"longitude":-1.1486307,"name":"High Street by Spoon & Whisk","properties":{"access":"yes","bicycle_pa":"wall_loops","capacity":4,"covered":"no","fee":"no","operator":"","nameSource":"landmark"},"sourceId":"osm"},{"id":"osm:node:12472698335","latitude":52.0276286,"longitude":-1.1485628,"name":"High Street by Brackley Chinese Take-Away","properties":{"access":"yes","bicycle_pa":"stands","capacity":4,"covered":"no","fee":"no","operator":"","nameSource":"landmark"},"sourceId":"osm"},{"id":"osm:node:12472698336","latitude":52.0275698,"longitude":-1.1490494,"name":"High Street near Halls Lane","properties":{"access":"yes","bicycle_pa":"stands","capacity":8,"covered":"no","fee":"no","operator":"","nameSource":"junction"},"sourceId":"osm"},{"id":"osm:node:12472698337","latitude":52.0260998,"longitude":-1.1500203,"name":"High Street near Banbury Road","properties":{"access":"yes","bicycle_pa":"stands","capacity":4,"covered":"no","fee":"no","operator":"","nameSource":"junction"},"sourceId":"osm"},{"id":"osm:node:12472698339","latitude":52.0240168,"longitude":-1.1493656,"name":"Herrieffs Farm Road near Bridge Street","properties":{"access":"private","bicycle_pa":"stands","capacity":10,"covered":"yes","fee":"no","operator":"","nameSource":"junction"},"sourceId":"osm"},{"id":"osm:node:12472698340","latitude":52.0297817,"longitude":-1.1496723,"name":"Manor Road near Hill Street","properties":{"access":"unknown","bicycle_pa":"stands","capacity":0,"covered":"yes","fee":"","operator":"","nameSource":"junction"},"sourceId":"osm"},{"id":"osm:node:12472698341","latitude":52.0298711,"longitude":-1.1495675,"name":"Hill Street near Manor Road","properties":{"access":"unknown","bicycle_pa":"stands","capacity":0,"covered":"yes","fee":"","operator":"","nameSource":"junction"},"sourceId":"osm"},{"id":"osm:node:7699657937","latitude":52.0439029,"longitude":-1.1484669,"name":"Capricorn Way near Poppyfields Way","properties":{"access":"unknown","bicycle_pa":"","capacity":0,"covered":"","fee":"","operator":"","nameSource":"junction"},"sourceId":"osm"}],"schemaVersion":2}
