{"key":"12/2034/1377","points":[{"id":"osm:node:10169992527","latitude":50.6546589,"longitude":-1.1519207,"name":"Esplanade near Esplanade Road","properties":{"access":"unknown","bicycle_pa":"stands","capacity":2,"covered":"no","fee":"","operator":"","nameSource":"junction"},"sourceId":"osm"},{"id":"osm:node:10169992578","latitude":50.649412,"longitude":-1.1606407,"name":"Shanklin Sandown Revetment by Fins Beach Cafe","properties":{"access":"unknown","bicycle_pa":"wall_loops","capacity":4,"covered":"no","fee":"","operator":"","nameSource":"landmark"},"sourceId":"osm"},{"id":"osm:node:10659706613","latitude":50.6360291,"longitude":-1.1693922,"name":"Shanklin Sandown Revetment by Salix Cafe","properties":{"access":"unknown","bicycle_pa":"wall_loops","capacity":3,"covered":"no","fee":"","operator":"","nameSource":"landmark"},"sourceId":"osm"},{"id":"osm:node:10740204530","latitude":50.6469252,"longitude":-1.1790311,"name":"Merrie Farm Park cycle parking","properties":{"access":"customers","bicycle_pa":"stands","capacity":0,"covered":"no","fee":"","operator":"","nameSource":"street"},"sourceId":"osm"},{"id":"osm:node:10751770743","latitude":50.6294293,"longitude":-1.1787122,"name":"High Street near Palmerston Road","properties":{"access":"unknown","bicycle_pa":"stands","capacity":6,"covered":"no","fee":"","operator":"","nameSource":"junction"},"sourceId":"osm"},{"id":"osm:node:11776518869","latitude":50.6457847,"longitude":-1.1808834,"name":"Newport Road by Ritchie's Diner","properties":{"access":"unknown","bicycle_pa":"stands","capacity":10,"covered":"yes","fee":"","operator":"","nameSource":"landmark"},"sourceId":"osm"},{"id":"osm:node:13081248085","latitude":50.6391197,"longitude":-1.1918398,"name":"Upper Hyde cycle parking","properties":{"access":"customers","bicycle_pa":"stands","capacity":4,"covered":"no","fee":"","operator":"","nameSource":"place"},"sourceId":"osm"},{"id":"osm:node:13081248086","latitude":50.6388835,"longitude":-1.1918083,"name":"Upper Hyde cycle parking","properties":{"access":"customers","bicycle_pa":"stands","capacity":4,"covered":"no","fee":"","operator":"","nameSource":"place"},"sourceId":"osm"},{"id":"osm:node:13081248087","latitude":50.6397109,"longitude":-1.1918355,"name":"Upper Hyde cycle parking","properties":{"access":"customers","bicycle_pa":"stands","capacity":4,"covered":"no","fee":"","operator":"","nameSource":"place"},"sourceId":"osm"},{"id":"osm:node:13081338760","latitude":50.6399565,"longitude":-1.1912571,"name":"Upper Hyde cycle parking","properties":{"access":"customers","bicycle_pa":"stands","capacity":4,"covered":"no","fee":"","operator":"","nameSource":"place"},"sourceId":"osm"},{"id":"osm:node:13081370248","latitude":50.6392686,"longitude":-1.1914984,"name":"Upper Hyde cycle parking","properties":{"access":"customers","bicycle_pa":"stands","capacity":4,"covered":"no","fee":"","operator":"","nameSource":"place"},"sourceId":"osm"},{"id":"osm:node:13082317338","latitude":50.640651,"longitude":-1.1918585,"name":"Upper Hyde cycle parking","properties":{"access":"customers","bicycle_pa":"stands","capacity":4,"covered":"no","fee":"","operator":"","nameSource":"place"},"sourceId":"osm"},{"id":"osm:node:13090468666","latitude":50.6387104,"longitude":-1.1911799,"name":"Upper Hyde cycle parking","properties":{"access":"customers","bicycle_pa":"stands","capacity":2,"covered":"no","fee":"","operator":"","nameSource":"place"},"sourceId":"osm"},{"id":"osm:node:13090468667","latitude":50.6385144,"longitude":-1.1923928,"name":"Upper Hyde cycle parking","properties":{"access":"customers","bicycle_pa":"stands","capacity":4,"covered":"no","fee":"","operator":"","nameSource":"place"},"sourceId":"osm"},{"id":"osm:node:13096734563","latitude":50.6421308,"longitude":-1.1904891,"name":"Apse Heath cycle parking","properties":{"access":"customers","bicycle_pa":"stands","capacity":6,"covered":"no","fee":"","operator":"","nameSource":"place"},"sourceId":"osm"},{"id":"osm:node:13096890769","latitude":50.6465199,"longitude":-1.1796174,"name":"Merrie Farm Park near Newport Road","properties":{"access":"unknown","bicycle_pa":"stands","capacity":6,"covered":"no","fee":"","operator":"","nameSource":"junction"},"sourceId":"osm"},{"id":"osm:node:2375497476","latitude":50.6728488,"longitude":-1.1526171,"name":"Brading Roman Villa Cafe cycle parking","properties":{"access":"unknown","bicycle_pa":"stands","capacity":2,"covered":"no","fee":"","operator":"","nameSource":"landmark"},"sourceId":"osm"},{"id":"osm:node:255319932","latitude":50.6336015,"longitude":-1.1802575,"name":"Landguard Manor Road near Landguard Road","properties":{"access":"unknown","bicycle_pa":"stands","capacity":8,"covered":"yes","fee":"","operator":"","nameSource":"junction"},"sourceId":"osm"},{"id":"osm:node:3635597793","latitude":50.6527587,"longitude":-1.1558045,"name":"Pier Street near Esplanade","properties":{"access":"unknown","bicycle_pa":"stands","capacity":8,"covered":"no","fee":"","operator":"","nameSource":"junction"},"sourceId":"osm"},{"id":"osm:node:4699300765","latitude":50.6300961,"longitude":-1.1782155,"name":"Regent Street near High Street","properties":{"access":"unknown","bicycle_pa":"stands","capacity":4,"covered":"no","fee":"","operator":"","nameSource":"junction"},"sourceId":"osm"},{"id":"osm:node:4699301029","latitude":50.6311899,"longitude":-1.1782313,"name":"Clarendon Road near Falcon Cross Road","properties":{"access":"unknown","bicycle_pa":"stands","capacity":4,"covered":"no","fee":"","operator":"","nameSource":"junction"},"sourceId":"osm"},{"id":"osm:node:4848431574","latitude":50.645675,"longitude":-1.1791951,"name":"Whitecross Lane near Newport Road","properties":{"access":"unknown","bicycle_pa":"stands","capacity":10,"covered":"yes","fee":"","operator":"","nameSource":"junction"},"sourceId":"osm"},{"id":"osm:node:5166433393","latitude":50.6788178,"longitude":-1.2152724,"name":"Mersley Lane by Garlic Farm Shop","properties":{"access":"unknown","bicycle_pa":"stands","capacity":10,"covered":"no","fee":"","operator":"","nameSource":"landmark"},"sourceId":"osm"},{"id":"osm:node:5275122811","latitude":50.6582029,"longitude":-1.1453944,"name":"Culver Parade cycle parking","properties":{"access":"unknown","bicycle_pa":"stands","capacity":0,"covered":"no","fee":"","operator":"","nameSource":"street"},"sourceId":"osm"},{"id":"osm:node:559198998","latitude":50.6567387,"longitude":-1.1619135,"name":"Nunwell Street near Simeon Path","properties":{"access":"unknown","bicycle_pa":"stands","capacity":10,"covered":"no","fee":"","operator":"","nameSource":"junction"},"sourceId":"osm"},{"id":"osm:node:7757125630","latitude":50.6336473,"longitude":-1.1819849,"name":"Atherley Park Way near Atherley Park Close","properties":{"access":"unknown","bicycle_pa":"wall_loops","capacity":10,"covered":"yes","fee":"","operator":"","nameSource":"junction"},"sourceId":"osm"},{"id":"osm:node:7845859065","latitude":50.6321128,"longitude":-1.1789845,"name":"Carter Road near Regent Street","properties":{"access":"unknown","bicycle_pa":"wall_loops","capacity":2,"covered":"no","fee":"","operator":"","nameSource":"junction"},"sourceId":"osm"},{"id":"osm:node:7845859066","latitude":50.631985,"longitude":-1.1786327,"name":"Regent Street near Carter Road","properties":{"access":"unknown","bicycle_pa":"stands","capacity":2,"covered":"no","fee":"","operator":"","nameSource":"junction"},"sourceId":"osm"},{"id":"osm:node:7850592102","latitude":50.6588962,"longitude":-1.1430006,"name":"Culver Parade by Dinosaur Isle","properties":{"access":"unknown","bicycle_pa":"stands","capacity":8,"covered":"no","fee":"no","operator":"","nameSource":"landmark"},"sourceId":"osm"},{"id":"osm:node:7864187060","latitude":50.6501259,"longitude":-1.1669741,"name":"The Fairway near Lake Hill","properties":{"access":"unknown","bicycle_pa":"stands","capacity":6,"covered":"no","fee":"","operator":"","nameSource":"junction"},"sourceId":"osm"},{"id":"osm:node:7873658856","latitude":50.6513108,"longitude":-1.1619283,"name":"Broadway by Activity Studios","properties":{"access":"unknown","bicycle_pa":"stands","capacity":10,"covered":"yes","fee":"","operator":"","nameSource":"landmark"},"sourceId":"osm"},{"id":"osm:node:7881733358","latitude":50.649908,"longitude":-1.1679071,"name":"New Road near Lake Green Road","properties":{"access":"yes","bicycle_pa":"stands","capacity":4,"covered":"no","fee":"no","operator":"","nameSource":"junction"},"sourceId":"osm"},{"id":"osm:node:7884192502","latitude":50.6546888,"longitude":-1.153231,"name":"High Street near York Road","properties":{"access":"unknown","bicycle_pa":"stands","capacity":2,"covered":"no","fee":"","operator":"","nameSource":"junction"},"sourceId":"osm"},{"id":"osm:node:7884192513","latitude":50.6554938,"longitude":-1.1512308,"name":"High Street near Albion Road","properties":{"access":"unknown","bicycle_pa":"stands","capacity":4,"covered":"no","fee":"","operator":"","nameSource":"junction"},"sourceId":"osm"},{"id":"osm:node:7884192529","latitude":50.6539256,"longitude":-1.1552322,"name":"High Street near Saint John's Road","properties":{"access":"unknown","bicycle_pa":"stands","capacity":2,"covered":"no","fee":"","operator":"","nameSource":"junction"},"sourceId":"osm"},{"id":"osm:node:7884192540","latitude":50.6551822,"longitude":-1.15235,"name":"Albert Road near High Street","properties":{"access":"unknown","bicycle_pa":"stands","capacity":2,"covered":"yes","fee":"","operator":"","nameSource":"junction"},"sourceId":"osm"},{"id":"osm:node:7888075474","latitude":50.6306913,"longitude":-1.1783655,"name":"Regent Street near Clarendon Road","properties":{"access":"unknown","bicycle_pa":"stands","capacity":1,"covered":"no","fee":"no","operator":"","nameSource":"junction"},"sourceId":"osm"},{"id":"osm:node:8191899803","latitude":50.6503414,"longitude":-1.1608574,"name":"Broadway near Lake Hill","properties":{"access":"unknown","bicycle_pa":"wall_loops","capacity":4,"covered":"no","fee":"","operator":"","nameSource":"junction"},"sourceId":"osm"},{"id":"osm:node:8557290263","latitude":50.6555477,"longitude":-1.1499314,"name":"Esplanade near Avenue Road Slipway","properties":{"access":"yes","bicycle_pa":"stands","capacity":4,"covered":"no","fee":"no","operator":"","nameSource":"junction"},"sourceId":"osm"},{"id":"osm:node:9690642643","latitude":50.6317836,"longitude":-1.1784674,"name":"Regent Street near Carter Road","properties":{"access":"unknown","bicycle_pa":"stands","capacity":2,"covered":"no","fee":"","operator":"","nameSource":"junction"},"sourceId":"osm"},{"id":"osm:node:9711909412","latitude":50.6298727,"longitude":-1.1781026,"name":"Regent Street near High Street","properties":{"access":"unknown","bicycle_pa":"stands","capacity":2,"covered":"no","fee":"","operator":"","nameSource":"junction"},"sourceId":"osm"},{"id":"osm:node:9823813284","latitude":50.6466234,"longitude":-1.1818296,"name":"Newport Road near Lake Industrial Way","properties":{"access":"customers","bicycle_pa":"","capacity":12,"covered":"no","fee":"","operator":"Morrisons","nameSource":"junction"},"sourceId":"osm"},{"id":"osm:way:1001093081","latitude":50.63925782,"longitude":-1.1739612,"name":"Oaklyn Gardens by Gatten and Lake Primary School","properties":{"access":"private","bicycle_pa":"","capacity":0,"covered":"yes","fee":"","operator":"Gatten and Lake Primary School","nameSource":"landmark"},"sourceId":"osm"}],"schemaVersion":2}
