{"key":"12/2034/1579","points":[{"id":"osm:node:11359271410","latitude":38.0009689,"longitude":-1.1461319,"name":"Avenida Ciclista Mariano Rojas cycle parking","properties":{"access":"yes","bicycle_pa":"stands","capacity":6,"covered":"no","fee":"no","operator":"","nameSource":"street"},"sourceId":"osm"},{"id":"osm:node:11401161230","latitude":37.9966172,"longitude":-1.1428456,"name":"Avenida Miguel de Cervantes near Calle Dulcinea","properties":{"access":"yes","bicycle_pa":"stands","capacity":10,"covered":"no","fee":"no","operator":"","nameSource":"junction"},"sourceId":"osm"},{"id":"osm:node:13338575799","latitude":38.0276819,"longitude":-1.1453803,"name":"Avenida Xarrat cycle parking","properties":{"access":"customers","bicycle_pa":"wall_loops","capacity":7,"covered":"yes","fee":"","operator":"","nameSource":"street"},"sourceId":"osm"},{"id":"osm:node:2187270942","latitude":38.0226744,"longitude":-1.1728706,"name":"Vial Norte by BiciCampus Aulario Norte","properties":{"access":"unknown","bicycle_pa":"wall_loops","capacity":0,"covered":"no","fee":"","operator":"","nameSource":"landmark"},"sourceId":"osm"},{"id":"osm:node:2340543136","latitude":38.0091667,"longitude":-1.148323,"name":"Calle Antonio Rocamora near Calle San Vicente de Paúl","properties":{"access":"unknown","bicycle_pa":"stands","capacity":12,"covered":"","fee":"","operator":"","nameSource":"junction"},"sourceId":"osm"},{"id":"osm:node:2340543154","latitude":38.0095895,"longitude":-1.1480654,"name":"Avenida Juan Carlos I near Calle Antonio Rocamora","properties":{"access":"unknown","bicycle_pa":"stands","capacity":4,"covered":"","fee":"","operator":"","nameSource":"junction"},"sourceId":"osm"},{"id":"osm:node:2340543155","latitude":38.010979,"longitude":-1.15586,"name":"Calle de Juan Martínez Pagán cycle parking","properties":{"access":"unknown","bicycle_pa":"stands","capacity":4,"covered":"","fee":"","operator":"","nameSource":"street"},"sourceId":"osm"},{"id":"osm:node:2340543189","latitude":38.007374,"longitude":-1.15202,"name":"Avenida Marqués de Espinardo near Calle Doctor de la Peña","properties":{"access":"unknown","bicycle_pa":"stands","capacity":6,"covered":"no","fee":"","operator":"","nameSource":"junction"},"sourceId":"osm"},{"id":"osm:node:2340543190","latitude":38.01358,"longitude":-1.156147,"name":"Avenida Juan Carlos I by MUyBICI: JCI- Espinardo","properties":{"access":"unknown","bicycle_pa":"stands","capacity":6,"covered":"","fee":"","operator":"","nameSource":"landmark"},"sourceId":"osm"},{"id":"osm:node:2340543195","latitude":38.007309,"longitude":-1.145872,"name":"Avenida Juan Carlos I cycle parking","properties":{"access":"unknown","bicycle_pa":"stands","capacity":8,"covered":"","fee":"","operator":"","nameSource":"street"},"sourceId":"osm"},{"id":"osm:node:2340543196","latitude":38.0077373,"longitude":-1.1463245,"name":"Avenida Juan Carlos I cycle parking","properties":{"access":"unknown","bicycle_pa":"stands","capacity":8,"covered":"","fee":"","operator":"","nameSource":"street"},"sourceId":"osm"},{"id":"osm:node:2340543201","latitude":38.012486,"longitude":-1.152036,"name":"Avenida Juan Carlos I by Centro de Salud Espinardo","properties":{"access":"unknown","bicycle_pa":"stands","capacity":6,"covered":"","fee":"","operator":"","nameSource":"landmark"},"sourceId":"osm"},{"id":"osm:node:2340573721","latitude":38.027485,"longitude":-1.1462712,"name":"Avenida Molina de Segura cycle parking","properties":{"access":"unknown","bicycle_pa":"wall_loops","capacity":0,"covered":"","fee":"","operator":"","nameSource":"street"},"sourceId":"osm"},{"id":"osm:node:2340910558","latitude":38.0318104,"longitude":-1.1480077,"name":"Decathlon cycle parking","properties":{"access":"unknown","bicycle_pa":"wall_loops","capacity":0,"covered":"no","fee":"","operator":"","nameSource":"landmark"},"sourceId":"osm"},{"id":"osm:node:2511890087","latitude":37.997189,"longitude":-1.217696,"name":"Fuente Contraparada cycle parking","properties":{"access":"unknown","bicycle_pa":"wall_loops","capacity":0,"covered":"","fee":"","operator":"","nameSource":"landmark"},"sourceId":"osm"},{"id":"osm:node:2538410249","latitude":38.0188862,"longitude":-1.1847471,"name":"Vía Verde del Noroeste (Antigua vía Murcia-Caravaca) cycle parking","properties":{"access":"unknown","bicycle_pa":"wall_loops","capacity":5,"covered":"","fee":"","operator":"","nameSource":"street"},"sourceId":"osm"},{"id":"osm:node:2615127831","latitude":38.0327405,"longitude":-1.1488975,"name":"Game cycle parking","properties":{"access":"unknown","bicycle_pa":"wall_loops","capacity":0,"covered":"yes","fee":"","operator":"","nameSource":"landmark"},"sourceId":"osm"},{"id":"osm:node:2622506358","latitude":38.0121398,"longitude":-1.1533238,"name":"Calle Peñacerrada near Calle de la Piscina","properties":{"access":"unknown","bicycle_pa":"shed","capacity":20,"covered":"yes","fee":"","operator":"","nameSource":"junction"},"sourceId":"osm"},{"id":"osm:node:2654248819","latitude":38.0065528,"longitude":-1.1487583,"name":"Avenida Teniente Montesinos by Parque Bomberos Murcia-Espinardo","properties":{"access":"unknown","bicycle_pa":"stands","capacity":0,"covered":"yes","fee":"","operator":"","nameSource":"landmark"},"sourceId":"osm"},{"id":"osm:node:2654248820","latitude":38.0069712,"longitude":-1.145543,"name":"Avenida Juan Carlos I cycle parking","properties":{"access":"unknown","bicycle_pa":"stands","capacity":0,"covered":"","fee":"","operator":"","nameSource":"street"},"sourceId":"osm"},{"id":"osm:node:2654248821","latitude":38.0110781,"longitude":-1.1655864,"name":"Costera Norte cycle parking","properties":{"access":"unknown","bicycle_pa":"stands","capacity":8,"covered":"","fee":"","operator":"","nameSource":"street"},"sourceId":"osm"},{"id":"osm:node:3382740924","latitude":38.016135,"longitude":-1.1738406,"name":"Anillo Campus de Espinardo near Calle Ramón y Cajal","properties":{"access":"unknown","bicycle_pa":"shed","capacity":20,"covered":"yes","fee":"","operator":"","nameSource":"junction"},"sourceId":"osm"}],"schemaVersion":2}
