{"key":"12/2034/1580","points":[{"id":"osm:node:2340875944","latitude":37.94112,"longitude":-1.1452718,"name":"Calle Emilio Macabich near Calle de José Paredes","properties":{"access":"unknown","bicycle_pa":"stands","capacity":0,"covered":"","fee":"","operator":"","nameSource":"junction"},"sourceId":"osm"},{"id":"osm:node:2344900001","latitude":37.9412787,"longitude":-1.1675867,"name":"Paseo Región Murciana near Calle Pío IX","properties":{"access":"unknown","bicycle_pa":"stands","capacity":10,"covered":"","fee":"","operator":"","nameSource":"junction"},"sourceId":"osm"},{"id":"osm:node:2461624802","latitude":37.9392544,"longitude":-1.1565927,"name":"Avenida Primero de Mayo near Calle Doctor Agustín Navarrete","properties":{"access":"unknown","bicycle_pa":"stands","capacity":5,"covered":"","fee":"","operator":"","nameSource":"junction"},"sourceId":"osm"},{"id":"osm:node:2470916142","latitude":37.939002,"longitude":-1.171013,"name":"Avenida de Burgos near Calle Pintor Muñoz Barberán","properties":{"access":"unknown","bicycle_pa":"stands","capacity":10,"covered":"","fee":"","operator":"","nameSource":"junction"},"sourceId":"osm"},{"id":"osm:node:2486829081","latitude":37.9475864,"longitude":-1.1576809,"name":"Avenida del Palmar near Camino de Los Urrolas","properties":{"access":"unknown","bicycle_pa":"stands","capacity":6,"covered":"","fee":"","operator":"","nameSource":"junction"},"sourceId":"osm"},{"id":"osm:node:2511890088","latitude":37.979897,"longitude":-1.167712,"name":"Calle Auroros near Calle Hernández Muñoz","properties":{"access":"unknown","bicycle_pa":"stands","capacity":8,"covered":"","fee":"","operator":"","nameSource":"junction"},"sourceId":"osm"},{"id":"osm:node:2511890089","latitude":37.986942,"longitude":-1.202013,"name":"RM-560 near Calle Corredera","properties":{"access":"unknown","bicycle_pa":"stands","capacity":8,"covered":"","fee":"","operator":"","nameSource":"junction"},"sourceId":"osm"},{"id":"osm:node:2615127837","latitude":37.9896355,"longitude":-1.1535847,"name":"Colegio de Educación Infantil y Primaria Puente de Doñana cycle parking","properties":{"access":"unknown","bicycle_pa":"stands","capacity":6,"covered":"","fee":"","operator":"","nameSource":"landmark"},"sourceId":"osm"},{"id":"osm:node:2622506341","latitude":37.9950878,"longitude":-1.1454491,"name":"Calle Arquitecto Manuel García Cerdán near Calle Sierra de Peñarrubia","properties":{"access":"unknown","bicycle_pa":"shed","capacity":20,"covered":"yes","fee":"","operator":"","nameSource":"junction"},"sourceId":"osm"},{"id":"osm:node:2654248804","latitude":37.9901635,"longitude":-1.144404,"name":"Avenida del Metal cycle parking","properties":{"access":"unknown","bicycle_pa":"stands","capacity":0,"covered":"","fee":"","operator":"","nameSource":"street"},"sourceId":"osm"},{"id":"osm:node:2655785255","latitude":37.9335057,"longitude":-1.1607781,"name":"Calle del Polideportivo by Fuente Polideportivo El Palmar","properties":{"access":"unknown","bicycle_pa":"wall_loops","capacity":6,"covered":"","fee":"","operator":"","nameSource":"landmark"},"sourceId":"osm"},{"id":"osm:node:2689892003","latitude":37.9368233,"longitude":-1.1632843,"name":"Calle Mayor near Paralela Sierra Espuña","properties":{"access":"unknown","bicycle_pa":"wall_loops","capacity":6,"covered":"","fee":"","operator":"","nameSource":"junction"},"sourceId":"osm"},{"id":"osm:node:2699737799","latitude":37.9369575,"longitude":-1.1676049,"name":"Avenida de la Libertad near Calle Francisco Frutos","properties":{"access":"unknown","bicycle_pa":"wall_loops","capacity":6,"covered":"no","fee":"","operator":"","nameSource":"junction"},"sourceId":"osm"},{"id":"osm:node:2744549811","latitude":37.9659895,"longitude":-1.1680541,"name":"Calle del Carmen near Calle Miguel Hernández","properties":{"access":"unknown","bicycle_pa":"stands","capacity":6,"covered":"","fee":"","operator":"","nameSource":"junction"},"sourceId":"osm"},{"id":"osm:node:2888880676","latitude":37.9428909,"longitude":-1.160928,"name":"Calle Mayor by Colegio de Educación Infantil y Primaria San Vicente de Paúl","properties":{"access":"unknown","bicycle_pa":"anchors","capacity":5,"covered":"","fee":"","operator":"","nameSource":"landmark"},"sourceId":"osm"},{"id":"osm:node:2888880677","latitude":37.9380075,"longitude":-1.1680377,"name":"Avenida de la Libertad near Calle Cronista Carlos Valcárcel","properties":{"access":"unknown","bicycle_pa":"stands","capacity":10,"covered":"no","fee":"","operator":"","nameSource":"junction"},"sourceId":"osm"},{"id":"osm:node:3087324302","latitude":37.9383622,"longitude":-1.1428167,"name":"Calle Doctor Fleming near Calle José García Canales","properties":{"access":"unknown","bicycle_pa":"stands","capacity":0,"covered":"","fee":"","operator":"","nameSource":"junction"},"sourceId":"osm"},{"id":"osm:node:3147136962","latitude":37.9408871,"longitude":-1.1635471,"name":"Calle Carrascos near Calle Pelagio Ferrer","properties":{"access":"unknown","bicycle_pa":"stands","capacity":8,"covered":"","fee":"","operator":"","nameSource":"junction"},"sourceId":"osm"},{"id":"osm:node:3382740925","latitude":37.9341099,"longitude":-1.1627143,"name":"Avenida Primero de Mayo by Arrixaca","properties":{"access":"unknown","bicycle_pa":"wall_loops","capacity":3,"covered":"","fee":"","operator":"","nameSource":"landmark"},"sourceId":"osm"},{"id":"osm:node:3578251323","latitude":37.9420508,"longitude":-1.146675,"name":"Calle Carlos Valcárcel by 525","properties":{"access":"unknown","bicycle_pa":"stands","capacity":6,"covered":"","fee":"","operator":"","nameSource":"landmark"},"sourceId":"osm"},{"id":"osm:node:3633580994","latitude":37.9722347,"longitude":-1.1718207,"name":"Calle Carmen near Calle Constitución","properties":{"access":"unknown","bicycle_pa":"stands","capacity":6,"covered":"","fee":"","operator":"","nameSource":"junction"},"sourceId":"osm"},{"id":"osm:node:3901290796","latitude":37.9276754,"longitude":-1.1478114,"name":"Quiosco El Valle Perdido cycle parking","properties":{"access":"unknown","bicycle_pa":"stands","capacity":4,"covered":"","fee":"","operator":"","nameSource":"landmark"},"sourceId":"osm"},{"id":"osm:node:3959272653","latitude":37.9927863,"longitude":-1.1864189,"name":"Avenida de los Jerónimos near Costera Norte","properties":{"access":"unknown","bicycle_pa":"stands","capacity":0,"covered":"","fee":"","operator":"","nameSource":"junction"},"sourceId":"osm"},{"id":"osm:node:4843261635","latitude":37.9413789,"longitude":-1.1478246,"name":"Calle Academia Carmen Conde near Calle Pintor Gómez Cano","properties":{"access":"permissive","bicycle_pa":"stands","capacity":10,"covered":"no","fee":"","operator":"Oficina Municipal de la Bicicleta","nameSource":"junction"},"sourceId":"osm"},{"id":"osm:node:4843558460","latitude":37.9745873,"longitude":-1.1432252,"name":"Calle Orilla de la Vía near Camino de la Herrera","properties":{"access":"permissive","bicycle_pa":"stands","capacity":8,"covered":"no","fee":"","operator":"http://www.oficinabicicletamurcia.com/","nameSource":"junction"},"sourceId":"osm"},{"id":"osm:node:4847067168","latitude":37.9771715,"longitude":-1.197418,"name":"Calle Bando de la Huerta near Calle Miguel Caballero","properties":{"access":"permissive","bicycle_pa":"stands","capacity":4,"covered":"no","fee":"","operator":"http://www.oficinabicicletamurcia.info/","nameSource":"junction"},"sourceId":"osm"},{"id":"osm:node:4847086150","latitude":37.9773397,"longitude":-1.1969525,"name":"Calle Bando de la Huerta near Calle Miguel Caballero","properties":{"access":"permissive","bicycle_pa":"stands","capacity":4,"covered":"no","fee":"","operator":"http://www.oficinabicicletamurcia.info/","nameSource":"junction"},"sourceId":"osm"},{"id":"osm:node:4847094080","latitude":37.977089,"longitude":-1.197264,"name":"Calle Bando de la Huerta near Calle Miguel Caballero","properties":{"access":"permissive","bicycle_pa":"stands","capacity":2,"covered":"no","fee":"","operator":"http://www.oficinabicicletamurcia.info/","nameSource":"junction"},"sourceId":"osm"},{"id":"osm:node:4847122661","latitude":37.9782274,"longitude":-1.1989518,"name":"Santaren cycle parking","properties":{"access":"permissive","bicycle_pa":"stands","capacity":6,"covered":"no","fee":"","operator":"http://www.oficinabicicletamurcia.info/","nameSource":"street"},"sourceId":"osm"},{"id":"osm:node:5677898135","latitude":37.9773138,"longitude":-1.1762358,"name":"Carretera Rincón de Seca near Camino de La Barca","properties":{"access":"unknown","bicycle_pa":"","capacity":0,"covered":"","fee":"","operator":"","nameSource":"junction"},"sourceId":"osm"},{"id":"osm:node:5677898136","latitude":37.9779227,"longitude":-1.1784748,"name":"Calle Poeta Federico García Lorca near Calle Teniente Victor Castillo","properties":{"access":"unknown","bicycle_pa":"","capacity":0,"covered":"","fee":"","operator":"","nameSource":"junction"},"sourceId":"osm"}],"schemaVersion":2}
