{"key":"12/2012/1271","points":[{"id":"osm:node:11964106887","latitude":56.2001924,"longitude":-3.1313106,"name":"Balgonie Road near Selkirk Street","properties":{"access":"unknown","bicycle_pa":"stands","capacity":18,"covered":"yes","fee":"","operator":"","nameSource":"junction"},"sourceId":"osm"},{"id":"osm:node:1738489499","latitude":56.1994524,"longitude":-3.1633427,"name":"Asda cycle parking","properties":{"access":"unknown","bicycle_pa":"stands","capacity":24,"covered":"yes","fee":"","operator":"","nameSource":"landmark"},"sourceId":"osm"},{"id":"osm:node:3225801032","latitude":56.1961463,"longitude":-3.1577458,"name":"Queensway near A92","properties":{"access":"unknown","bicycle_pa":"","capacity":0,"covered":"yes","fee":"","operator":"","nameSource":"junction"},"sourceId":"osm"},{"id":"osm:node:4407999057","latitude":56.2003751,"longitude":-3.1311927,"name":"Balgonie Road near Selkirk Street","properties":{"access":"unknown","bicycle_pa":"stands","capacity":24,"covered":"no","fee":"","operator":"","nameSource":"junction"},"sourceId":"osm"},{"id":"osm:way:353709239","latitude":56.19733289999999,"longitude":-3.16288286,"name":"Queensway cycle parking","properties":{"access":"unknown","bicycle_pa":"stands","capacity":20,"covered":"yes","fee":"","operator":"","nameSource":"street"},"sourceId":"osm"}],"schemaVersion":2}
