{"key":"12/2012/1326","points":[{"id":"osm:node:12866385498","latitude":53.407196,"longitude":-3.1136693,"name":"Station Approach by scallops","properties":{"access":"unknown","bicycle_pa":"","capacity":6,"covered":"","fee":"","operator":"","nameSource":"landmark"},"sourceId":"osm"},{"id":"osm:node:12866385499","latitude":53.4071305,"longitude":-3.1140746,"name":"Pasture Road by scallops","properties":{"access":"unknown","bicycle_pa":"","capacity":4,"covered":"","fee":"","operator":"","nameSource":"landmark"},"sourceId":"osm"},{"id":"osm:node:12866392009","latitude":53.4073049,"longitude":-3.1139278,"name":"Cliveden Grove by scallops","properties":{"access":"unknown","bicycle_pa":"","capacity":6,"covered":"","fee":"","operator":"","nameSource":"landmark"},"sourceId":"osm"},{"id":"osm:node:12866392010","latitude":53.4072989,"longitude":-3.113732,"name":"Cliveden Grove by scallops","properties":{"access":"unknown","bicycle_pa":"","capacity":6,"covered":"","fee":"","operator":"","nameSource":"landmark"},"sourceId":"osm"},{"id":"osm:node:2616336464","latitude":53.3833758,"longitude":-3.0986572,"name":"Arrowe Park Road near Milman Close","properties":{"access":"unknown","bicycle_pa":"stands","capacity":2,"covered":"no","fee":"no","operator":"","nameSource":"junction"},"sourceId":"osm"},{"id":"osm:node:2616340859","latitude":53.3850303,"longitude":-3.0986994,"name":"Ford Road near Arrowe Park Road","properties":{"access":"unknown","bicycle_pa":"stands","capacity":4,"covered":"no","fee":"no","operator":"","nameSource":"junction"},"sourceId":"osm"},{"id":"osm:node:2616360758","latitude":53.3847327,"longitude":-3.0979529,"name":"Ford Road near Rake Lane","properties":{"access":"unknown","bicycle_pa":"stands","capacity":4,"covered":"no","fee":"","operator":"","nameSource":"junction"},"sourceId":"osm"},{"id":"osm:way:1126554728","latitude":53.40907215714286,"longitude":-3.0779256428571427,"name":"Bidston Station Approach cycle parking","properties":{"access":"permit","bicycle_pa":"shed","capacity":0,"covered":"","fee":"","operator":"","nameSource":"street"},"sourceId":"osm"}],"schemaVersion":2}
