{"key":"12/2012/1327","points":[{"id":"osm:node:10657129426","latitude":53.3700116,"longitude":-3.0768802,"name":"Woodchurch Road by WOODCHURCH ROAD","properties":{"access":"customers","bicycle_pa":"wall_loops","capacity":0,"covered":"yes","fee":"no","operator":"","nameSource":"landmark"},"sourceId":"osm"},{"id":"osm:node:10657157507","latitude":53.3805017,"longitude":-3.1030412,"name":"Sainsbury's cycle parking","properties":{"access":"customers","bicycle_pa":"stands","capacity":36,"covered":"yes","fee":"no","operator":"","nameSource":"landmark"},"sourceId":"osm"},{"id":"osm:node:10657157508","latitude":53.3798441,"longitude":-3.1021963,"name":"Boyes cycle parking","properties":{"access":"customers","bicycle_pa":"stands","capacity":8,"covered":"yes","fee":"no","operator":"","nameSource":"landmark"},"sourceId":"osm"},{"id":"osm:node:10657157509","latitude":53.3795113,"longitude":-3.1017698,"name":"Malley Close by Homebase","properties":{"access":"unknown","bicycle_pa":"stands","capacity":6,"covered":"no","fee":"no","operator":"","nameSource":"landmark"},"sourceId":"osm"},{"id":"osm:node:9991669405","latitude":53.3771701,"longitude":-3.1200757,"name":"Greasby Road near Arrowe Road","properties":{"access":"unknown","bicycle_pa":"stands","capacity":4,"covered":"no","fee":"","operator":"","nameSource":"junction"},"sourceId":"osm"},{"id":"osm:node:9991669408","latitude":53.377456,"longitude":-3.1203958,"name":"Greasby Road near Arrowe Road","properties":{"access":"unknown","bicycle_pa":"stands","capacity":10,"covered":"no","fee":"","operator":"","nameSource":"junction"},"sourceId":"osm"}],"schemaVersion":2}
