{"key":"12/2043/1320","points":[{"id":"osm:node:11812054339","latitude":53.7446002,"longitude":-0.4040681,"name":"Anlaby Road near Plantation Drive West","properties":{"access":"unknown","bicycle_pa":"stands","capacity":4,"covered":"no","fee":"","operator":"","nameSource":"junction"},"sourceId":"osm"},{"id":"osm:node:11812185569","latitude":53.7427131,"longitude":-0.3866597,"name":"Airmyn Avenue cycle parking","properties":{"access":"unknown","bicycle_pa":"stands","capacity":10,"covered":"no","fee":"","operator":"","nameSource":"street"},"sourceId":"osm"},{"id":"osm:node:11813320026","latitude":53.7344772,"longitude":-0.3692943,"name":"Hessle Road near Rugby Street","properties":{"access":"unknown","bicycle_pa":"stands","capacity":8,"covered":"no","fee":"","operator":"","nameSource":"junction"},"sourceId":"osm"},{"id":"osm:node:11813373414","latitude":53.7351125,"longitude":-0.3644038,"name":"Eton Street near Hessle Road","properties":{"access":"unknown","bicycle_pa":"stands","capacity":2,"covered":"no","fee":"","operator":"","nameSource":"junction"},"sourceId":"osm"},{"id":"osm:node:12996207358","latitude":53.7446565,"longitude":-0.414883,"name":"Spring Gardens near Hull Road","properties":{"access":"unknown","bicycle_pa":"stands","capacity":12,"covered":"no","fee":"","operator":"","nameSource":"junction"},"sourceId":"osm"},{"id":"osm:node:13002234023","latitude":53.7435938,"longitude":-0.3787265,"name":"Anlaby Road near Plane Street","properties":{"access":"unknown","bicycle_pa":"stands","capacity":14,"covered":"no","fee":"","operator":"","nameSource":"junction"},"sourceId":"osm"},{"id":"osm:node:13002261442","latitude":53.7433867,"longitude":-0.3854972,"name":"Anlaby Road near Wold Carr Road","properties":{"access":"unknown","bicycle_pa":"stands","capacity":4,"covered":"no","fee":"","operator":"","nameSource":"junction"},"sourceId":"osm"},{"id":"osm:node:13002262608","latitude":53.7450057,"longitude":-0.3931136,"name":"Anlaby Road near Calvert Lane","properties":{"access":"unknown","bicycle_pa":"stands","capacity":4,"covered":"no","fee":"","operator":"","nameSource":"junction"},"sourceId":"osm"},{"id":"osm:node:13002266642","latitude":53.7437023,"longitude":-0.3758086,"name":"Anlaby Road near Sandringham Street","properties":{"access":"unknown","bicycle_pa":"stands","capacity":4,"covered":"no","fee":"","operator":"","nameSource":"junction"},"sourceId":"osm"},{"id":"osm:node:13002269556","latitude":53.7443339,"longitude":-0.4086675,"name":"Anlaby Road near Norland Avenue","properties":{"access":"unknown","bicycle_pa":"stands","capacity":4,"covered":"no","fee":"","operator":"","nameSource":"junction"},"sourceId":"osm"},{"id":"osm:node:13128334182","latitude":53.7435489,"longitude":-0.3853278,"name":"Anlaby Road near Wold Carr Road","properties":{"access":"unknown","bicycle_pa":"stands","capacity":6,"covered":"no","fee":"","operator":"","nameSource":"junction"},"sourceId":"osm"},{"id":"osm:node:13128401983","latitude":53.7437203,"longitude":-0.3837205,"name":"Anlaby Road near Hawthorn Avenue","properties":{"access":"unknown","bicycle_pa":"stands","capacity":6,"covered":"no","fee":"","operator":"","nameSource":"junction"},"sourceId":"osm"},{"id":"osm:node:13128405979","latitude":53.7436032,"longitude":-0.3759424,"name":"Anlaby Road near Sandringham Street","properties":{"access":"unknown","bicycle_pa":"stands","capacity":4,"covered":"no","fee":"","operator":"","nameSource":"junction"},"sourceId":"osm"},{"id":"osm:node:13128428355","latitude":53.7437772,"longitude":-0.3794691,"name":"Anlaby Road near De La Pole Avenue","properties":{"access":"unknown","bicycle_pa":"stands","capacity":6,"covered":"no","fee":"","operator":"","nameSource":"junction"},"sourceId":"osm"},{"id":"osm:node:13128651538","latitude":53.743748,"longitude":-0.3816828,"name":"Anlaby Road near Parkfield Drive","properties":{"access":"unknown","bicycle_pa":"stands","capacity":6,"covered":"no","fee":"","operator":"","nameSource":"junction"},"sourceId":"osm"},{"id":"osm:node:13531939851","latitude":53.7416093,"longitude":-0.3918043,"name":"North Road near Boothferry Road","properties":{"access":"unknown","bicycle_pa":"stands","capacity":6,"covered":"no","fee":"","operator":"","nameSource":"junction"},"sourceId":"osm"},{"id":"osm:node:1780611337","latitude":53.737342,"longitude":-0.4104453,"name":"Anlaby Park Road North near Sibelius Road","properties":{"access":"unknown","bicycle_pa":"","capacity":10,"covered":"yes","fee":"","operator":"","nameSource":"junction"},"sourceId":"osm"},{"id":"osm:node:2381900525","latitude":53.7285561,"longitude":-0.3699825,"name":"St Andrews Quay by Barker and Stonehouse","properties":{"access":"unknown","bicycle_pa":"stands","capacity":10,"covered":"yes","fee":"","operator":"","nameSource":"landmark"},"sourceId":"osm"},{"id":"osm:node:2428118338","latitude":53.7229711,"longitude":-0.4379387,"name":"Prestongate near The Weir","properties":{"access":"unknown","bicycle_pa":"stands","capacity":3,"covered":"no","fee":"no","operator":"","nameSource":"junction"},"sourceId":"osm"},{"id":"osm:node:2428118341","latitude":53.7230823,"longitude":-0.4356356,"name":"Southgate near The Square","properties":{"access":"unknown","bicycle_pa":"stands","capacity":6,"covered":"no","fee":"","operator":"","nameSource":"junction"},"sourceId":"osm"},{"id":"osm:node:3437296129","latitude":53.7231552,"longitude":-0.4350366,"name":"The Square near Southgate","properties":{"access":"unknown","bicycle_pa":"stands","capacity":24,"covered":"no","fee":"","operator":"","nameSource":"junction"},"sourceId":"osm"},{"id":"osm:node:3910608160","latitude":53.7236767,"longitude":-0.433998,"name":"The Square by Hessle Cars","properties":{"access":"unknown","bicycle_pa":"stands","capacity":5,"covered":"yes","fee":"no","operator":"","nameSource":"landmark"},"sourceId":"osm"},{"id":"osm:node:9368418393","latitude":53.7452956,"longitude":-0.4320219,"name":"Wilson Street near Hull Road","properties":{"access":"unknown","bicycle_pa":"stands","capacity":8,"covered":"no","fee":"","operator":"","nameSource":"junction"},"sourceId":"osm"},{"id":"osm:node:9501768157","latitude":53.7483261,"longitude":-0.3748774,"name":"Walton Street near Lowther Street","properties":{"access":"unknown","bicycle_pa":"stands","capacity":10,"covered":"yes","fee":"","operator":"","nameSource":"junction"},"sourceId":"osm"},{"id":"osm:node:9800297035","latitude":53.7236852,"longitude":-0.4340473,"name":"The Square by Hessle Cars","properties":{"access":"unknown","bicycle_pa":"stands","capacity":3,"covered":"no","fee":"no","operator":"","nameSource":"landmark"},"sourceId":"osm"},{"id":"osm:way:149602613","latitude":53.733130519999996,"longitude":-0.40909606,"name":"Lynton Avenue cycle parking","properties":{"access":"unknown","bicycle_pa":"shed","capacity":0,"covered":"yes","fee":"","operator":"","nameSource":"street"},"sourceId":"osm"}],"schemaVersion":2}
