{"key":"12/2043/1370","points":[{"id":"osm:node:11067045294","latitude":51.0268552,"longitude":-0.357278,"name":"Downs Link cycle parking","properties":{"access":"yes","bicycle_pa":"wall_loops","capacity":6,"covered":"no","fee":"","operator":"","nameSource":"street"},"sourceId":"osm"},{"id":"osm:node:5008378638","latitude":51.0655929,"longitude":-0.3568961,"name":"A24 by Timpson","properties":{"access":"unknown","bicycle_pa":"stands","capacity":6,"covered":"yes","fee":"no","operator":"","nameSource":"landmark"},"sourceId":"osm"},{"id":"osm:node:5008378639","latitude":51.0654585,"longitude":-0.3563154,"name":"A24 cycle parking","properties":{"access":"unknown","bicycle_pa":"stands","capacity":6,"covered":"no","fee":"no","operator":"","nameSource":"street"},"sourceId":"osm"},{"id":"osm:node:6064785930","latitude":51.0246578,"longitude":-0.3518347,"name":"Lintot Square near Station Road","properties":{"access":"unknown","bicycle_pa":"stands","capacity":4,"covered":"no","fee":"","operator":"","nameSource":"junction"},"sourceId":"osm"},{"id":"osm:node:6064785931","latitude":51.0246578,"longitude":-0.3515907,"name":"Lintot Square near Station Road","properties":{"access":"unknown","bicycle_pa":"stands","capacity":12,"covered":"no","fee":"","operator":"","nameSource":"junction"},"sourceId":"osm"},{"id":"osm:node:6095584731","latitude":51.0638538,"longitude":-0.3583922,"name":"A24 by Cafeology","properties":{"access":"unknown","bicycle_pa":"stands","capacity":16,"covered":"yes","fee":"","operator":"","nameSource":"landmark"},"sourceId":"osm"},{"id":"osm:node:6095584732","latitude":51.0638666,"longitude":-0.3584411,"name":"A24 by Cafeology","properties":{"access":"unknown","bicycle_pa":"stands","capacity":16,"covered":"yes","fee":"","operator":"","nameSource":"landmark"},"sourceId":"osm"},{"id":"osm:node:6095584733","latitude":51.0639025,"longitude":-0.3585577,"name":"Cafeology cycle parking","properties":{"access":"unknown","bicycle_pa":"stands","capacity":8,"covered":"","fee":"","operator":"","nameSource":"landmark"},"sourceId":"osm"},{"id":"osm:node:6095584734","latitude":51.0639511,"longitude":-0.3587157,"name":"Cafeology cycle parking","properties":{"access":"unknown","bicycle_pa":"stands","capacity":8,"covered":"","fee":"","operator":"","nameSource":"landmark"},"sourceId":"osm"},{"id":"osm:node:6095584735","latitude":51.0640486,"longitude":-0.3589282,"name":"Wickhurst Lane by Cafeology","properties":{"access":"unknown","bicycle_pa":"stands","capacity":8,"covered":"","fee":"","operator":"","nameSource":"landmark"},"sourceId":"osm"},{"id":"osm:node:6095584736","latitude":51.064191,"longitude":-0.35882,"name":"Wickhurst Lane by Cafeology","properties":{"access":"unknown","bicycle_pa":"stands","capacity":8,"covered":"","fee":"","operator":"","nameSource":"landmark"},"sourceId":"osm"},{"id":"osm:node:6095584740","latitude":51.0641805,"longitude":-0.3579401,"name":"Wickhurst Lane by Horsham District Indoor Bowls Centre","properties":{"access":"unknown","bicycle_pa":"stands","capacity":6,"covered":"","fee":"","operator":"","nameSource":"landmark"},"sourceId":"osm"},{"id":"osm:way:933020551","latitude":51.0508692,"longitude":-0.36366092,"name":"Railway Cottages by Christ's Hospital","properties":{"access":"yes","bicycle_pa":"stands","capacity":20,"covered":"yes","fee":"no","operator":"","nameSource":"landmark"},"sourceId":"osm"}],"schemaVersion":2}
