{"key":"12/2060/1342","points":[{"categories":["hire"],"id":"osm:node:10220662671","latitude":52.570348,"longitude":1.111762,"name":"Market Street Car Park","properties":{"fee":"yes","network":"Beryl - Norwich","operator":"Beryl"},"sourceId":"osm"},{"categories":["hire"],"id":"osm:node:10220662672","latitude":52.570689,"longitude":1.113745,"name":"Wymondham Library Back Lane","properties":{"fee":"yes","network":"Beryl - Norwich","operator":"Beryl"},"sourceId":"osm"},{"categories":["hire"],"id":"osm:node:10220680589","latitude":52.571824,"longitude":1.119144,"name":"Postmill Close","properties":{"fee":"yes","network":"Beryl - Norwich","operator":"Beryl"},"sourceId":"osm"},{"categories":["hire"],"id":"osm:node:10220680590","latitude":52.5757134,"longitude":1.1277688,"name":"Harts Farm Road","properties":{"fee":"yes","network":"Beryl - Norwich","operator":"Beryl"},"sourceId":"osm"},{"categories":["hire"],"id":"osm:node:10220680591","latitude":52.5761673,"longitude":1.1363545,"name":"Copper Smith Way","properties":{"fee":"yes","network":"Beryl - Norwich","operator":"Beryl"},"sourceId":"osm"},{"categories":["hire"],"id":"osm:node:10220680592","latitude":52.5762,"longitude":1.130018,"name":"Ketts Park","properties":{"fee":"yes","network":"Beryl - Norwich","operator":"Beryl"},"sourceId":"osm"},{"categories":["hire"],"id":"osm:node:10220680593","latitude":52.580976,"longitude":1.132533,"name":"Tuttles Lane","properties":{"fee":"yes","network":"Beryl - Norwich","operator":"Beryl"},"sourceId":"osm"},{"categories":["shop"],"id":"osm:node:821791497","latitude":52.5735951,"longitude":1.1099007,"name":"Howards Cycles","properties":{},"sourceId":"osm"}],"schemaVersion":2}
