{"key":"12/2060/1533","points":[{"categories":["shop"],"id":"osm:node:10029118525","latitude":41.1526618,"longitude":1.1085076,"name":"Smart Scooter","properties":{},"sourceId":"osm"},{"categories":["shop"],"id":"osm:node:10187858342","latitude":41.153965,"longitude":1.1163061,"name":"BikeTaller","properties":{"openingHours":"Mo-Fr 09:30-13:30,16:00-20:00; Sa 10:00-13:30"},"sourceId":"osm"},{"categories":["shop"],"id":"osm:node:10266898946","latitude":41.1572617,"longitude":1.1068323,"name":"biciClick","properties":{},"sourceId":"osm"},{"categories":["shop"],"id":"osm:node:11222178564","latitude":41.1529649,"longitude":1.0970711,"name":"Dolomiti Bike Store","properties":{},"sourceId":"osm"},{"categories":["hire"],"id":"osm:node:11222349373","latitude":41.1547207,"longitude":1.1112666,"name":"Estació 3 - Raval St. Pere","properties":{"brand":"ganxeta","network":"ganxeta","operator":"Reus Mobilitat"},"sourceId":"osm"},{"categories":["hire"],"id":"osm:node:11222349374","latitude":41.1610346,"longitude":1.1096104,"name":"Estació 2 - Centre comercial la Fira","properties":{"brand":"ganxeta","network":"ganxeta","operator":"Reus Mobilitat"},"sourceId":"osm"},{"categories":["hire"],"id":"osm:node:11222349375","latitude":41.1603366,"longitude":1.1003206,"name":"Estació 1 - Estació ADIF","properties":{"brand":"ganxeta","network":"ganxeta","operator":"Reus Mobilitat"},"sourceId":"osm"},{"categories":["hire"],"id":"osm:node:11222439038","latitude":41.1574992,"longitude":1.1180373,"name":"Estació 16 - Marià Fortuny","properties":{"brand":"ganxeta","network":"ganxeta","operator":"Reus Mobilitat"},"sourceId":"osm"},{"categories":["hire"],"id":"osm:node:11222439039","latitude":41.1465569,"longitude":1.1038685,"name":"Estació 15 - Passeig Misericòrdia","properties":{"brand":"ganxeta","network":"ganxeta","operator":"Reus Mobilitat"},"sourceId":"osm"},{"categories":["hire"],"id":"osm:node:11222439041","latitude":41.1564474,"longitude":1.1105267,"name":"Estació 14 - Plaça Catalunya","properties":{"brand":"ganxeta","network":"ganxeta","operator":"Reus Mobilitat"},"sourceId":"osm"},{"categories":["hire"],"id":"osm:node:11222439043","latitude":41.1536884,"longitude":1.1088232,"name":"Estació 12 - Plaça del Teatre","properties":{"brand":"ganxeta","network":"ganxeta","operator":"Reus Mobilitat"},"sourceId":"osm"},{"categories":["hire"],"id":"osm:node:11222439044","latitude":41.1552851,"longitude":1.1068692,"name":"Estació 11 - Raval de Jesús","properties":{"brand":"ganxeta","network":"ganxeta","operator":"Reus Mobilitat"},"sourceId":"osm"},{"categories":["hire"],"id":"osm:node:11222439045","latitude":41.1516844,"longitude":1.1094381,"name":"Estació 10 - Carrilet","properties":{"brand":"ganxeta","network":"ganxeta","operator":"Reus Mobilitat"},"sourceId":"osm"},{"categories":["hire"],"id":"osm:node:11222439046","latitude":41.1588014,"longitude":1.107029,"name":"Estació 9 - Llibertat","properties":{"brand":"ganxeta","network":"ganxeta","operator":"Reus Mobilitat"},"sourceId":"osm"},{"categories":["hire"],"id":"osm:node:11222439047","latitude":41.1523033,"longitude":1.1081556,"name":"Estació 8 - Sant Francesc","properties":{"brand":"ganxeta","network":"ganxeta","operator":"Reus Mobilitat"},"sourceId":"osm"},{"categories":["hire"],"id":"osm:node:11222439048","latitude":41.1522894,"longitude":1.1081301,"name":"Estació 8 - Sant Francesc","properties":{"brand":"ganxeta","network":"ganxeta","operator":"Reus Mobilitat"},"sourceId":"osm"},{"categories":["hire"],"id":"osm:node:11222439049","latitude":41.1559518,"longitude":1.104081,"name":"Estació 7 - Sant Joan","properties":{"brand":"ganxeta","network":"ganxeta","operator":"Reus Mobilitat"},"sourceId":"osm"},{"categories":["hire"],"id":"osm:node:11222439050","latitude":41.1542438,"longitude":1.1005358,"name":"Estació 6 - Biblioteca Xavier Amorés","properties":{"brand":"ganxeta","network":"ganxeta","operator":"Reus Mobilitat"},"sourceId":"osm"},{"categories":["hire"],"id":"osm:node:11222439051","latitude":41.1476794,"longitude":1.1087964,"name":"Estació 5 - Vidal i Barraquer","properties":{"brand":"ganxeta","network":"ganxeta","operator":"Reus Mobilitat"},"sourceId":"osm"},{"categories":["hire"],"id":"osm:node:11222439052","latitude":41.1478251,"longitude":1.1138121,"name":"Estació 4 - Jaume Vidal i Alcover","properties":{"brand":"ganxeta","network":"ganxeta","operator":"Reus Mobilitat"},"sourceId":"osm"},{"categories":["hire"],"id":"osm:node:11222446303","latitude":41.1568009,"longitude":1.1094837,"name":"Estació 21 - Santa Anna","properties":{"brand":"ganxeta","network":"ganxeta","operator":"Reus Mobilitat"},"sourceId":"osm"},{"categories":["hire"],"id":"osm:node:11222446304","latitude":41.149531,"longitude":1.1007115,"name":"Estació 20 - Plaça de Gandhi","properties":{"brand":"ganxeta","network":"ganxeta","operator":"Reus Mobilitat"},"sourceId":"osm"},{"categories":["hire"],"id":"osm:node:11222446305","latitude":41.1570756,"longitude":1.0998016,"name":"Estació 19 - Camí de l'Aleixar","properties":{"brand":"ganxeta","network":"ganxeta","operator":"Reus Mobilitat"},"sourceId":"osm"},{"categories":["hire"],"id":"osm:node:11222479822","latitude":41.1514383,"longitude":1.1032325,"name":"Estació 12 - Passeig Prim","properties":{"brand":"ganxeta","network":"ganxeta","operator":"Reus Mobilitat"},"sourceId":"osm"},{"categories":["hire"],"id":"osm:node:11225765129","latitude":41.1514971,"longitude":1.1141911,"name":"Estació 29 - Sol i Ortega","properties":{"brand":"ganxeta","network":"ganxeta","operator":"Reus Mobilitat"},"sourceId":"osm"},{"categories":["hire"],"id":"osm:node:11236648384","latitude":41.150021,"longitude":1.1050835,"name":"Estació 25 - Plaça Pastoreta","properties":{"brand":"ganxeta","network":"ganxeta","operator":"Reus Mobilitat"},"sourceId":"osm"},{"categories":["hire"],"id":"osm:node:11237923275","latitude":41.1423843,"longitude":1.1130619,"name":"Estació 26 - Astorga","properties":{"brand":"ganxeta","network":"ganxeta","operator":"Reus Mobilitat"},"sourceId":"osm"},{"categories":["hire"],"id":"osm:node:11237923278","latitude":41.1615849,"longitude":1.0955939,"name":"Estació 27 - Sagrada Família","properties":{"brand":"ganxeta","network":"ganxeta","operator":"Reus Mobilitat"},"sourceId":"osm"},{"categories":["hire"],"id":"osm:node:11378503860","latitude":41.157997,"longitude":1.1054423,"name":"Estació X - Llibertat bis","properties":{"brand":"ganxeta","network":"ganxeta","operator":"Reus Mobilitat"},"sourceId":"osm"},{"categories":["hire"],"id":"osm:node:11619221957","latitude":41.1561513,"longitude":1.1024493,"name":"Estacions ganxeta","properties":{},"sourceId":"osm"},{"categories":["hire"],"id":"osm:node:11958471149","latitude":41.1391281,"longitude":1.1152314,"name":"Estació 28 - Urnaització Juncosa","properties":{"brand":"ganxeta","network":"ganxeta","operator":"Reus Mobilitat"},"sourceId":"osm"},{"categories":["hire"],"id":"osm:node:13584591336","latitude":41.1593081,"longitude":1.0852821,"name":"Estació 18 - Recasens i Mercadé","properties":{"brand":"ganxeta","network":"ganxeta","operator":"Reus Mobilitat"},"sourceId":"osm"}],"schemaVersion":2}
