{"key":"12/2036/1315","points":[{"id":"osm:node:10630989805","latitude":53.9612652,"longitude":-1.0424467,"name":"Derwent Way near Derwent Place","properties":{"access":"yes","bicycle_pa":"stands","capacity":20,"covered":"no","fee":"","operator":"","nameSource":"junction"},"sourceId":"osm"},{"id":"osm:node:11687979751","latitude":53.957849,"longitude":-1.0380188,"name":"Moorlands Close cycle parking","properties":{"access":"yes","bicycle_pa":"stands","capacity":6,"covered":"no","fee":"","operator":"","nameSource":"street"},"sourceId":"osm"},{"id":"osm:node:11918403384","latitude":53.9607776,"longitude":-1.0421273,"name":"Derwent Valley & Foss Islands Track near Derwent Way link path","properties":{"access":"unknown","bicycle_pa":"stands","capacity":10,"covered":"no","fee":"","operator":"","nameSource":"junction"},"sourceId":"osm"},{"id":"osm:node:12590099806","latitude":53.989995,"longitude":-1.0145313,"name":"Stockton Lane by Dean's Garden Centre","properties":{"access":"unknown","bicycle_pa":"stands","capacity":6,"covered":"","fee":"","operator":"","nameSource":"landmark"},"sourceId":"osm"},{"id":"osm:node:1647881089","latitude":53.9860787,"longitude":-1.0442828,"name":"Timpson cycle parking","properties":{"access":"yes","bicycle_pa":"stands","capacity":24,"covered":"yes","fee":"","operator":"","nameSource":"landmark"},"sourceId":"osm"},{"id":"osm:node:1902787751","latitude":53.9656626,"longitude":-1.0456217,"name":"Bad Bargain Lane near Meadlands","properties":{"access":"yes","bicycle_pa":"stands","capacity":6,"covered":"no","fee":"","operator":"","nameSource":"junction"},"sourceId":"osm"},{"id":"osm:node:1902787759","latitude":53.9590342,"longitude":-1.0497779,"name":"Tang Hall Lane near Lang Avenue","properties":{"access":"yes","bicycle_pa":"stands","capacity":5,"covered":"no","fee":"","operator":"","nameSource":"junction"},"sourceId":"osm"},{"id":"osm:node:1908771573","latitude":53.9562394,"longitude":-1.0479765,"name":"Millfield Lane near Osbaldwick Lane","properties":{"access":"unknown","bicycle_pa":"stands","capacity":2,"covered":"no","fee":"","operator":"","nameSource":"junction"},"sourceId":"osm"},{"id":"osm:node:1908771577","latitude":53.9562173,"longitude":-1.0478477,"name":"Tang Hall Lane near Millfield Lane","properties":{"access":"yes","bicycle_pa":"stands","capacity":2,"covered":"no","fee":"","operator":"","nameSource":"junction"},"sourceId":"osm"},{"id":"osm:node:1927186546","latitude":53.9872915,"longitude":-1.0470774,"name":"Monks Cross Drive by Pizza Hut","properties":{"access":"yes","bicycle_pa":"stands","capacity":10,"covered":"no","fee":"","operator":"","nameSource":"landmark"},"sourceId":"osm"},{"id":"osm:node:1927186694","latitude":53.9872489,"longitude":-1.0471083,"name":"Monks Cross Drive by Pizza Hut","properties":{"access":"yes","bicycle_pa":"stands","capacity":30,"covered":"no","fee":"","operator":"","nameSource":"landmark"},"sourceId":"osm"},{"id":"osm:node:1927186698","latitude":53.9863849,"longitude":-1.0492156,"name":"Click & Collect cycle parking","properties":{"access":"customers","bicycle_pa":"stands","capacity":16,"covered":"yes","fee":"","operator":"","nameSource":"street"},"sourceId":"osm"},{"id":"osm:node:1933047386","latitude":53.9639381,"longitude":-0.9820399,"name":"York Street near Cherry Tree Court","properties":{"access":"unknown","bicycle_pa":"stands","capacity":4,"covered":"no","fee":"","operator":"","nameSource":"junction"},"sourceId":"osm"},{"id":"osm:node:1933047387","latitude":53.9638908,"longitude":-0.9821486,"name":"Cherry Tree Court near York Street","properties":{"access":"yes","bicycle_pa":"stands","capacity":4,"covered":"no","fee":"","operator":"","nameSource":"junction"},"sourceId":"osm"},{"id":"osm:node:2500164517","latitude":53.9853499,"longitude":-1.0484221,"name":"Jockey Lane near Kathryn Avenue","properties":{"access":"yes","bicycle_pa":"stands","capacity":12,"covered":"yes","fee":"","operator":"","nameSource":"junction"},"sourceId":"osm"},{"id":"osm:node:2500164518","latitude":53.9864254,"longitude":-1.0491034,"name":"Click & Collect cycle parking","properties":{"access":"customers","bicycle_pa":"stands","capacity":13,"covered":"yes","fee":"","operator":"","nameSource":"street"},"sourceId":"osm"},{"id":"osm:node:2500164523","latitude":53.9849713,"longitude":-1.0485428,"name":"Kathryn Avenue near Jockey Lane","properties":{"access":"yes","bicycle_pa":"stands","capacity":8,"covered":"yes","fee":"","operator":"","nameSource":"junction"},"sourceId":"osm"},{"id":"osm:node:2500164524","latitude":53.9863781,"longitude":-1.0495004,"name":"Click & Collect by Argos","properties":{"access":"customers","bicycle_pa":"stands","capacity":18,"covered":"no","fee":"","operator":"","nameSource":"landmark"},"sourceId":"osm"},{"id":"osm:node:2500164532","latitude":53.9848624,"longitude":-1.0484006,"name":"Kathryn Avenue by Aldi","properties":{"access":"unknown","bicycle_pa":"stands","capacity":8,"covered":"yes","fee":"","operator":"","nameSource":"landmark"},"sourceId":"osm"},{"id":"osm:node:2538243730","latitude":53.9824159,"longitude":-1.052209,"name":"Martello Way by Monks Cross Park & Ride","properties":{"access":"customers","bicycle_pa":"lockers","capacity":30,"covered":"yes","fee":"","operator":"","nameSource":"landmark"},"sourceId":"osm"},{"id":"osm:node:2861116879","latitude":53.9608305,"longitude":-1.0415159,"name":"Derwent Valley & Foss Islands Track near Derwent Way link path","properties":{"access":"unknown","bicycle_pa":"stands","capacity":10,"covered":"no","fee":"","operator":"","nameSource":"junction"},"sourceId":"osm"},{"id":"osm:node:2861116883","latitude":53.9603387,"longitude":-1.0491592,"name":"Derwent Valley & Foss Islands Track by Tang Hall Clinic","properties":{"access":"yes","bicycle_pa":"stands","capacity":8,"covered":"no","fee":"","operator":"","nameSource":"landmark"},"sourceId":"osm"},{"id":"osm:node:2917294596","latitude":53.9831172,"longitude":-1.0489247,"name":"Vangarde Way by Caffè Nero","properties":{"access":"yes","bicycle_pa":"stands","capacity":18,"covered":"no","fee":"","operator":"","nameSource":"landmark"},"sourceId":"osm"},{"id":"osm:node:2917294598","latitude":53.9831092,"longitude":-1.0480745,"name":"Vangarde Way by Next Home","properties":{"access":"yes","bicycle_pa":"stands","capacity":18,"covered":"no","fee":"","operator":"","nameSource":"landmark"},"sourceId":"osm"},{"id":"osm:node:3189246016","latitude":53.9839363,"longitude":-1.0499945,"name":"Kathryn Avenue by M&S Foodhall","properties":{"access":"yes","bicycle_pa":"stands","capacity":16,"covered":"yes","fee":"","operator":"","nameSource":"landmark"},"sourceId":"osm"},{"id":"osm:node:3189246019","latitude":53.9831155,"longitude":-1.0510984,"name":"Vangarde Way by Costa","properties":{"access":"yes","bicycle_pa":"stands","capacity":20,"covered":"yes","fee":"","operator":"","nameSource":"landmark"},"sourceId":"osm"},{"id":"osm:node:3189246029","latitude":53.9831666,"longitude":-1.0511722,"name":"Vangarde Way by Specsavers","properties":{"access":"yes","bicycle_pa":"stands","capacity":8,"covered":"yes","fee":"","operator":"","nameSource":"landmark"},"sourceId":"osm"},{"id":"osm:node:3189246030","latitude":53.9832564,"longitude":-1.050016,"name":"Vangarde Way by M&S Café","properties":{"access":"yes","bicycle_pa":"stands","capacity":30,"covered":"no","fee":"","operator":"","nameSource":"landmark"},"sourceId":"osm"},{"id":"osm:node:3235154825","latitude":53.987564,"longitude":-1.0300492,"name":"Malton Road by The Hopgrove","properties":{"access":"yes","bicycle_pa":"stands","capacity":6,"covered":"no","fee":"","operator":"","nameSource":"landmark"},"sourceId":"osm"},{"id":"osm:node:3552509780","latitude":53.9983273,"longitude":-1.054576,"name":"North Lane near North Moor","properties":{"access":"unknown","bicycle_pa":"stands","capacity":6,"covered":"no","fee":"","operator":"","nameSource":"junction"},"sourceId":"osm"},{"id":"osm:node:4028562086","latitude":53.9839015,"longitude":-1.0510863,"name":"Vangarde Way cycle parking","properties":{"access":"yes","bicycle_pa":"stands","capacity":30,"covered":"no","fee":"","operator":"","nameSource":"street"},"sourceId":"osm"},{"id":"osm:node:4308106587","latitude":53.9831219,"longitude":-1.0498059,"name":"Vangarde Way by M&S Café","properties":{"access":"yes","bicycle_pa":"stands","capacity":18,"covered":"no","fee":"","operator":"","nameSource":"landmark"},"sourceId":"osm"},{"id":"osm:node:6240638926","latitude":53.9647869,"longitude":-1.0482441,"name":"Bad Bargain Lane near Rydal Avenue","properties":{"access":"yes","bicycle_pa":"stands","capacity":32,"covered":"yes","fee":"","operator":"","nameSource":"junction"},"sourceId":"osm"},{"id":"osm:node:6240642966","latitude":53.9647979,"longitude":-1.048381,"name":"Bad Bargain Lane near Rydal Avenue","properties":{"access":"yes","bicycle_pa":"stands","capacity":16,"covered":"no","fee":"","operator":"","nameSource":"junction"},"sourceId":"osm"},{"id":"osm:node:6845109577","latitude":53.9645755,"longitude":-1.0476067,"name":"Bad Bargain Lane near Rydal Avenue","properties":{"access":"yes","bicycle_pa":"stands","capacity":16,"covered":"yes","fee":"","operator":"","nameSource":"junction"},"sourceId":"osm"},{"id":"osm:node:6845186788","latitude":53.9624429,"longitude":-1.0100748,"name":"Murton Lane cycle parking","properties":{"access":"unknown","bicycle_pa":"","capacity":0,"covered":"","fee":"","operator":"","nameSource":"street"},"sourceId":"osm"},{"id":"osm:node:7164700477","latitude":53.9638938,"longitude":-1.0474756,"name":"Mossdale Avenue near Stellar Row","properties":{"access":"yes","bicycle_pa":"stands","capacity":16,"covered":"yes","fee":"","operator":"","nameSource":"junction"},"sourceId":"osm"},{"id":"osm:node:7575654689","latitude":53.9846878,"longitude":-1.0505041,"name":"Kathryn Avenue cycle parking","properties":{"access":"yes","bicycle_pa":"stands","capacity":96,"covered":"no","fee":"","operator":"","nameSource":"street"},"sourceId":"osm"},{"id":"osm:node:8258524855","latitude":53.9849605,"longitude":-1.0537911,"name":"Signa Drive cycle parking","properties":{"access":"yes","bicycle_pa":"stands","capacity":78,"covered":"no","fee":"","operator":"","nameSource":"street"},"sourceId":"osm"},{"id":"osm:node:8340228899","latitude":53.9878167,"longitude":-1.043474,"name":"Primark cycle parking","properties":{"access":"yes","bicycle_pa":"stands","capacity":26,"covered":"no","fee":"","operator":"","nameSource":"landmark"},"sourceId":"osm"},{"id":"osm:node:8816243584","latitude":53.9906577,"longitude":-1.047404,"name":"Alpha Court by Travelodge - York Monks Cross","properties":{"access":"customers","bicycle_pa":"stands","capacity":10,"covered":"yes","fee":"","operator":"","nameSource":"landmark"},"sourceId":"osm"},{"id":"osm:node:8887893991","latitude":53.9840088,"longitude":-1.0467599,"name":"Julia Avenue by Go Outdoors","properties":{"access":"yes","bicycle_pa":"stands","capacity":24,"covered":"yes","fee":"","operator":"","nameSource":"landmark"},"sourceId":"osm"},{"id":"osm:node:8887893992","latitude":53.9829349,"longitude":-1.046722,"name":"Vangarde Way cycle parking","properties":{"access":"customers","bicycle_pa":"stands","capacity":24,"covered":"yes","fee":"no","operator":"","nameSource":"street"},"sourceId":"osm"},{"id":"osm:node:8989006107","latitude":53.9884198,"longitude":-1.0468004,"name":"Monks Cross Drive by New Look","properties":{"access":"yes","bicycle_pa":"stands","capacity":18,"covered":"no","fee":"","operator":"","nameSource":"landmark"},"sourceId":"osm"},{"id":"osm:node:8989006108","latitude":53.9881124,"longitude":-1.0438601,"name":"Greggs cycle parking","properties":{"access":"yes","bicycle_pa":"stands","capacity":12,"covered":"no","fee":"","operator":"","nameSource":"landmark"},"sourceId":"osm"},{"id":"osm:way:1374862476","latitude":53.957208200000004,"longitude":-1.04267118,"name":"Derwent House Mews cycle parking","properties":{"access":"private","bicycle_pa":"shed","capacity":0,"covered":"yes","fee":"","operator":"","nameSource":"street"},"sourceId":"osm"},{"id":"osm:way:1374862477","latitude":53.95713494,"longitude":-1.0425489000000001,"name":"Derwent House Mews cycle parking","properties":{"access":"private","bicycle_pa":"shed","capacity":0,"covered":"yes","fee":"","operator":"","nameSource":"street"},"sourceId":"osm"},{"id":"osm:way:952291713","latitude":53.982981333333335,"longitude":-1.0519975333333333,"name":"Martello Way by Cineworld","properties":{"access":"unknown","bicycle_pa":"stands","capacity":104,"covered":"no","fee":"","operator":"","nameSource":"landmark"},"sourceId":"osm"}],"schemaVersion":2}
