{"key":"12/2036/1335","points":[{"id":"osm:node:12091710025","latitude":52.9116739,"longitude":-1.0429057,"name":"Plumtree Road near Church Lane","properties":{"access":"private","bicycle_pa":"stands","capacity":0,"covered":"","fee":"","operator":"","nameSource":"junction"},"sourceId":"osm"},{"id":"osm:node:2431346336","latitude":52.9132041,"longitude":-0.9836227,"name":"Church Street near Stackyard Close","properties":{"access":"unknown","bicycle_pa":"stands","capacity":6,"covered":"no","fee":"","operator":"","nameSource":"junction"},"sourceId":"osm"},{"id":"osm:node:3702059672","latitude":52.9459946,"longitude":-1.0398641,"name":"Hunt Close near Main Road","properties":{"access":"destination","bicycle_pa":"stands","capacity":6,"covered":"yes","fee":"","operator":"","nameSource":"junction"},"sourceId":"osm"},{"id":"osm:node:3702059806","latitude":52.9464935,"longitude":-1.0413914,"name":"Main Road near Vicarage Lane","properties":{"access":"unknown","bicycle_pa":"stands","capacity":10,"covered":"partial","fee":"","operator":"","nameSource":"junction"},"sourceId":"osm"},{"id":"osm:node:3702059886","latitude":52.9467463,"longitude":-1.0395199,"name":"Main Road near Richmond Terrace","properties":{"access":"unknown","bicycle_pa":"stands","capacity":6,"covered":"no","fee":"","operator":"","nameSource":"junction"},"sourceId":"osm"},{"id":"osm:node:3703773678","latitude":52.9476264,"longitude":-1.0373236,"name":"New Road near Bingham Road","properties":{"access":"unknown","bicycle_pa":"stands","capacity":6,"covered":"no","fee":"","operator":"","nameSource":"junction"},"sourceId":"osm"},{"id":"osm:node:7007085646","latitude":52.9127202,"longitude":-0.9849621,"name":"Mill Lane near Nottingham Road","properties":{"access":"unknown","bicycle_pa":"stands","capacity":0,"covered":"no","fee":"","operator":"","nameSource":"junction"},"sourceId":"osm"}],"schemaVersion":2}
