{"key":"12/2036/1350","points":[{"id":"osm:node:12465390862","latitude":52.1328265,"longitude":-0.9895495,"name":"Watling Street near Park Street","properties":{"access":"yes","bicycle_pa":"bollard","capacity":2,"covered":"no","fee":"no","operator":"","nameSource":"junction"},"sourceId":"osm"},{"id":"osm:node:12465390863","latitude":52.1326059,"longitude":-0.9892766,"name":"Park Street near Watling Street","properties":{"access":"yes","bicycle_pa":"bollard","capacity":2,"covered":"no","fee":"no","operator":"","nameSource":"junction"},"sourceId":"osm"},{"id":"osm:node:12465390864","latitude":52.1325203,"longitude":-0.9893438,"name":"Park Street near Watling Street","properties":{"access":"yes","bicycle_pa":"bollard","capacity":2,"covered":"no","fee":"no","operator":"","nameSource":"junction"},"sourceId":"osm"},{"id":"osm:node:12465390865","latitude":52.1324238,"longitude":-0.9889685,"name":"Watling Street near Park Street","properties":{"access":"yes","bicycle_pa":"bollard","capacity":2,"covered":"no","fee":"no","operator":"","nameSource":"junction"},"sourceId":"osm"},{"id":"osm:node:12465390866","latitude":52.1322028,"longitude":-0.988921,"name":"Watling Street near Chantry Lane","properties":{"access":"yes","bicycle_pa":"bollard","capacity":2,"covered":"no","fee":"no","operator":"","nameSource":"junction"},"sourceId":"osm"},{"id":"osm:node:12465390867","latitude":52.1318949,"longitude":-0.9884128,"name":"Chantry Lane near Watling Street","properties":{"access":"yes","bicycle_pa":"bollard","capacity":2,"covered":"no","fee":"no","operator":"","nameSource":"junction"},"sourceId":"osm"},{"id":"osm:node:12465390868","latitude":52.1319097,"longitude":-0.9884324,"name":"Chantry Lane near Watling Street","properties":{"access":"yes","bicycle_pa":"bollard","capacity":2,"covered":"no","fee":"no","operator":"","nameSource":"junction"},"sourceId":"osm"},{"id":"osm:node:12465390869","latitude":52.1319187,"longitude":-0.9884125,"name":"Chantry Lane near Watling Street","properties":{"access":"yes","bicycle_pa":"bollard","capacity":2,"covered":"no","fee":"no","operator":"","nameSource":"junction"},"sourceId":"osm"},{"id":"osm:node:12465390870","latitude":52.1321834,"longitude":-0.9885862,"name":"Watling Street near Chantry Lane","properties":{"access":"yes","bicycle_pa":"bollard","capacity":2,"covered":"no","fee":"no","operator":"","nameSource":"junction"},"sourceId":"osm"},{"id":"osm:node:12465390871","latitude":52.1305209,"longitude":-0.987219,"name":"Watling Street near The Lindens","properties":{"access":"yes","bicycle_pa":"bollard","capacity":2,"covered":"no","fee":"no","operator":"","nameSource":"junction"},"sourceId":"osm"},{"id":"osm:node:12465390872","latitude":52.1304917,"longitude":-0.986885,"name":"Watling Street near The Lindens","properties":{"access":"yes","bicycle_pa":"bollard","capacity":2,"covered":"no","fee":"no","operator":"","nameSource":"junction"},"sourceId":"osm"},{"id":"osm:node:12469858020","latitude":52.1380654,"longitude":-0.9958335,"name":"Watling Street near Old Greens Norton Road","properties":{"access":"yes","bicycle_pa":"stands","capacity":12,"covered":"yes","fee":"no","operator":"","nameSource":"junction"},"sourceId":"osm"},{"id":"osm:node:4524697690","latitude":52.1338267,"longitude":-0.9893875,"name":"Moat Lane near Whittons Lane","properties":{"access":"unknown","bicycle_pa":"","capacity":0,"covered":"","fee":"","operator":"","nameSource":"junction"},"sourceId":"osm"},{"id":"osm:node:4524803294","latitude":52.1343245,"longitude":-0.9898257,"name":"Northampton Road near Moat Lane","properties":{"access":"unknown","bicycle_pa":"","capacity":0,"covered":"","fee":"","operator":"","nameSource":"junction"},"sourceId":"osm"},{"id":"osm:way:1229682507","latitude":52.13170824,"longitude":-0.9899892400000001,"name":"Sponne Shopping Centre near Browns Yard","properties":{"access":"unknown","bicycle_pa":"shed","capacity":0,"covered":"","fee":"","operator":"","nameSource":"junction"},"sourceId":"osm"}],"schemaVersion":2}
