{"key":"12/2036/1357","points":[{"id":"osm:node:10693733988","latitude":51.7723619,"longitude":-0.9937821,"name":"High Street near Wainwrights","properties":{"access":"unknown","bicycle_pa":"stands","capacity":6,"covered":"no","fee":"","operator":"","nameSource":"junction"},"sourceId":"osm"},{"id":"osm:node:488868322","latitude":51.7491897,"longitude":-0.9745446,"name":"Parliament Road cycle parking","properties":{"access":"unknown","bicycle_pa":"","capacity":4,"covered":"","fee":"","operator":"","nameSource":"street"},"sourceId":"osm"},{"id":"osm:node:491471375","latitude":51.7471281,"longitude":-0.9794905,"name":"Dorchester Place by The Co-operative Food","properties":{"access":"unknown","bicycle_pa":"","capacity":4,"covered":"","fee":"","operator":"","nameSource":"landmark"},"sourceId":"osm"},{"id":"osm:node:5592539828","latitude":51.7470368,"longitude":-0.9818273,"name":"Southern Road near Spring Path","properties":{"access":"unknown","bicycle_pa":"stands","capacity":4,"covered":"","fee":"","operator":"","nameSource":"junction"},"sourceId":"osm"},{"id":"osm:node:5604270652","latitude":51.7480439,"longitude":-0.9791659,"name":"High Street by Newitts","properties":{"access":"unknown","bicycle_pa":"stands","capacity":5,"covered":"no","fee":"","operator":"","nameSource":"landmark"},"sourceId":"osm"},{"id":"osm:node:6763729178","latitude":51.7473815,"longitude":-0.9817308,"name":"Southern Road near Spring Path","properties":{"access":"unknown","bicycle_pa":"","capacity":0,"covered":"","fee":"","operator":"","nameSource":"junction"},"sourceId":"osm"},{"id":"osm:node:6763792194","latitude":51.7476593,"longitude":-0.9782742,"name":"Buttermarket by Thame Town Hall","properties":{"access":"unknown","bicycle_pa":"stands","capacity":16,"covered":"no","fee":"","operator":"","nameSource":"landmark"},"sourceId":"osm"},{"id":"osm:node:6763905666","latitude":51.7468874,"longitude":-0.9767889,"name":"North Street near Cornmarket","properties":{"access":"unknown","bicycle_pa":"stands","capacity":10,"covered":"no","fee":"","operator":"","nameSource":"junction"},"sourceId":"osm"}],"schemaVersion":2}
