{"key":"12/2036/1368","points":[{"id":"osm:node:1824005773","latitude":51.1501648,"longitude":-0.9737503,"name":"High Street near Mechanics Alley","properties":{"access":"unknown","bicycle_pa":"stands","capacity":4,"covered":"no","fee":"","operator":"","nameSource":"junction"},"sourceId":"osm"},{"id":"osm:node:2570368313","latitude":51.1466924,"longitude":-0.9757249,"name":"Draymans Way by Timpson","properties":{"access":"unknown","bicycle_pa":"stands","capacity":8,"covered":"yes","fee":"","operator":"","nameSource":"landmark"},"sourceId":"osm"},{"id":"osm:node:2954443615","latitude":51.1330377,"longitude":-0.9885059,"name":"Winchester Road by The Greyfriar","properties":{"access":"unknown","bicycle_pa":"","capacity":4,"covered":"no","fee":"","operator":"","nameSource":"landmark"},"sourceId":"osm"},{"id":"osm:node:3416787430","latitude":51.1526067,"longitude":-0.9673503,"name":"Station Road by Waitrose","properties":{"access":"unknown","bicycle_pa":"stands","capacity":22,"covered":"yes","fee":"","operator":"","nameSource":"landmark"},"sourceId":"osm"},{"id":"osm:node:3615319167","latitude":51.147572,"longitude":-0.9772187,"name":"High Street near Cross and Pillory Lane","properties":{"access":"unknown","bicycle_pa":"stands","capacity":4,"covered":"no","fee":"no","operator":"","nameSource":"junction"},"sourceId":"osm"},{"id":"osm:node:3615432723","latitude":51.1484952,"longitude":-0.9776944,"name":"Market Square near Cross and Pillory Lane","properties":{"access":"unknown","bicycle_pa":"stands","capacity":6,"covered":"no","fee":"no","operator":"","nameSource":"junction"},"sourceId":"osm"},{"id":"osm:node:4850654409","latitude":51.1485435,"longitude":-0.9758359,"name":"High Street near Market Street","properties":{"access":"unknown","bicycle_pa":"stands","capacity":6,"covered":"no","fee":"","operator":"","nameSource":"junction"},"sourceId":"osm"},{"id":"osm:node:4850654420","latitude":51.1482613,"longitude":-0.9761813,"name":"High Street near Turk Street","properties":{"access":"unknown","bicycle_pa":"stands","capacity":8,"covered":"","fee":"","operator":"","nameSource":"junction"},"sourceId":"osm"},{"id":"osm:node:4876822793","latitude":51.1498782,"longitude":-0.9759559,"name":"Vicarage Hill near Bakers Alley","properties":{"access":"unknown","bicycle_pa":"stands","capacity":6,"covered":"","fee":"","operator":"","nameSource":"junction"},"sourceId":"osm"},{"id":"osm:node:4879492288","latitude":51.1496414,"longitude":-0.9769745,"name":"Vicarage Hill near Amery Hill","properties":{"access":"unknown","bicycle_pa":"stands","capacity":6,"covered":"","fee":"","operator":"","nameSource":"junction"},"sourceId":"osm"},{"id":"osm:node:4879493153","latitude":51.1490756,"longitude":-0.9764569,"name":"Vicarage Hill Mews by Hart Wildlife Rescue Charity Shop","properties":{"access":"unknown","bicycle_pa":"stands","capacity":0,"covered":"","fee":"","operator":"","nameSource":"landmark"},"sourceId":"osm"}],"schemaVersion":2}
