{"key":"12/2036/1373","points":[{"id":"osm:node:1074216728","latitude":50.854245,"longitude":-0.9810904,"name":"North Street near Waterloo Road","properties":{"access":"unknown","bicycle_pa":"stands","capacity":0,"covered":"yes","fee":"","operator":"","nameSource":"junction"},"sourceId":"osm"},{"id":"osm:node:1074216834","latitude":50.8517537,"longitude":-0.9844904,"name":"West Street Precinct by McDonald's","properties":{"access":"unknown","bicycle_pa":"stands","capacity":16,"covered":"no","fee":"","operator":"","nameSource":"landmark"},"sourceId":"osm"},{"id":"osm:node:11083166707","latitude":50.8795643,"longitude":-1.0326769,"name":"Swiss Road near Saint George's Walk","properties":{"access":"unknown","bicycle_pa":"","capacity":0,"covered":"","fee":"","operator":"","nameSource":"junction"},"sourceId":"osm"},{"id":"osm:node:11139424267","latitude":50.8582136,"longitude":-0.974387,"name":"New Lane by Elmleigh Hospital","properties":{"access":"unknown","bicycle_pa":"stands","capacity":8,"covered":"yes","fee":"no","operator":"","nameSource":"landmark"},"sourceId":"osm"},{"id":"osm:node:11897128953","latitude":50.862057,"longitude":-1.0224136,"name":"College Road cycle parking","properties":{"access":"unknown","bicycle_pa":"stands","capacity":8,"covered":"no","fee":"","operator":"","nameSource":"street"},"sourceId":"osm"},{"id":"osm:node:12193565626","latitude":50.8786755,"longitude":-1.0315136,"name":"Stakes Hill Road near Dukes Walk","properties":{"access":"unknown","bicycle_pa":"stands","capacity":4,"covered":"no","fee":"","operator":"","nameSource":"junction"},"sourceId":"osm"},{"id":"osm:node:12193568133","latitude":50.880096,"longitude":-1.0310099,"name":"London Road near The Precinct","properties":{"access":"unknown","bicycle_pa":"stands","capacity":4,"covered":"no","fee":"","operator":"","nameSource":"junction"},"sourceId":"osm"},{"id":"osm:node:12193568134","latitude":50.8801164,"longitude":-1.0310519,"name":"London Road near The Precinct","properties":{"access":"unknown","bicycle_pa":"stands","capacity":4,"covered":"no","fee":"","operator":"","nameSource":"junction"},"sourceId":"osm"},{"id":"osm:node:12193568141","latitude":50.88026,"longitude":-1.0309024,"name":"London Road near The Precinct","properties":{"access":"unknown","bicycle_pa":"stands","capacity":8,"covered":"no","fee":"","operator":"","nameSource":"junction"},"sourceId":"osm"},{"id":"osm:node:12293424412","latitude":50.8544847,"longitude":-0.9809238,"name":"Leigh Road near Elmleigh Road","properties":{"access":"unknown","bicycle_pa":"","capacity":0,"covered":"yes","fee":"","operator":"","nameSource":"junction"},"sourceId":"osm"},{"id":"osm:node:1250907457","latitude":50.8604927,"longitude":-1.0293568,"name":"Crookhorn Precinct","properties":{"access":"unknown","bicycle_pa":"","capacity":0,"covered":"no","fee":"no","operator":"","nameSource":"source"},"sourceId":"osm"},{"id":"osm:node:12752828036","latitude":50.8793159,"longitude":-1.0320906,"name":"London Road near Saint George's Walk","properties":{"access":"unknown","bicycle_pa":"stands","capacity":8,"covered":"no","fee":"","operator":"","nameSource":"junction"},"sourceId":"osm"},{"id":"osm:node:1366729372","latitude":50.8573797,"longitude":-0.9821491,"name":"Civic Centre Road cycle parking","properties":{"access":"unknown","bicycle_pa":"","capacity":0,"covered":"","fee":"","operator":"","nameSource":"street"},"sourceId":"osm"},{"id":"osm:node:1384831885","latitude":50.85805,"longitude":-0.9881442,"name":"Barncroft Way near Trosnant Road","properties":{"access":"unknown","bicycle_pa":"","capacity":0,"covered":"","fee":"","operator":"","nameSource":"junction"},"sourceId":"osm"},{"id":"osm:node:1449021642","latitude":50.8506966,"longitude":-0.9779314,"name":"East Street near Town Hall Road","properties":{"access":"unknown","bicycle_pa":"stands","capacity":6,"covered":"no","fee":"","operator":"","nameSource":"junction"},"sourceId":"osm"},{"id":"osm:node:1761423840","latitude":50.8577855,"longitude":-1.0500501,"name":"London Road near Lansdowne Avenue","properties":{"access":"unknown","bicycle_pa":"","capacity":6,"covered":"no","fee":"","operator":"","nameSource":"junction"},"sourceId":"osm"},{"id":"osm:node:1761423886","latitude":50.8597938,"longitude":-1.0482386,"name":"Bushy Mead near London Road","properties":{"access":"unknown","bicycle_pa":"","capacity":2,"covered":"no","fee":"","operator":"","nameSource":"junction"},"sourceId":"osm"},{"id":"osm:node:1761423893","latitude":50.8599007,"longitude":-1.0481371,"name":"Highbank Avenue near London Road","properties":{"access":"unknown","bicycle_pa":"","capacity":4,"covered":"no","fee":"","operator":"","nameSource":"junction"},"sourceId":"osm"},{"id":"osm:node:1773127645","latitude":50.8501243,"longitude":-0.9689104,"name":"Green Pond Corner near Emsworth Road","properties":{"access":"unknown","bicycle_pa":"stands","capacity":6,"covered":"no","fee":"","operator":"","nameSource":"junction"},"sourceId":"osm"},{"id":"osm:node:3467826310","latitude":50.8727527,"longitude":-1.0438176,"name":"London Road near Milk Lane","properties":{"access":"unknown","bicycle_pa":"stands","capacity":12,"covered":"yes","fee":"","operator":"","nameSource":"junction"},"sourceId":"osm"},{"id":"osm:node:3630087392","latitude":50.8628903,"longitude":-1.0139274,"name":"Asda Opticians cycle parking","properties":{"access":"unknown","bicycle_pa":"stands","capacity":10,"covered":"yes","fee":"","operator":"","nameSource":"landmark"},"sourceId":"osm"},{"id":"osm:node:3630100113","latitude":50.8639635,"longitude":-1.0113039,"name":"Larchwood Avenue by McDonald's","properties":{"access":"unknown","bicycle_pa":"stands","capacity":10,"covered":"no","fee":"","operator":"","nameSource":"landmark"},"sourceId":"osm"},{"id":"osm:node:3630100121","latitude":50.8630857,"longitude":-1.0139312,"name":"Asda Opticians cycle parking","properties":{"access":"unknown","bicycle_pa":"stands","capacity":10,"covered":"yes","fee":"","operator":"","nameSource":"landmark"},"sourceId":"osm"},{"id":"osm:node:3876759433","latitude":50.8496723,"longitude":-0.9856456,"name":"Solent Road by Max Spielmann","properties":{"access":"unknown","bicycle_pa":"stands","capacity":6,"covered":"yes","fee":"","operator":"","nameSource":"landmark"},"sourceId":"osm"},{"id":"osm:node:3876759452","latitude":50.8497095,"longitude":-0.9862947,"name":"Solent Road near Selbourne Road","properties":{"access":"unknown","bicycle_pa":"stands","capacity":12,"covered":"yes","fee":"","operator":"","nameSource":"junction"},"sourceId":"osm"},{"id":"osm:node:3934370242","latitude":50.8514367,"longitude":-0.9822337,"name":"West Street near Homewell","properties":{"access":"unknown","bicycle_pa":"stands","capacity":6,"covered":"no","fee":"","operator":"","nameSource":"junction"},"sourceId":"osm"},{"id":"osm:node:4074257915","latitude":50.8664599,"longitude":-1.0453777,"name":"London Road by Sun Of A Beach","properties":{"access":"unknown","bicycle_pa":"stands","capacity":8,"covered":"no","fee":"","operator":"","nameSource":"landmark"},"sourceId":"osm"},{"id":"osm:node:4129720114","latitude":50.8524634,"longitude":-0.9832386,"name":"Elm Lane near Market Parade","properties":{"access":"unknown","bicycle_pa":"stands","capacity":10,"covered":"no","fee":"","operator":"","nameSource":"junction"},"sourceId":"osm"},{"id":"osm:node:4158348154","latitude":50.8528954,"longitude":-0.9851589,"name":"Park Road North near Elm Lane","properties":{"access":"unknown","bicycle_pa":"stands","capacity":4,"covered":"no","fee":"","operator":"","nameSource":"junction"},"sourceId":"osm"},{"id":"osm:node:4343674846","latitude":50.8505784,"longitude":-0.9855347,"name":"Bulbeck Road near Park Road South","properties":{"access":"unknown","bicycle_pa":"stands","capacity":4,"covered":"no","fee":"","operator":"","nameSource":"junction"},"sourceId":"osm"},{"id":"osm:node:4393451369","latitude":50.8936457,"longitude":-1.0189768,"name":"London Road near Kings Road","properties":{"access":"unknown","bicycle_pa":"stands","capacity":8,"covered":"no","fee":"","operator":"","nameSource":"junction"},"sourceId":"osm"},{"id":"osm:node:4393451370","latitude":50.8931281,"longitude":-1.0194972,"name":"London Road near Park Lane","properties":{"access":"unknown","bicycle_pa":"stands","capacity":10,"covered":"no","fee":"","operator":"","nameSource":"junction"},"sourceId":"osm"},{"id":"osm:node:4393451371","latitude":50.8934089,"longitude":-1.0193082,"name":"London Road near Park Lane","properties":{"access":"unknown","bicycle_pa":"stands","capacity":6,"covered":"no","fee":"","operator":"","nameSource":"junction"},"sourceId":"osm"},{"id":"osm:node:5411136985","latitude":50.8495306,"longitude":-0.9894937,"name":"Solent Road near Brockhampton Lane","properties":{"access":"unknown","bicycle_pa":"stands","capacity":4,"covered":"yes","fee":"","operator":"","nameSource":"junction"},"sourceId":"osm"},{"id":"osm:node:5411136991","latitude":50.8496224,"longitude":-0.990592,"name":"Solent Road near Brockhampton Lane","properties":{"access":"unknown","bicycle_pa":"stands","capacity":6,"covered":"no","fee":"","operator":"","nameSource":"junction"},"sourceId":"osm"},{"id":"osm:node:5430213316","latitude":50.8542483,"longitude":-0.9977266,"name":"Brunswick Gardens near Bedhampton Road","properties":{"access":"unknown","bicycle_pa":"stands","capacity":12,"covered":"no","fee":"","operator":"","nameSource":"junction"},"sourceId":"osm"},{"id":"osm:node:5905418817","latitude":50.8712153,"longitude":-1.0245731,"name":"Stakes Hill Road near Philip Road","properties":{"access":"unknown","bicycle_pa":"stands","capacity":6,"covered":"no","fee":"","operator":"","nameSource":"junction"},"sourceId":"osm"},{"id":"osm:node:7524573364","latitude":50.8829471,"longitude":-1.0275275,"name":"St Peters Way near Villa Gardens","properties":{"access":"unknown","bicycle_pa":"stands","capacity":28,"covered":"no","fee":"","operator":"","nameSource":"junction"},"sourceId":"osm"},{"id":"osm:node:7560332990","latitude":50.8666206,"longitude":-0.9831389,"name":"Somborne Drive near Tidworth Road","properties":{"access":"unknown","bicycle_pa":"stands","capacity":3,"covered":"no","fee":"","operator":"","nameSource":"junction"},"sourceId":"osm"},{"id":"osm:node:7560332991","latitude":50.8664936,"longitude":-0.9856199,"name":"Basing Road near Tidworth Road","properties":{"access":"unknown","bicycle_pa":"stands","capacity":8,"covered":"no","fee":"","operator":"","nameSource":"junction"},"sourceId":"osm"},{"id":"osm:node:7560332992","latitude":50.8664831,"longitude":-0.9852753,"name":"Park Parade near Tidworth Road","properties":{"access":"unknown","bicycle_pa":"stands","capacity":6,"covered":"no","fee":"","operator":"","nameSource":"junction"},"sourceId":"osm"},{"id":"osm:node:8551703453","latitude":50.868915,"longitude":-1.0350201,"name":"Woodlands Grove near Elizabeth Road","properties":{"access":"unknown","bicycle_pa":"stands","capacity":8,"covered":"no","fee":"no","operator":"","nameSource":"junction"},"sourceId":"osm"},{"id":"osm:node:9035377206","latitude":50.8502298,"longitude":-0.9904828,"name":"Solent Road near Brockhampton Lane","properties":{"access":"unknown","bicycle_pa":"building","capacity":0,"covered":"yes","fee":"","operator":"","nameSource":"junction"},"sourceId":"osm"},{"id":"osm:node:9246173703","latitude":50.8582059,"longitude":-0.9784332,"name":"Lavant Drive near Lakeside Gardens","properties":{"access":"unknown","bicycle_pa":"stands","capacity":6,"covered":"yes","fee":"","operator":"","nameSource":"junction"},"sourceId":"osm"},{"id":"osm:node:9246173705","latitude":50.8581266,"longitude":-0.9789217,"name":"Lavant Drive near Leigh Road","properties":{"access":"unknown","bicycle_pa":"stands","capacity":8,"covered":"yes","fee":"","operator":"","nameSource":"junction"},"sourceId":"osm"},{"id":"osm:node:9496762977","latitude":50.8539159,"longitude":-0.9819232,"name":"Market Parade near North Street","properties":{"access":"unknown","bicycle_pa":"stands","capacity":6,"covered":"no","fee":"","operator":"","nameSource":"junction"},"sourceId":"osm"},{"id":"osm:node:9890772570","latitude":50.8783693,"longitude":-1.0333187,"name":"London Road near Chapel Lane","properties":{"access":"unknown","bicycle_pa":"stands","capacity":10,"covered":"","fee":"no","operator":"","nameSource":"junction"},"sourceId":"osm"},{"id":"osm:node:9890776826","latitude":50.8789902,"longitude":-1.0316286,"name":"Stakes Hill Road near Dukes Walk","properties":{"access":"unknown","bicycle_pa":"stands","capacity":4,"covered":"no","fee":"no","operator":"","nameSource":"junction"},"sourceId":"osm"},{"id":"osm:way:893307048","latitude":50.85347908000001,"longitude":-0.96925024,"name":"Second Avenue cycle parking","properties":{"access":"unknown","bicycle_pa":"stands","capacity":0,"covered":"yes","fee":"","operator":"","nameSource":"street"},"sourceId":"osm"},{"id":"osm:way:896027256","latitude":50.8657701,"longitude":-0.97813402,"name":"Petersfield Road by The Heron","properties":{"access":"private","bicycle_pa":"shed","capacity":0,"covered":"yes","fee":"","operator":"","nameSource":"landmark"},"sourceId":"osm"},{"id":"osm:way:905870829","latitude":50.875826114285715,"longitude":-0.9698770999999999,"name":"Stansted Crescent cycle parking","properties":{"access":"unknown","bicycle_pa":"","capacity":0,"covered":"","fee":"","operator":"","nameSource":"street"},"sourceId":"osm"},{"id":"osm:way:906891225","latitude":50.87076134,"longitude":-0.9684444799999999,"name":"Baybridge Road near Fullerton Close","properties":{"access":"unknown","bicycle_pa":"shed","capacity":0,"covered":"","fee":"","operator":"","nameSource":"junction"},"sourceId":"osm"}],"schemaVersion":2}
