{"key":"12/2036/1375","points":[{"id":"osm:node:12173742171","latitude":50.7875207,"longitude":-0.9767275,"name":"Mengham Road near Elm Grove","properties":{"access":"yes","bicycle_pa":"stands","capacity":12,"covered":"no","fee":"no","operator":"","nameSource":"junction"},"sourceId":"osm"},{"id":"osm:node:12173742172","latitude":50.7875987,"longitude":-0.9767852,"name":"Mengham Road near Elm Grove","properties":{"access":"yes","bicycle_pa":"stands","capacity":4,"covered":"no","fee":"no","operator":"","nameSource":"junction"},"sourceId":"osm"},{"id":"osm:node:1446111652","latitude":50.7847667,"longitude":-1.0498761,"name":"Esplanade near Esplanade Gardens","properties":{"access":"unknown","bicycle_pa":"stands","capacity":2,"covered":"no","fee":"","operator":"","nameSource":"junction"},"sourceId":"osm"},{"id":"osm:node:1446111662","latitude":50.7856909,"longitude":-1.0448818,"name":"Esplanade near Henderson Road","properties":{"access":"unknown","bicycle_pa":"stands","capacity":10,"covered":"no","fee":"","operator":"","nameSource":"junction"},"sourceId":"osm"},{"id":"osm:node:1446111663","latitude":50.7838687,"longitude":-1.053654,"name":"Esplanade cycle parking","properties":{"access":"unknown","bicycle_pa":"stands","capacity":2,"covered":"no","fee":"","operator":"","nameSource":"street"},"sourceId":"osm"},{"id":"osm:node:1528728347","latitude":50.786357,"longitude":-1.0442717,"name":"Melville Road near Driftwood Gardens","properties":{"access":"unknown","bicycle_pa":"stands","capacity":6,"covered":"no","fee":"","operator":"","nameSource":"junction"},"sourceId":"osm"},{"id":"osm:node:2246291901","latitude":50.7892916,"longitude":-1.043604,"name":"Henderson Park cycle parking","properties":{"access":"unknown","bicycle_pa":"stands","capacity":2,"covered":"no","fee":"","operator":"","nameSource":"street"},"sourceId":"osm"},{"id":"osm:node:3176482390","latitude":50.7854517,"longitude":-1.0522508,"name":"Gunners Row cycle parking","properties":{"access":"unknown","bicycle_pa":"wall_hoops","capacity":8,"covered":"yes","fee":"","operator":"","nameSource":"street"},"sourceId":"osm"},{"id":"osm:node:4345129880","latitude":50.791184,"longitude":-0.9901722,"name":"Station Road near James Close","properties":{"access":"unknown","bicycle_pa":"stands","capacity":4,"covered":"no","fee":"","operator":"","nameSource":"junction"},"sourceId":"osm"},{"id":"osm:node:4345129884","latitude":50.7913265,"longitude":-0.9902178,"name":"Station Road near James Close","properties":{"access":"unknown","bicycle_pa":"stands","capacity":4,"covered":"no","fee":"","operator":"","nameSource":"junction"},"sourceId":"osm"},{"id":"osm:node:4345135729","latitude":50.7871884,"longitude":-0.974905,"name":"Selsmore Road near Webb Lane","properties":{"access":"unknown","bicycle_pa":"stands","capacity":14,"covered":"no","fee":"","operator":"","nameSource":"junction"},"sourceId":"osm"},{"id":"osm:node:4870726889","latitude":50.789721,"longitude":-1.0524861,"name":"Bransbury Road near Minstead Road","properties":{"access":"unknown","bicycle_pa":"stands","capacity":4,"covered":"no","fee":"","operator":"","nameSource":"junction"},"sourceId":"osm"},{"id":"osm:node:4870726890","latitude":50.7897193,"longitude":-1.0526001,"name":"Bransbury Road near Minstead Road","properties":{"access":"unknown","bicycle_pa":"stands","capacity":4,"covered":"no","fee":"","operator":"","nameSource":"junction"},"sourceId":"osm"}],"schemaVersion":2}
