{"key":"12/2053/1346","points":[{"id":"osm:node:11195523837","latitude":52.3435714,"longitude":0.4998868,"name":"Sheldrick Way cycle parking","properties":{"access":"unknown","bicycle_pa":"stands","capacity":60,"covered":"yes","fee":"","operator":"","nameSource":"street"},"sourceId":"osm"},{"id":"osm:node:11774453619","latitude":52.3578973,"longitude":0.4569049,"name":"Beeches Road near The Green","properties":{"access":"unknown","bicycle_pa":"","capacity":8,"covered":"","fee":"","operator":"","nameSource":"junction"},"sourceId":"osm"},{"id":"osm:node:2780647738","latitude":52.3432115,"longitude":0.5098257,"name":"Market Place near High Street","properties":{"access":"unknown","bicycle_pa":"stands","capacity":6,"covered":"no","fee":"","operator":"","nameSource":"junction"},"sourceId":"osm"},{"id":"osm:node:2782468662","latitude":52.3430908,"longitude":0.5115635,"name":"Market Place near King Street","properties":{"access":"unknown","bicycle_pa":"stands","capacity":4,"covered":"no","fee":"","operator":"","nameSource":"junction"},"sourceId":"osm"},{"id":"osm:node:4370665905","latitude":52.3428316,"longitude":0.5133737,"name":"Recreation Way by Timpson","properties":{"access":"unknown","bicycle_pa":"stands","capacity":20,"covered":"","fee":"","operator":"","nameSource":"landmark"},"sourceId":"osm"},{"id":"osm:node:4370679075","latitude":52.341859,"longitude":0.5139373,"name":"Lark Valley Path by The Lark Childrens Centre","properties":{"access":"unknown","bicycle_pa":"","capacity":0,"covered":"","fee":"","operator":"","nameSource":"landmark"},"sourceId":"osm"},{"id":"osm:node:4370681396","latitude":52.3418017,"longitude":0.5134805,"name":"Lark Valley Path by Jubilee Centre","properties":{"access":"unknown","bicycle_pa":"","capacity":0,"covered":"","fee":"","operator":"","nameSource":"landmark"},"sourceId":"osm"},{"id":"osm:node:4370920705","latitude":52.3429331,"longitude":0.5123404,"name":"Jubilee Way near Recreation Way","properties":{"access":"unknown","bicycle_pa":"stands","capacity":6,"covered":"no","fee":"","operator":"","nameSource":"junction"},"sourceId":"osm"},{"id":"osm:way:1353029767","latitude":52.34267992,"longitude":0.50161334,"name":"Little Treasures Pre-School cycle parking","properties":{"access":"unknown","bicycle_pa":"","capacity":0,"covered":"","fee":"","operator":"","nameSource":"landmark"},"sourceId":"osm"}],"schemaVersion":2}
