{"key":"12/1971/1321","points":[{"id":"osm:node:12935577518","latitude":53.6513268,"longitude":-6.6874546,"name":"Railway Street by MK Bridal","properties":{"access":"unknown","bicycle_pa":"stands","capacity":6,"covered":"no","fee":"no","operator":"","nameSource":"landmark"},"sourceId":"osm"},{"id":"osm:node:13993002999","latitude":53.6523895,"longitude":-6.6863213,"name":"Trimgate Street near Bakery Lane","properties":{"access":"yes","bicycle_pa":"stands","capacity":8,"covered":"no","fee":"no","operator":"","nameSource":"junction"},"sourceId":"osm"},{"id":"osm:node:9945670797","latitude":53.6510148,"longitude":-6.7096062,"name":"Tara Mines Road by EZ Living Furniture","properties":{"access":"unknown","bicycle_pa":"stands","capacity":12,"covered":"no","fee":"","operator":"","nameSource":"landmark"},"sourceId":"osm"},{"id":"osm:node:9945670798","latitude":53.6510788,"longitude":-6.7111398,"name":"Tara Mines Road by Halfords","properties":{"access":"unknown","bicycle_pa":"stands","capacity":12,"covered":"no","fee":"","operator":"","nameSource":"landmark"},"sourceId":"osm"},{"id":"osm:node:9945670799","latitude":53.651115,"longitude":-6.7122884,"name":"Tara Mines Road by Smyths","properties":{"access":"unknown","bicycle_pa":"stands","capacity":12,"covered":"no","fee":"","operator":"","nameSource":"landmark"},"sourceId":"osm"}],"schemaVersion":2}
