{"key":"12/2045/1361","points":[{"categories":["shop"],"id":"osm:node:10293928752","latitude":51.5099683,"longitude":-0.2228472,"name":"bikesoup","properties":{"website":"https://www.bikesoup.com/"},"sourceId":"osm"},{"categories":["hire"],"id":"osm:node:10703072512","latitude":51.5242533,"longitude":-0.2012681,"name":"Elgin Avenue","properties":{"brand":"Santander Cycles","network":"tfl_cycle_hire","operator":"Serco"},"sourceId":"osm"},{"categories":["repair"],"id":"osm:node:10862161105","latitude":51.5334336,"longitude":-0.2037607,"name":"Bicycle repair station","properties":{},"sourceId":"osm"},{"categories":["repair"],"id":"osm:node:11171853368","latitude":51.5300275,"longitude":-0.1913762,"name":"Bicycle repair station","properties":{"fee":"no","servicePump":"yes","serviceRepair":"yes","serviceTools":"yes"},"sourceId":"osm"},{"categories":["hire"],"id":"osm:node:11737807620","latitude":51.5222444,"longitude":-0.1926258,"name":"Westbourne Green","properties":{"brand":"Santander Cycles","network":"tfl_cycle_hire","operator":"Serco"},"sourceId":"osm"},{"categories":["hire"],"id":"osm:node:1217881039","latitude":51.5134383,"longitude":-0.1797408,"name":"Devonshire Terrace","properties":{"brand":"Santander Cycles","network":"tfl_cycle_hire","operator":"Serco"},"sourceId":"osm"},{"categories":["shop"],"id":"osm:node:12180060334","latitude":51.5365524,"longitude":-0.2484173,"name":"Sparks","properties":{},"sourceId":"osm"},{"categories":["repair"],"id":"osm:node:12277073418","latitude":51.5404287,"longitude":-0.2310865,"name":"Brent Council","properties":{"fee":"no","openingHours":"24/7","operator":"Brent Council","servicePump":"yes","serviceRepair":"yes","serviceTools":"yes"},"sourceId":"osm"},{"categories":["hire"],"id":"osm:node:1235136890","latitude":51.5137098,"longitude":-0.1934495,"name":"Hereford Road","properties":{"brand":"Santander Cycles","network":"tfl_cycle_hire","operator":"Serco"},"sourceId":"osm"},{"categories":["repair"],"id":"osm:node:12995102850","latitude":51.5170508,"longitude":-0.1767892,"name":"Bicycle repair station","properties":{},"sourceId":"osm"},{"categories":["hire"],"id":"osm:node:1699845054","latitude":51.5101459,"longitude":-0.2113862,"name":"Walmer Road","properties":{"brand":"Santander Cycles","network":"tfl_cycle_hire","operator":"Serco"},"sourceId":"osm"},{"categories":["hire"],"id":"osm:node:1699845057","latitude":51.5091747,"longitude":-0.2240911,"name":"Westfield Ariel Way","properties":{"brand":"Santander Cycles","network":"tfl_cycle_hire","operator":"Serco"},"sourceId":"osm"},{"categories":["hire"],"id":"osm:node:1699845120","latitude":51.5117004,"longitude":-0.2059456,"name":"Ladbroke Grove Central","properties":{"brand":"Santander Cycles","network":"tfl_cycle_hire","operator":"Serco"},"sourceId":"osm"},{"categories":["hire"],"id":"osm:node:1741083539","latitude":51.5171483,"longitude":-0.183437,"name":"Bishop's Bridge Road East","properties":{"brand":"Santander Cycles","network":"tfl_cycle_hire","operator":"Serco"},"sourceId":"osm"},{"categories":["hire"],"id":"osm:node:1741083540","latitude":51.5160924,"longitude":-0.1873559,"name":"Bishop's Bridge Road West","properties":{"brand":"Santander Cycles","network":"tfl_cycle_hire","operator":"Serco"},"sourceId":"osm"},{"categories":["hire"],"id":"osm:node:1741083541","latitude":51.5123676,"longitude":-0.1909585,"name":"Ilchester Gardens","properties":{"brand":"Santander Cycles","network":"tfl_cycle_hire","operator":"Serco"},"sourceId":"osm"},{"categories":["hire"],"id":"osm:node:2881505350","latitude":51.5115373,"longitude":-0.1797596,"name":"Lancaster Gate","properties":{"brand":"Santander Cycles","network":"tfl_cycle_hire","operator":"Serco"},"sourceId":"osm"},{"categories":["shop","repair"],"id":"osm:node:4699313439","latitude":51.5090715,"longitude":-0.2628648,"name":"Bicycle Repair Station","properties":{"openingHours":"Mo-Sa 09:00-18:00","serviceRepair":"yes"},"sourceId":"osm"},{"categories":["shop","repair"],"id":"osm:node:510907195","latitude":51.5152208,"longitude":-0.1945215,"name":"Balfe's Bikes","properties":{"brand":"Balfe's Bikes","operator":"Balfe's Bikes","serviceRepair":"yes"},"sourceId":"osm"},{"categories":["hire"],"id":"osm:node:6204029685","latitude":51.5092484,"longitude":-0.2160077,"name":"Rifle Place","properties":{"brand":"Santander Cycles","network":"tfl_cycle_hire","operator":"Serco"},"sourceId":"osm"},{"categories":["hire"],"id":"osm:node:6688236864","latitude":51.5211509,"longitude":-0.208868,"name":"Bevington Road West","properties":{"brand":"Santander Cycles","network":"tfl_cycle_hire","operator":"Serco"},"sourceId":"osm"},{"categories":["shop"],"id":"osm:node:6732525370","latitude":51.5232091,"longitude":-0.1942838,"name":"West 9 Bikes","properties":{"website":"http://www.therealartestate.com/"},"sourceId":"osm"},{"categories":["shop"],"id":"osm:node:6780531666","latitude":51.5262189,"longitude":-0.2051719,"name":"Fudge & Sons","properties":{"openingHours":"Tu-Sa 09:00-18:00","website":"https://fudgescyclestore.com/"},"sourceId":"osm"},{"categories":["hire"],"id":"osm:node:6868070689","latitude":51.5114929,"longitude":-0.2181416,"name":"Evesham Street","properties":{"brand":"Santander Cycles","network":"tfl_cycle_hire","operator":"Serco"},"sourceId":"osm"},{"categories":["hire"],"id":"osm:node:6868106148","latitude":51.5131937,"longitude":-0.2116103,"name":"Clarendon Road","properties":{"brand":"Santander Cycles","network":"tfl_cycle_hire","operator":"Serco"},"sourceId":"osm"},{"categories":["hire"],"id":"osm:node:6868114743","latitude":51.5109333,"longitude":-0.2145879,"name":"Sirdar Road","properties":{"brand":"Santander Cycles","network":"tfl_cycle_hire","operator":"Serco"},"sourceId":"osm"},{"categories":["hire"],"id":"osm:node:6868115880","latitude":51.5130304,"longitude":-0.2195002,"name":"Freston Road","properties":{"brand":"Santander Cycles","network":"tfl_cycle_hire","operator":"Serco"},"sourceId":"osm"},{"categories":["hire"],"id":"osm:node:6868119702","latitude":51.5128988,"longitude":-0.2146403,"name":"Grenfell Road","properties":{"brand":"Santander Cycles","network":"tfl_cycle_hire","operator":"Serco"},"sourceId":"osm"},{"categories":["hire"],"id":"osm:node:6868131662","latitude":51.5146821,"longitude":-0.2257526,"name":"BBC White City","properties":{"brand":"Santander Cycles","network":"tfl_cycle_hire","operator":"Serco"},"sourceId":"osm"},{"categories":["hire"],"id":"osm:node:6868165187","latitude":51.5168988,"longitude":-0.2136676,"name":"St. Mark's Road","properties":{"brand":"Santander Cycles","network":"tfl_cycle_hire","operator":"Serco"},"sourceId":"osm"},{"categories":["hire"],"id":"osm:node:6868180371","latitude":51.5151143,"longitude":-0.2085686,"name":"Blenheim Crescent","properties":{"brand":"Santander Cycles","network":"tfl_cycle_hire","operator":"Serco"},"sourceId":"osm"},{"categories":["hire"],"id":"osm:node:6868188817","latitude":51.5163385,"longitude":-0.2024379,"name":"All Saints Church","properties":{"brand":"Santander Cycles","network":"tfl_cycle_hire","operator":"Serco"},"sourceId":"osm"},{"categories":["hire"],"id":"osm:node:6868193586","latitude":51.5178548,"longitude":-0.2009555,"name":"Westbourne Park Road","properties":{"brand":"Santander Cycles","network":"tfl_cycle_hire","operator":"Serco"},"sourceId":"osm"},{"categories":["hire"],"id":"osm:node:6868198427","latitude":51.5190755,"longitude":-0.2046896,"name":"All Saints' Road","properties":{"brand":"Santander Cycles","network":"tfl_cycle_hire","operator":"Serco"},"sourceId":"osm"},{"categories":["hire"],"id":"osm:node:6868215814","latitude":51.5297376,"longitude":-0.183371,"name":"Maida Vale","properties":{"brand":"Santander Cycles","network":"tfl_cycle_hire","operator":"Serco"},"sourceId":"osm"},{"categories":["hire"],"id":"osm:node:6903983304","latitude":51.5246999,"longitude":-0.1764893,"name":"Aberdeen Place","properties":{"brand":"Santander Cycles","network":"tfl_cycle_hire","operator":"Serco"},"sourceId":"osm"},{"categories":["hire"],"id":"osm:node:6914056395","latitude":51.5096,"longitude":-0.204666,"name":"Lansdowne Walk","properties":{"brand":"Santander Cycles","network":"tfl_cycle_hire","operator":"Serco"},"sourceId":"osm"},{"categories":["hire"],"id":"osm:node:7081455186","latitude":51.5103218,"longitude":-0.1873546,"name":"Queensway","properties":{"brand":"Santander Cycles","network":"tfl_cycle_hire","operator":"Serco"},"sourceId":"osm"},{"categories":["hire"],"id":"osm:node:7191440743","latitude":51.5204652,"longitude":-0.2008658,"name":"The Metropolitan","properties":{"brand":"Santander Cycles","network":"tfl_cycle_hire","operator":"Serco"},"sourceId":"osm"},{"categories":["repair"],"id":"osm:node:7265734255","latitude":51.5169601,"longitude":-0.1769889,"name":"Bicycle repair station","properties":{},"sourceId":"osm"},{"categories":["repair"],"id":"osm:node:7573100762","latitude":51.5200205,"longitude":-0.1802805,"name":"Bicycle repair station","properties":{"fee":"no","openingHours":"24/7","servicePump":"yes","serviceTools":"yes"},"sourceId":"osm"},{"categories":["hire"],"id":"osm:node:839403854","latitude":51.5233436,"longitude":-0.1838506,"name":"Warwick Avenue Station","properties":{"brand":"Santander Cycles","network":"tfl_cycle_hire","operator":"Serco"},"sourceId":"osm"},{"categories":["hire"],"id":"osm:node:839403876","latitude":51.530939,"longitude":-0.1767608,"name":"Grove End Road","properties":{"brand":"Santander Cycles","network":"tfl_cycle_hire","operator":"Serco"},"sourceId":"osm"},{"categories":["hire"],"id":"osm:node:839403878","latitude":51.517276,"longitude":-0.1758726,"name":"South Wharf Road","properties":{"brand":"Santander Cycles","network":"tfl_cycle_hire","operator":"Serco"},"sourceId":"osm"},{"categories":["hire"],"id":"osm:node:839403908","latitude":51.5255572,"longitude":-0.1795961,"name":"Clifton Road","properties":{"brand":"Santander Cycles","network":"tfl_cycle_hire","operator":"Serco"},"sourceId":"osm"},{"categories":["hire"],"id":"osm:node:839560972","latitude":51.5185711,"longitude":-0.1766695,"name":"North Wharf Road","properties":{"brand":"Santander Cycles","network":"tfl_cycle_hire","operator":"Serco"},"sourceId":"osm"},{"categories":["hire"],"id":"osm:node:849584982","latitude":51.5093528,"longitude":-0.1963567,"name":"Notting Hill Gate Station","properties":{"brand":"Santander Cycles","network":"tfl_cycle_hire","operator":"Serco"},"sourceId":"osm"},{"categories":["hire"],"id":"osm:node:849584984","latitude":51.5111032,"longitude":-0.1974851,"name":"Pembridge Villas","properties":{"brand":"Santander Cycles","network":"tfl_cycle_hire","operator":"Serco"},"sourceId":"osm"},{"categories":["hire"],"id":"osm:node:852148487","latitude":51.5099529,"longitude":-0.1878484,"name":"Black Lion Gate","properties":{"brand":"Santander Cycles","network":"tfl_cycle_hire","operator":"Serco"},"sourceId":"osm"},{"categories":["hire"],"id":"osm:node:860243740","latitude":51.5135304,"longitude":-0.1913226,"name":"Princess Square","properties":{"brand":"Santander Cycles","network":"tfl_cycle_hire","operator":"Serco"},"sourceId":"osm"},{"categories":["hire"],"id":"osm:node:877648513","latitude":51.5164543,"longitude":-0.1791722,"name":"Eastbourne Mews","properties":{"brand":"Santander Cycles","network":"tfl_cycle_hire","operator":"Serco"},"sourceId":"osm"},{"categories":["hire"],"id":"osm:node:879566970","latitude":51.5179138,"longitude":-0.1879784,"name":"Gloucester Terrace","properties":{"brand":"Santander Cycles","network":"tfl_cycle_hire","operator":"Serco"},"sourceId":"osm"},{"categories":["hire"],"id":"osm:node:879566987","latitude":51.5155782,"longitude":-0.1831178,"name":"Cleveland Gardens","properties":{"brand":"Santander Cycles","network":"tfl_cycle_hire","operator":"Serco"},"sourceId":"osm"},{"categories":["hire"],"id":"osm:node:879566990","latitude":51.5179177,"longitude":-0.1836283,"name":"Orsett Terrace","properties":{"brand":"Santander Cycles","network":"tfl_cycle_hire","openingHours":"24/7","operator":"Serco"},"sourceId":"osm"},{"categories":["hire"],"id":"osm:node:879566993","latitude":51.5155092,"longitude":-0.1902915,"name":"Westbourne Grove","properties":{"brand":"Santander Cycles","network":"tfl_cycle_hire","operator":"Serco"},"sourceId":"osm"},{"categories":["hire"],"id":"osm:node:884199543","latitude":51.5142849,"longitude":-0.2009507,"name":"Turquoise Island","properties":{"brand":"Santander Cycles","network":"tfl_cycle_hire","operator":"Serco"},"sourceId":"osm"},{"categories":["hire"],"id":"osm:node:884199545","latitude":51.512199,"longitude":-0.2013656,"name":"Chepstow Villas","properties":{"brand":"Santander Cycles","network":"tfl_cycle_hire","operator":"Serco"},"sourceId":"osm"},{"categories":["shop","repair"],"id":"osm:node:9201864693","latitude":51.513402,"longitude":-0.2274253,"name":"Fix Your Cycle","properties":{"serviceRepair":"yes","website":"https://fixyourcycle.biz/"},"sourceId":"osm"}],"schemaVersion":2}
