{"key":"12/2045/1362","points":[{"categories":["hire"],"id":"osm:node:10143110701","latitude":51.4739375,"longitude":-0.2462212,"name":"Cycle hire","properties":{},"sourceId":"osm"},{"categories":["hire"],"id":"osm:node:1057788707","latitude":51.501978,"longitude":-0.1943344,"name":"Kensington Town Hall","properties":{"brand":"Santander Cycles","network":"tfl_cycle_hire","operator":"Serco"},"sourceId":"osm"},{"categories":["hire"],"id":"osm:node:1176800575","latitude":51.4971316,"longitude":-0.1922766,"name":"Marloes Road","properties":{"brand":"Santander Cycles","network":"tfl_cycle_hire","operator":"Serco"},"sourceId":"osm"},{"categories":["hire"],"id":"osm:node:1176800594","latitude":51.4997589,"longitude":-0.1765087,"name":"Serco","properties":{"brand":"Santander Cycles","network":"tfl_cycle_hire","operator":"Serco"},"sourceId":"osm"},{"categories":["hire"],"id":"osm:node:1176868173","latitude":51.5023489,"longitude":-0.2007307,"name":"Holland Park","properties":{"brand":"Santander Cycles","network":"tfl_cycle_hire","operator":"Serco"},"sourceId":"osm"},{"categories":["shop"],"id":"osm:node:12104384398","latitude":51.4680431,"longitude":-0.2181914,"name":"Raptor Bikes","properties":{"openingHours":"Mo-Su 07:00-16:00","website":"https://raptorbikes.cc/"},"sourceId":"osm"},{"categories":["shop","repair"],"id":"osm:node:12125395874","latitude":51.4766092,"longitude":-0.2155403,"name":"OMA Bikes","properties":{"openingHours":"Tu-Sa 11:00-19:00","serviceRepair":"yes","website":"https://linktr.ee/omabikes"},"sourceId":"osm"},{"categories":["hire"],"id":"osm:node:1258483287","latitude":51.4994284,"longitude":-0.1797084,"name":"Imperial College","properties":{"brand":"Santander Cycles","network":"tfl_cycle_hire","operator":"Serco"},"sourceId":"osm"},{"categories":["shop","repair"],"id":"osm:node:12960238458","latitude":51.4933656,"longitude":-0.2432093,"name":"London Cycle Workshop","properties":{"serviceRepair":"yes"},"sourceId":"osm"},{"categories":["hire"],"id":"osm:node:1345247428","latitude":51.4872111,"longitude":-0.1793832,"name":"Drayton Gardens","properties":{"brand":"Santander Cycles","network":"tfl_cycle_hire","operator":"Serco"},"sourceId":"osm"},{"categories":["shop"],"id":"osm:node:13916973156","latitude":51.493531,"longitude":-0.2444734,"name":"bike.","properties":{"website":"https://www.pisquaredbikes.com/"},"sourceId":"osm"},{"categories":["hire"],"id":"osm:node:1706931098","latitude":51.5013715,"longitude":-0.2059323,"name":"Abbotsbury Road","properties":{"brand":"Santander Cycles","network":"tfl_cycle_hire","operator":"Serco"},"sourceId":"osm"},{"categories":["hire"],"id":"osm:node:1711184243","latitude":51.5063328,"longitude":-0.2183854,"name":"Westfield Southern Terrace","properties":{"brand":"Santander Cycles","network":"tfl_cycle_hire","operator":"Serco"},"sourceId":"osm"},{"categories":["hire"],"id":"osm:node:1715074674","latitude":51.5015492,"longitude":-0.2222422,"name":"Shepherd's Bush Road North","properties":{"brand":"Santander Cycles","network":"tfl_cycle_hire","operator":"Serco"},"sourceId":"osm"},{"categories":["hire"],"id":"osm:node:2376356131","latitude":51.5037064,"longitude":-0.215883,"name":"Hansard Mews","properties":{"brand":"Santander Cycles","network":"tfl_cycle_hire","operator":"Serco"},"sourceId":"osm"},{"categories":["hire"],"id":"osm:node:2527934822","latitude":51.4609073,"longitude":-0.1872281,"name":"Wandsworth Town Station","properties":{"brand":"Santander Cycles","network":"tfl_cycle_hire","operator":"Serco"},"sourceId":"osm"},{"categories":["hire"],"id":"osm:node:2527936501","latitude":51.4592253,"longitude":-0.1808527,"name":"Spanish Road","properties":{"brand":"Santander Cycles","network":"tfl_cycle_hire","operator":"Serco"},"sourceId":"osm"},{"categories":["hire"],"id":"osm:node:2578203332","latitude":51.4619341,"longitude":-0.1807668,"name":"Nantes Close","properties":{"brand":"Santander Cycles","network":"tfl_cycle_hire","operator":"Serco"},"sourceId":"osm"},{"categories":["hire"],"id":"osm:node:261761004","latitude":51.4685589,"longitude":-0.210866,"name":"Cycle hire","properties":{},"sourceId":"osm"},{"categories":["hire"],"id":"osm:node:2717537066","latitude":51.4546451,"longitude":-0.1950874,"name":"Neville Gill Close","properties":{"brand":"Santander Cycles","network":"tfl_cycle_hire","operator":"Serco"},"sourceId":"osm"},{"categories":["shop","repair"],"id":"osm:node:2808877301","latitude":51.4976726,"longitude":-0.1979508,"name":"Cyclecare","properties":{"serviceRepair":"yes","website":"https://www.cyclecarekensington.myshopify.com/"},"sourceId":"osm"},{"categories":["hire"],"id":"osm:node:2813735666","latitude":51.4681028,"longitude":-0.1902915,"name":"Stephendale Road","properties":{"brand":"Santander Cycles","network":"tfl_cycle_hire","operator":"Serco"},"sourceId":"osm"},{"categories":["hire"],"id":"osm:node:2821874024","latitude":51.4932814,"longitude":-0.2196593,"name":"Hammersmith Road","properties":{"brand":"Santander Cycles","network":"tfl_cycle_hire","operator":"Serco"},"sourceId":"osm"},{"categories":["hire"],"id":"osm:node:2821874025","latitude":51.4910339,"longitude":-0.2164955,"name":"Colet Gardens","properties":{"brand":"Santander Cycles","network":"tfl_cycle_hire","operator":"Serco"},"sourceId":"osm"},{"categories":["hire"],"id":"osm:node:2905805804","latitude":51.4881716,"longitude":-0.2223018,"name":"Beryl Road","properties":{"brand":"Santander Cycles","network":"tfl_cycle_hire","operator":"Serco"},"sourceId":"osm"},{"categories":["hire"],"id":"osm:node:3466625802","latitude":51.472935,"longitude":-0.1765383,"name":"Vicarage Crescent","properties":{"brand":"Santander Cycles","network":"tfl_cycle_hire","operator":"Serco"},"sourceId":"osm"},{"categories":["hire"],"id":"osm:node:3470012962","latitude":51.465339,"longitude":-0.1801042,"name":"Hibbert Street","properties":{"brand":"Santander Cycles","network":"tfl_cycle_hire","operator":"Serco"},"sourceId":"osm"},{"categories":["hire"],"id":"osm:node:3470021932","latitude":51.4668487,"longitude":-0.2163113,"name":"Putney Pier","properties":{"brand":"Santander Cycles","network":"tfl_cycle_hire","operator":"Serco"},"sourceId":"osm"},{"categories":["hire"],"id":"osm:node:3470021933","latitude":51.4648208,"longitude":-0.2156764,"name":"Felsham Road","properties":{"brand":"Santander Cycles","network":"tfl_cycle_hire","operator":"Serco"},"sourceId":"osm"},{"categories":["hire"],"id":"osm:node:3470021934","latitude":51.4615601,"longitude":-0.2159287,"name":"Disraeli Road","properties":{"brand":"Santander Cycles","network":"tfl_cycle_hire","operator":"Serco"},"sourceId":"osm"},{"categories":["hire"],"id":"osm:node:3581886901","latitude":51.4920786,"longitude":-0.2290931,"name":"Bridge Avenue","properties":{"brand":"Santander Cycles","network":"tfl_cycle_hire","operator":"Serco"},"sourceId":"osm"},{"categories":["hire"],"id":"osm:node:3581895443","latitude":51.4730498,"longitude":-0.2147257,"name":"Bishop's Avenue","properties":{"brand":"Santander Cycles","network":"tfl_cycle_hire","operator":"Serco"},"sourceId":"osm"},{"categories":["hire"],"id":"osm:node:3750681028","latitude":51.4736178,"longitude":-0.1917177,"name":"Sandilands Road","properties":{"brand":"Santander Cycles","network":"tfl_cycle_hire","operator":"Serco"},"sourceId":"osm"},{"categories":["shop","repair"],"id":"osm:node:3772929046","latitude":51.463115,"longitude":-0.1856989,"name":"Trek","properties":{"brand":"Trek","operator":"Trek Bicycle Battersea","serviceRepair":"yes"},"sourceId":"osm"},{"categories":["hire"],"id":"osm:node:3790320557","latitude":51.4968372,"longitude":-0.2237767,"name":"Little Brook Green","properties":{"brand":"Santander Cycles","network":"tfl_cycle_hire","operator":"Serco"},"sourceId":"osm"},{"categories":["hire"],"id":"osm:node:3794078857","latitude":51.5082471,"longitude":-0.1935382,"name":"Cycle hire","properties":{},"sourceId":"osm"},{"categories":["hire"],"id":"osm:node:3888986121","latitude":51.457052,"longitude":-0.200794,"name":"Santos Road","properties":{"brand":"Santander Cycles","network":"tfl_cycle_hire","operator":"Serco"},"sourceId":"osm"},{"categories":["hire"],"id":"osm:node:3888986279","latitude":51.4568295,"longitude":-0.202782,"name":"Mexfield Road","properties":{"brand":"Santander Cycles","network":"tfl_cycle_hire","operator":"Serco"},"sourceId":"osm"},{"categories":["hire"],"id":"osm:node:3890101248","latitude":51.4818754,"longitude":-0.1803585,"name":"World's End Place","properties":{"brand":"Santander Cycles","network":"tfl_cycle_hire","operator":"Serco"},"sourceId":"osm"},{"categories":["hire"],"id":"osm:node:3890101249","latitude":51.4808665,"longitude":-0.1837605,"name":"Thorndike Close","properties":{"brand":"Santander Cycles","network":"tfl_cycle_hire","operator":"Serco"},"sourceId":"osm"},{"categories":["hire"],"id":"osm:node:3896102441","latitude":51.4855734,"longitude":-0.1811658,"name":"Limerston Street","properties":{"brand":"Santander Cycles","network":"tfl_cycle_hire","operator":"Serco"},"sourceId":"osm"},{"categories":["hire"],"id":"osm:node:4006231739","latitude":51.4607051,"longitude":-0.2163943,"name":"Putney Rail Station","properties":{"brand":"Santander Cycles","network":"tfl_cycle_hire","operator":"Serco"},"sourceId":"osm"},{"categories":["hire"],"id":"osm:node:4006234489","latitude":51.4580123,"longitude":-0.1847808,"name":"Alma Road","properties":{"brand":"Santander Cycles","network":"tfl_cycle_hire","operator":"Serco"},"sourceId":"osm"},{"categories":["shop"],"id":"osm:node:418810443","latitude":51.4696338,"longitude":-0.2631033,"name":"Bikes and Bits","properties":{"openingHours":"Tu-Sa 10:30-16:00"},"sourceId":"osm"},{"categories":["hire"],"id":"osm:node:4329814779","latitude":51.4737844,"longitude":-0.1968556,"name":"Irene Road","properties":{"brand":"Santander Cycles","network":"tfl_cycle_hire","operator":"Serco"},"sourceId":"osm"},{"categories":["hire"],"id":"osm:node:4329814892","latitude":51.4728172,"longitude":-0.1997794,"name":"Parsons Green","properties":{"brand":"Santander Cycles","network":"tfl_cycle_hire","operator":"Serco"},"sourceId":"osm"},{"categories":["hire"],"id":"osm:node:4537517403","latitude":51.4675714,"longitude":-0.2066828,"name":"Ranelagh Gardens","properties":{"brand":"Santander Cycles","network":"tfl_cycle_hire","operator":"Serco"},"sourceId":"osm"},{"categories":["hire"],"id":"osm:node:4623458572","latitude":51.5042002,"longitude":-0.2109738,"name":"Addison Road","properties":{"brand":"Santander Cycles","network":"tfl_cycle_hire","operator":"Serco"},"sourceId":"osm"},{"categories":["hire"],"id":"osm:node:4677086112","latitude":51.4762259,"longitude":-0.1932822,"name":"Eelbrook Common","properties":{"brand":"Santander Cycles","network":"tfl_cycle_hire","operator":"Serco"},"sourceId":"osm"},{"categories":["hire"],"id":"osm:node:4677106589","latitude":51.479437,"longitude":-0.1957239,"name":"Erin Close","properties":{"brand":"Santander Cycles","network":"tfl_cycle_hire","operator":"Serco"},"sourceId":"osm"},{"categories":["hire"],"id":"osm:node:4677109172","latitude":51.479943,"longitude":-0.1941318,"name":"Fulham Broadway","properties":{"brand":"Santander Cycles","network":"tfl_cycle_hire","operator":"Serco"},"sourceId":"osm"},{"categories":["hire"],"id":"osm:node:4677113221","latitude":51.4835863,"longitude":-0.202047,"name":"Coomer Place","properties":{"brand":"Santander Cycles","network":"tfl_cycle_hire","operator":"Serco"},"sourceId":"osm"},{"categories":["hire"],"id":"osm:node:4677116099","latitude":51.4839033,"longitude":-0.1975594,"name":"Halford Road","properties":{"brand":"Santander Cycles","network":"tfl_cycle_hire","operator":"Serco"},"sourceId":"osm"},{"categories":["shop"],"id":"osm:node:4783248816","latitude":51.4563216,"longitude":-0.1929325,"name":"XO Bikes","properties":{"openingHours":"Mo-Tu 10:30-18:00; We 12:00-18:00; Th-Sa 10:30-18:00","website":"https://xobikes.com/"},"sourceId":"osm"},{"categories":["hire"],"id":"osm:node:5053068176","latitude":51.4965291,"longitude":-0.1832924,"name":"Gloucester Road (Central)","properties":{"brand":"Santander Cycles","network":"tfl_cycle_hire","operator":"Serco"},"sourceId":"osm"},{"categories":["hire"],"id":"osm:node:5199460794","latitude":51.4670985,"longitude":-0.1933196,"name":"South Park","properties":{"brand":"Santander Cycles","network":"tfl_cycle_hire","operator":"Serco"},"sourceId":"osm"},{"categories":["hire"],"id":"osm:node:5247920389","latitude":51.4942495,"longitude":-0.2156518,"name":"Brook Green South","properties":{"brand":"Santander Cycles","network":"tfl_cycle_hire","operator":"Serco"},"sourceId":"osm"},{"categories":["hire"],"id":"osm:node:5497806700","latitude":51.4857745,"longitude":-0.223613,"name":"Manbre Road","properties":{"brand":"Santander Cycles","network":"tfl_cycle_hire","operator":"Serco"},"sourceId":"osm"},{"categories":["hire"],"id":"osm:node:5551997838","latitude":51.4880132,"longitude":-0.1874974,"name":"Harcourt Terrace","properties":{"brand":"Santander Cycles","network":"tfl_cycle_hire","operator":"Serco"},"sourceId":"osm"},{"categories":["hire"],"id":"osm:node:5659380118","latitude":51.4748036,"longitude":-0.1830576,"name":"Imperial Wharf Station","properties":{"brand":"Santander Cycles","network":"tfl_cycle_hire","operator":"Serco"},"sourceId":"osm"},{"categories":["hire"],"id":"osm:node:5745685500","latitude":51.4828949,"longitude":-0.219289,"name":"Crabtree Lane","properties":{"brand":"Santander Cycles","network":"tfl_cycle_hire","operator":"Serco"},"sourceId":"osm"},{"categories":["hire"],"id":"osm:node:5919574847","latitude":51.4632049,"longitude":-0.2154956,"name":"Montserrat Road","properties":{"brand":"Santander Cycles","network":"tfl_cycle_hire","operator":"Serco"},"sourceId":"osm"},{"categories":["repair"],"id":"osm:node:5970230369","latitude":51.4952631,"longitude":-0.2554637,"name":"Dero","properties":{"brand":"Dero","openingHours":"24/7","servicePump":"no","serviceTools":"yes"},"sourceId":"osm"},{"categories":["hire"],"id":"osm:node:6614676127","latitude":51.4948701,"longitude":-0.1830313,"name":"Cycle hire","properties":{},"sourceId":"osm"},{"categories":["hire"],"id":"osm:node:6645392419","latitude":51.4872813,"longitude":-0.2180249,"name":"Charing Cross Hospital","properties":{"brand":"Santander Cycles","network":"tfl_cycle_hire","operator":"Serco"},"sourceId":"osm"},{"categories":["hire"],"id":"osm:node:6645392420","latitude":51.4844054,"longitude":-0.2048973,"name":"Normand Park","properties":{"brand":"Santander Cycles","network":"tfl_cycle_hire","operator":"Serco"},"sourceId":"osm"},{"categories":["hire"],"id":"osm:node:6645392421","latitude":51.4606795,"longitude":-0.1987082,"name":"Osiers Road","properties":{"brand":"Santander Cycles","network":"tfl_cycle_hire","operator":"Serco"},"sourceId":"osm"},{"categories":["hire"],"id":"osm:node:6652862499","latitude":51.463566,"longitude":-0.1822123,"name":"Usk Road","properties":{"brand":"Santander Cycles","network":"tfl_cycle_hire","operator":"Serco"},"sourceId":"osm"},{"categories":["hire"],"id":"osm:node:6708146798","latitude":51.5064546,"longitude":-0.2085011,"name":"Princedale Road","properties":{"brand":"Santander Cycles","network":"tfl_cycle_hire","operator":"Serco"},"sourceId":"osm"},{"categories":["hire"],"id":"osm:node:6865148139","latitude":51.4751358,"longitude":-0.2018604,"name":"Parsons Green Station","properties":{"brand":"Santander Cycles","network":"tfl_cycle_hire","operator":"Serco"},"sourceId":"osm"},{"categories":["hire"],"id":"osm:node:6865176741","latitude":51.471073,"longitude":-0.2078414,"name":"Elysium Place","properties":{"brand":"Santander Cycles","network":"tfl_cycle_hire","operator":"Serco"},"sourceId":"osm"},{"categories":["hire"],"id":"osm:node:6865193601","latitude":51.4757286,"longitude":-0.2058241,"name":"Chesilton Road","properties":{"brand":"Santander Cycles","network":"tfl_cycle_hire","operator":"Serco"},"sourceId":"osm"},{"categories":["hire"],"id":"osm:node:6865198855","latitude":51.4734407,"longitude":-0.2078471,"name":"Fulham Park Road","properties":{"brand":"Santander Cycles","network":"tfl_cycle_hire","operator":"Serco"},"sourceId":"osm"},{"categories":["hire"],"id":"osm:node:6865208032","latitude":51.4703353,"longitude":-0.2029997,"name":"Hurlingham Park","properties":{"brand":"Santander Cycles","network":"tfl_cycle_hire","operator":"Serco"},"sourceId":"osm"},{"categories":["hire"],"id":"osm:node:6865219055","latitude":51.4687207,"longitude":-0.1843799,"name":"William Morris Way","properties":{"brand":"Santander Cycles","network":"tfl_cycle_hire","operator":"Serco"},"sourceId":"osm"},{"categories":["hire"],"id":"osm:node:6865223544","latitude":51.4773128,"longitude":-0.1891674,"name":"Michael Road","properties":{"brand":"Santander Cycles","network":"tfl_cycle_hire","operator":"Serco"},"sourceId":"osm"},{"categories":["hire"],"id":"osm:node:6865232498","latitude":51.4684535,"longitude":-0.1990726,"name":"Broomhouse Lane","properties":{"brand":"Santander Cycles","network":"tfl_cycle_hire","operator":"Serco"},"sourceId":"osm"},{"categories":["hire"],"id":"osm:node:6865232643","latitude":51.4690264,"longitude":-0.1961723,"name":"Peterborough Road","properties":{"brand":"Santander Cycles","network":"tfl_cycle_hire","operator":"Serco"},"sourceId":"osm"},{"categories":["hire"],"id":"osm:node:6865246591","latitude":51.494212,"longitude":-0.2367109,"name":"Ravenscourt Park Station","properties":{"brand":"Santander Cycles","network":"tfl_cycle_hire","operator":"Serco"},"sourceId":"osm"},{"categories":["hire"],"id":"osm:node:6865250272","latitude":51.4945694,"longitude":-0.2281257,"name":"Southerton Road","properties":{"brand":"Santander Cycles","network":"tfl_cycle_hire","operator":"Serco"},"sourceId":"osm"},{"categories":["hire"],"id":"osm:node:6867890614","latitude":51.4810357,"longitude":-0.2099597,"name":"Aintree Street","properties":{"brand":"Santander Cycles","network":"tfl_cycle_hire","operator":"Serco"},"sourceId":"osm"},{"categories":["hire"],"id":"osm:node:6867906923","latitude":51.4834579,"longitude":-0.2162236,"name":"Everington Street","properties":{"brand":"Santander Cycles","network":"tfl_cycle_hire","operator":"Serco"},"sourceId":"osm"},{"categories":["hire"],"id":"osm:node:6867973097","latitude":51.4860787,"longitude":-0.2143191,"name":"Greyhound Road","properties":{"brand":"Santander Cycles","network":"tfl_cycle_hire","operator":"Serco"},"sourceId":"osm"},{"categories":["hire"],"id":"osm:node:6867973858","latitude":51.4831666,"longitude":-0.2118048,"name":"Humbolt Road","properties":{"brand":"Santander Cycles","network":"tfl_cycle_hire","operator":"Serco"},"sourceId":"osm"},{"categories":["hire"],"id":"osm:node:6868020029","latitude":51.4789438,"longitude":-0.2084715,"name":"St. Peter's Terrace","properties":{"brand":"Santander Cycles","network":"tfl_cycle_hire","operator":"Serco"},"sourceId":"osm"},{"categories":["hire"],"id":"osm:node:6868023815","latitude":51.4768684,"longitude":-0.2158234,"name":"Finlay Street","properties":{"brand":"Santander Cycles","network":"tfl_cycle_hire","operator":"Serco"},"sourceId":"osm"},{"categories":["hire"],"id":"osm:node:6868031116","latitude":51.488122,"longitude":-0.2266101,"name":"Crisp Road","properties":{"brand":"Santander Cycles","network":"tfl_cycle_hire","operator":"Serco"},"sourceId":"osm"},{"categories":["hire"],"id":"osm:node:6868062041","latitude":51.5065219,"longitude":-0.2160629,"name":"Queensdale Road","properties":{"brand":"Santander Cycles","network":"tfl_cycle_hire","operator":"Serco"},"sourceId":"osm"},{"categories":["hire"],"id":"osm:node:6879017137","latitude":51.5000276,"longitude":-0.2114404,"name":"Russell Gardens","properties":{"brand":"Santander Cycles","network":"tfl_cycle_hire","operator":"Serco"},"sourceId":"osm"},{"categories":["hire"],"id":"osm:node:6903983291","latitude":51.4607769,"longitude":-0.2126125,"name":"Oxford Road","properties":{"brand":"Santander Cycles","network":"tfl_cycle_hire","operator":"Serco"},"sourceId":"osm"},{"categories":["hire"],"id":"osm:node:6903983292","latitude":51.4818217,"longitude":-0.1853541,"name":"Hortensia Road","properties":{"brand":"Santander Cycles","network":"tfl_cycle_hire","operator":"Serco"},"sourceId":"osm"},{"categories":["hire"],"id":"osm:node:6903983293","latitude":51.4750925,"longitude":-0.1871543,"name":"Imperial Road","properties":{"brand":"Santander Cycles","network":"tfl_cycle_hire","operator":"Serco"},"sourceId":"osm"},{"categories":["hire"],"id":"osm:node:6903983295","latitude":51.462305,"longitude":-0.2114207,"name":"Esmond Street","properties":{"brand":"Santander Cycles","network":"tfl_cycle_hire","operator":"Serco"},"sourceId":"osm"},{"categories":["hire"],"id":"osm:node:6903983296","latitude":51.4611,"longitude":-0.191723,"name":"Smugglers Way","properties":{"brand":"Santander Cycles","network":"tfl_cycle_hire","operator":"Serco"},"sourceId":"osm"},{"categories":["hire"],"id":"osm:node:6903984586","latitude":51.4795833,"longitude":-0.1790725,"name":"Lots Road","properties":{"brand":"Santander Cycles","network":"tfl_cycle_hire","operator":"Serco"},"sourceId":"osm"},{"categories":["hire"],"id":"osm:node:6903984587","latitude":51.4782,"longitude":-0.1824511,"name":"Upcerne Road","properties":{"brand":"Santander Cycles","network":"tfl_cycle_hire","operator":"Serco"},"sourceId":"osm"},{"categories":["hire"],"id":"osm:node:6903984588","latitude":51.4620075,"longitude":-0.206233,"name":"Putney Bridge Road","properties":{"brand":"Santander Cycles","network":"tfl_cycle_hire","operator":"Serco"},"sourceId":"osm"},{"categories":["hire"],"id":"osm:node:6903984590","latitude":51.4599407,"longitude":-0.1901592,"name":"Morie Street","properties":{"brand":"Santander Cycles","network":"tfl_cycle_hire","operator":"Serco"},"sourceId":"osm"},{"categories":["hire"],"id":"osm:node:6903984688","latitude":51.4597001,"longitude":-0.2122445,"name":"Upper Richmond Road","properties":{"brand":"Santander Cycles","network":"tfl_cycle_hire","operator":"Serco"},"sourceId":"osm"},{"categories":["hire"],"id":"osm:node:6903984689","latitude":51.4687259,"longitude":-0.2102924,"name":"Putney Bridge Station","properties":{"brand":"Santander Cycles","network":"tfl_cycle_hire","operator":"Serco"},"sourceId":"osm"},{"categories":["hire"],"id":"osm:node:6903984785","latitude":51.4575,"longitude":-0.192166,"name":"Ram Street","properties":{"brand":"Santander Cycles","network":"tfl_cycle_hire","operator":"Serco"},"sourceId":"osm"},{"categories":["hire"],"id":"osm:node:6903984885","latitude":51.461,"longitude":-0.2006662,"name":"Northfields","properties":{"brand":"Santander Cycles","network":"tfl_cycle_hire","operator":"Serco"},"sourceId":"osm"},{"categories":["hire"],"id":"osm:node:6914056390","latitude":51.4908716,"longitude":-0.2059575,"name":"West Kensington Station","properties":{"brand":"Santander Cycles","network":"tfl_cycle_hire","operator":"Serco"},"sourceId":"osm"},{"categories":["hire"],"id":"osm:node:6914056391","latitude":51.5004722,"longitude":-0.2174461,"name":"Richmond Way","properties":{"brand":"Santander Cycles","network":"tfl_cycle_hire","operator":"Serco"},"sourceId":"osm"},{"categories":["hire"],"id":"osm:node:6914056392","latitude":51.48372,"longitude":-0.223848,"name":"Rainville Road","properties":{"brand":"Santander Cycles","network":"tfl_cycle_hire","operator":"Serco"},"sourceId":"osm"},{"categories":["hire"],"id":"osm:node:6914056393","latitude":51.4896,"longitude":-0.209379,"name":"Vereker Road","properties":{"brand":"Santander Cycles","network":"tfl_cycle_hire","operator":"Serco"},"sourceId":"osm"},{"categories":["hire"],"id":"osm:node:6914066085","latitude":51.4910108,"longitude":-0.2091834,"name":"Gwendwr Road","properties":{"brand":"Santander Cycles","network":"tfl_cycle_hire","operator":"Serco"},"sourceId":"osm"},{"categories":["hire"],"id":"osm:node:6914066185","latitude":51.4871975,"longitude":-0.2053836,"name":"Star Road","properties":{"brand":"Santander Cycles","network":"tfl_cycle_hire","operator":"Serco"},"sourceId":"osm"},{"categories":["hire"],"id":"osm:node:6914066285","latitude":51.4902,"longitude":-0.215087,"name":"Barons Court Station","properties":{"brand":"Santander Cycles","network":"tfl_cycle_hire","operator":"Serco"},"sourceId":"osm"},{"categories":["hire"],"id":"osm:node:6914066385","latitude":51.5075,"longitude":-0.205536,"name":"Lansdowne Road","properties":{"brand":"Santander Cycles","network":"tfl_cycle_hire","operator":"Serco"},"sourceId":"osm"},{"categories":["repair"],"id":"osm:node:6914067986","latitude":51.4901966,"longitude":-0.2139367,"name":"Bicycle repair station","properties":{"fee":"no","openingHours":"24/7","servicePump":"yes"},"sourceId":"osm"},{"categories":["shop"],"id":"osm:node:7433744002","latitude":51.4982258,"longitude":-0.2018946,"name":"Bicycle shop","properties":{},"sourceId":"osm"},{"categories":["repair"],"id":"osm:node:7560580956","latitude":51.4991371,"longitude":-0.1793898,"name":"Imperial College London","properties":{"operator":"Imperial College London","servicePump":"yes","serviceTools":"yes"},"sourceId":"osm"},{"categories":["shop"],"id":"osm:node:7843989519","latitude":51.4843319,"longitude":-0.1758211,"name":"Margaret Dabbs","properties":{"openingHours":"Mo-Sa 09:00-18:30; Su 11:45-18:00","website":"https://margaretdabbs.zenoti.com/webstoreNew/services/938e7c84-cafc-49b7-8ba7-f5d52945d44b"},"sourceId":"osm"},{"categories":["hire"],"id":"osm:node:823375879","latitude":51.4941962,"longitude":-0.1826091,"name":"Gloucester Road Station","properties":{"brand":"Santander Cycles","network":"tfl_cycle_hire","operator":"Serco"},"sourceId":"osm"},{"categories":["shop"],"id":"osm:node:835448217","latitude":51.4571464,"longitude":-0.1872685,"name":"Stratton Cycles","properties":{},"sourceId":"osm"},{"categories":["hire"],"id":"osm:node:835975572","latitude":51.5016178,"longitude":-0.1849356,"name":"De Vere Gardens","properties":{"brand":"Santander Cycles","network":"tfl_cycle_hire","operator":"Serco"},"sourceId":"osm"},{"categories":["hire"],"id":"osm:node:835975573","latitude":51.5019511,"longitude":-0.1843592,"name":"Palace Gate","properties":{"brand":"Santander Cycles","network":"tfl_cycle_hire","operator":"Serco"},"sourceId":"osm"},{"categories":["hire"],"id":"osm:node:835975574","latitude":51.4954399,"longitude":-0.1854649,"name":"Emperor's Gate","properties":{"brand":"Santander Cycles","network":"tfl_cycle_hire","operator":"Serco"},"sourceId":"osm"},{"categories":["hire"],"id":"osm:node:836785671","latitude":51.4907916,"longitude":-0.1962614,"name":"Trebovir Road","properties":{"brand":"Santander Cycles","network":"tfl_cycle_hire","operator":"Serco"},"sourceId":"osm"},{"categories":["hire"],"id":"osm:node:836785673","latitude":51.4915779,"longitude":-0.1867393,"name":"Collingham Gardens","properties":{"brand":"Santander Cycles","network":"tfl_cycle_hire","operator":"Serco"},"sourceId":"osm"},{"categories":["hire"],"id":"osm:node:836785680","latitude":51.4915556,"longitude":-0.1924538,"name":"Penywern Road","properties":{"brand":"Santander Cycles","network":"tfl_cycle_hire","operator":"Serco"},"sourceId":"osm"},{"categories":["hire"],"id":"osm:node:836785688","latitude":51.4901349,"longitude":-0.190529,"name":"Bramham Gardens","properties":{"brand":"Santander Cycles","network":"tfl_cycle_hire","operator":"Serco"},"sourceId":"osm"},{"categories":["hire"],"id":"osm:node:836785695","latitude":51.4935923,"longitude":-0.1906094,"name":"Knaresborough Place","properties":{"brand":"Santander Cycles","network":"tfl_cycle_hire","operator":"Serco"},"sourceId":"osm"},{"categories":["hire"],"id":"osm:node:849584972","latitude":51.5085113,"longitude":-0.1936976,"name":"Palace Garden Terrace","properties":{"brand":"Santander Cycles","network":"tfl_cycle_hire","operator":"Serco"},"sourceId":"osm"},{"categories":["hire"],"id":"osm:node:849584974","latitude":51.5047845,"longitude":-0.1925585,"name":"Vicarage Gate","properties":{"brand":"Santander Cycles","network":"tfl_cycle_hire","operator":"Serco"},"sourceId":"osm"},{"categories":["hire"],"id":"osm:node:849584979","latitude":51.5065547,"longitude":-0.1989907,"name":"Campden Hill Road","properties":{"brand":"Santander Cycles","network":"tfl_cycle_hire","operator":"Serco"},"sourceId":"osm"},{"categories":["hire"],"id":"osm:node:850057438","latitude":51.5030278,"longitude":-0.1914044,"name":"Kensington Church Street","properties":{"brand":"Santander Cycles","network":"tfl_cycle_hire","operator":"Serco"},"sourceId":"osm"},{"categories":["hire"],"id":"osm:node:860173739","latitude":51.4909195,"longitude":-0.1812792,"name":"Old Brompton Road","properties":{"brand":"Santander Cycles","network":"tfl_cycle_hire","operator":"Serco"},"sourceId":"osm"},{"categories":["hire"],"id":"osm:node:860209060","latitude":51.4955742,"longitude":-0.1790756,"name":"Natural History Museum","properties":{"brand":"Santander Cycles","network":"tfl_cycle_hire","operator":"Serco"},"sourceId":"osm"},{"categories":["hire"],"id":"osm:node:860209061","latitude":51.501172,"longitude":-0.1802364,"name":"Queen's Gate (North)","properties":{"brand":"Santander Cycles","network":"tfl_cycle_hire","operator":"Serco"},"sourceId":"osm"},{"categories":["hire"],"id":"osm:node:860209065","latitude":51.4940564,"longitude":-0.1787608,"name":"Queen's Gate (Central)","properties":{"brand":"Santander Cycles","network":"tfl_cycle_hire","operator":"Serco"},"sourceId":"osm"},{"categories":["hire"],"id":"osm:node:862179883","latitude":51.4924062,"longitude":-0.1784098,"name":"Queen's Gate (South)","properties":{"brand":"Santander Cycles","network":"tfl_cycle_hire","operator":"Serco"},"sourceId":"osm"},{"categories":["hire"],"id":"osm:node:862179889","latitude":51.4979729,"longitude":-0.1838335,"name":"Gloucester Road (North)","properties":{"brand":"Santander Cycles","network":"tfl_cycle_hire","operator":"Serco"},"sourceId":"osm"},{"categories":["hire"],"id":"osm:node:862179945","latitude":51.5014446,"longitude":-0.1784281,"name":"Kensington Gore","properties":{"brand":"Santander Cycles","network":"tfl_cycle_hire","operator":"Serco"},"sourceId":"osm"},{"categories":["hire"],"id":"osm:node:885331201","latitude":51.4997102,"longitude":-0.1976499,"name":"Phillimore Gardens","properties":{"brand":"Santander Cycles","network":"tfl_cycle_hire","operator":"Serco"},"sourceId":"osm"},{"categories":["hire"],"id":"osm:node:885331209","latitude":51.5003154,"longitude":-0.1930058,"name":"Wright's Lane","properties":{"brand":"Santander Cycles","network":"tfl_cycle_hire","operator":"Serco"},"sourceId":"osm"},{"categories":["hire"],"id":"osm:node:885331222","latitude":51.4973938,"longitude":-0.1972775,"name":"Abingdon Villas","properties":{"brand":"Santander Cycles","network":"tfl_cycle_hire","operator":"Serco"},"sourceId":"osm"},{"categories":["hire"],"id":"osm:node:885331227","latitude":51.4966829,"longitude":-0.2052432,"name":"Warwick Road","properties":{"brand":"Santander Cycles","network":"tfl_cycle_hire","operator":"Serco"},"sourceId":"osm"},{"categories":["hire"],"id":"osm:node:885331230","latitude":51.500371,"longitude":-0.1954341,"name":"Argyll Road","properties":{"brand":"Santander Cycles","network":"tfl_cycle_hire","operator":"Serco"},"sourceId":"osm"},{"categories":["hire"],"id":"osm:node:891044385","latitude":51.5006616,"longitude":-0.2027103,"name":"Ilchester Place","properties":{"brand":"Santander Cycles","network":"tfl_cycle_hire","operator":"Serco"},"sourceId":"osm"},{"categories":["hire"],"id":"osm:node:891044386","latitude":51.4981207,"longitude":-0.2094777,"name":"Kensington Olympia Station","properties":{"brand":"Santander Cycles","network":"tfl_cycle_hire","operator":"Serco"},"sourceId":"osm"},{"categories":["hire"],"id":"osm:node:892452179","latitude":51.4937018,"longitude":-0.1983817,"name":"West Cromwell Road","properties":{"brand":"Santander Cycles","network":"tfl_cycle_hire","operator":"Serco"},"sourceId":"osm"},{"categories":["hire"],"id":"osm:node:892452182","latitude":51.4933518,"longitude":-0.1947758,"name":"Nevern Place","properties":{"brand":"Santander Cycles","network":"tfl_cycle_hire","operator":"Serco"},"sourceId":"osm"},{"categories":["hire"],"id":"osm:node:892452184","latitude":51.4958466,"longitude":-0.1918592,"name":"Lexham Gardens","properties":{"brand":"Santander Cycles","network":"tfl_cycle_hire","operator":"Serco"},"sourceId":"osm"},{"categories":["hire"],"id":"osm:node:892452189","latitude":51.5014095,"longitude":-0.1915651,"name":"Derry Street","properties":{"brand":"Santander Cycles","network":"tfl_cycle_hire","operator":"Serco"},"sourceId":"osm"},{"categories":["hire"],"id":"osm:node:941912649","latitude":51.5017896,"longitude":-0.1797241,"name":"Queen's Gate","properties":{"brand":"Santander Cycles","network":"tfl_cycle_hire","operator":"Serco"},"sourceId":"osm"},{"categories":["hire"],"id":"osm:node:9622712338","latitude":51.4969329,"longitude":-0.2134716,"name":"Blythe Road","properties":{"brand":"Santander Cycles","network":"tfl_cycle_hire","operator":"Serco"},"sourceId":"osm"},{"categories":["shop"],"id":"osm:node:964932948","latitude":51.4824996,"longitude":-0.1785653,"name":"Chelsea Bikes","properties":{"website":"http://www.chelseabikes.co.uk/"},"sourceId":"osm"},{"categories":["shop"],"id":"osm:node:968888833","latitude":51.4928623,"longitude":-0.2550905,"name":"Fudge Cycles","properties":{},"sourceId":"osm"},{"categories":["shop"],"id":"osm:node:973612781","latitude":51.5062564,"longitude":-0.2324471,"name":"Cycle Store","properties":{"website":"https://www.fudgescycleschiswick.com/"},"sourceId":"osm"},{"categories":["shop","repair"],"id":"osm:node:9759564738","latitude":51.5065537,"longitude":-0.2475073,"name":"Bicycle Repair Shop","properties":{"serviceRepair":"yes"},"sourceId":"osm"},{"categories":["hire"],"id":"osm:node:9848747917","latitude":51.4681794,"longitude":-0.2545658,"name":"Cycle hire","properties":{},"sourceId":"osm"},{"categories":["shop","repair"],"id":"osm:node:9897978896","latitude":51.4930008,"longitude":-0.2529086,"name":"Balfe's Bikes","properties":{"brand":"Balfe's Bikes","openingHours":"Mo-Fr 08:00-18:00; Sa 09:00-18:00; Su 10:00-17:00","serviceRepair":"yes"},"sourceId":"osm"},{"categories":["shop"],"id":"osm:node:9908001563","latitude":51.4777471,"longitude":-0.2016798,"name":"Balfe's Bikes","properties":{"brand":"Balfe's Bikes","openingHours":"Mo-Fr 08:00-19:00; Sa 09:00-18:00; Su 10:00-17:00","servicePump":"yes","website":"https://www.balfesbikes.co.uk/"},"sourceId":"osm"},{"categories":["shop"],"id":"osm:node:9908001564","latitude":51.4776351,"longitude":-0.2017509,"name":"Zoomo","properties":{"website":"https://www.ridezoomo.com/"},"sourceId":"osm"},{"categories":["shop"],"id":"osm:way:1011068954","latitude":51.46155086,"longitude":-0.21964242,"name":"Velosport","properties":{"website":"https://www.velosport.co.uk/"},"sourceId":"osm"},{"categories":["shop"],"id":"osm:way:1109765951","latitude":51.468046060000006,"longitude":-0.2220332,"name":"Elswood Cycleworks","properties":{},"sourceId":"osm"},{"categories":["shop","repair"],"id":"osm:way:1109765992","latitude":51.467146375,"longitude":-0.2192161625,"name":"Fettle Bike Repair - Putney","properties":{"openingHours":"Tu-Sa 09:00-18:00","operator":"fettle.cc","serviceRepair":"yes","website":"https://www.fettle.cc/"},"sourceId":"osm"},{"categories":["repair"],"id":"osm:way:1189863623","latitude":51.454383962499996,"longitude":-0.192857325,"name":"Decathlon","properties":{"brand":"Decathlon","openingHours":"Mo,Th 09:00-20:00; Tu-We,Fr-Sa 09:00-19:00; Su 11:00-17:00","serviceRepair":"yes","serviceTools":"yes","website":"https://www.decathlon.co.uk/store-view/sport-shop-wandsworth-0070104001040"},"sourceId":"osm"},{"categories":["shop"],"id":"osm:way:285593267","latitude":51.486822800000006,"longitude":-0.19767718333333337,"name":"Pedal Back Cycling","properties":{},"sourceId":"osm"},{"categories":["hire"],"id":"osm:way:383309239","latitude":51.50408688,"longitude":-0.21739730000000002,"name":"Woodstock Grove","properties":{"brand":"Santander Cycles","network":"tfl_cycle_hire","operator":"Serco"},"sourceId":"osm"},{"categories":["hire"],"id":"osm:way:980428377","latitude":51.49965922,"longitude":-0.22166666,"name":"Blythe Road West","properties":{"brand":"Santander Cycles","network":"tfl_cycle_hire","operator":"Serco"},"sourceId":"osm"}],"schemaVersion":2}
