{"key":"12/2080/1521","points":[{"id":"osm:node:10655987102","latitude":41.9672367,"longitude":2.8364037,"name":"Carrer del Pic de Peguera by Parc de Recerca i Innovació de la Universitat de Girona","properties":{"access":"unknown","bicycle_pa":"stands","capacity":32,"covered":"no","fee":"","operator":"","nameSource":"landmark"},"sourceId":"osm"},{"id":"osm:node:3295063469","latitude":41.9638586,"longitude":2.8300048,"name":"Carrer de Maria Aurèlia Capmany i Farnés cycle parking","properties":{"access":"unknown","bicycle_pa":"","capacity":0,"covered":"yes","fee":"","operator":"","nameSource":"street"},"sourceId":"osm"},{"id":"osm:node:6009785752","latitude":41.9662612,"longitude":2.8231227,"name":"Avinguda de Lluís Pericot near Carrer de la Pica d'Estats","properties":{"access":"yes","bicycle_pa":"stands","capacity":4,"covered":"no","fee":"","operator":"","nameSource":"junction"},"sourceId":"osm"},{"id":"osm:node:9301426989","latitude":41.9676042,"longitude":2.83781,"name":"Carrer d'Emili Grahit near Rotonda d'Emili Grahit","properties":{"access":"yes","bicycle_pa":"stands","capacity":32,"covered":"no","fee":"no","operator":"Ajuntament de Girona","nameSource":"junction"},"sourceId":"osm"},{"id":"osm:way:1000373788","latitude":41.962908240000004,"longitude":2.8290740600000004,"name":"Carrer de Maria Aurèlia Capmany i Farnés by Banco Santander","properties":{"access":"unknown","bicycle_pa":"","capacity":0,"covered":"","fee":"","operator":"","nameSource":"landmark"},"sourceId":"osm"},{"id":"osm:way:322733624","latitude":41.96426712,"longitude":2.82915828,"name":"Carrer de Maria Aurèlia Capmany i Farnés near Carril bici","properties":{"access":"unknown","bicycle_pa":"","capacity":0,"covered":"","fee":"","operator":"","nameSource":"junction"},"sourceId":"osm"}],"schemaVersion":2}
