{"key":"12/2044/1319","points":[{"categories":["repair"],"id":"osm:node:11270115005","latitude":53.7687712,"longitude":-0.3419628,"name":"Halfords","properties":{"brand":"Halfords","serviceRepair":"yes","website":"https://www.halfords.com/locations/clough-rd-hull-store/"},"sourceId":"osm"},{"categories":["shop"],"id":"osm:node:635009672","latitude":53.7496956,"longitude":-0.3512992,"name":"mini market","properties":{},"sourceId":"osm"},{"categories":["shop"],"id":"osm:node:6737152616","latitude":53.7632949,"longitude":-0.3515249,"name":"Bob's bikes","properties":{},"sourceId":"osm"},{"categories":["shop"],"id":"osm:way:297743755","latitude":53.75686235,"longitude":-0.2729763,"name":"Richardsons","properties":{"website":"https://www.richardsonshull.co.uk/"},"sourceId":"osm"},{"categories":["shop"],"id":"osm:way:304967548","latitude":53.753758579999996,"longitude":-0.3132144,"name":"Jobes Cycles","properties":{},"sourceId":"osm"}],"schemaVersion":2}
