{"key":"12/2044/1364","points":[{"categories":["shop","repair","hire"],"id":"osm:node:10707453000","latitude":51.3917573,"longitude":-0.307911,"name":"Torque Electric","properties":{"openingHours":"Mo off; Tu-Fr 09:30-17:30; Sa 10:00-16:00; Su open \"Appointment only\"","serviceRental":"yes","serviceRepair":"yes"},"sourceId":"osm"},{"categories":["shop","repair"],"id":"osm:node:1079128748","latitude":51.393548,"longitude":-0.313954,"name":"Recycles Bike Shop","properties":{"servicePump":"yes","serviceRepair":"yes"},"sourceId":"osm"},{"categories":["shop","repair"],"id":"osm:node:291865301","latitude":51.3848266,"longitude":-0.2944483,"name":"Cycleopedia","properties":{"openingHours":"Mo-Sa 09:00-17:00","servicePump":"yes","serviceRental":"no","serviceRepair":"yes"},"sourceId":"osm"},{"categories":["shop","repair"],"id":"osm:node:2967841434","latitude":51.3922301,"longitude":-0.3195215,"name":"Surbiton Cycles","properties":{"servicePump":"yes","serviceRental":"no","serviceRepair":"yes"},"sourceId":"osm"},{"categories":["repair"],"id":"osm:node:3529029773","latitude":51.3922212,"longitude":-0.3038064,"name":"Dero","properties":{"brand":"Dero","openingHours":"24/7"},"sourceId":"osm"},{"categories":["shop","repair"],"id":"osm:node:8078965156","latitude":51.3762519,"longitude":-0.3036283,"name":"Paul Cycles","properties":{"openingHours":"Tu-Sa 10:00-17:30","serviceRepair":"yes"},"sourceId":"osm"}],"schemaVersion":2}
