{"key":"12/2044/1374","points":[{"categories":["hire"],"id":"osm:node:11038067538","latitude":50.8206867,"longitude":-0.3376425,"name":"Brooklands Park","properties":{"fee":"yes","network":"Adur&Worthing","operator":"Donkey Republic"},"sourceId":"osm"},{"categories":["hire"],"id":"osm:node:11038067539","latitude":50.8200318,"longitude":-0.32375,"name":"The Perch","properties":{"fee":"yes","network":"Adur&Worthing","operator":"Donkey Republic"},"sourceId":"osm"},{"categories":["hire"],"id":"osm:node:11038067540","latitude":50.8268364,"longitude":-0.3226275,"name":"Lancing Station","properties":{"brand":"Donkey Republic","fee":"yes","network":"Adur&Worthing","operator":"Donkey Republic"},"sourceId":"osm"},{"categories":["hire"],"id":"osm:node:11038067544","latitude":50.8402931,"longitude":-0.2860512,"name":"Upper Shoreham Road (Steyning Road)","properties":{"brand":"Donkey Republic","fee":"yes","network":"Adur&Worthing","operator":"Donkey Republic"},"sourceId":"osm"},{"categories":["hire"],"id":"osm:node:11038067545","latitude":50.8318101,"longitude":-0.2743008,"name":"East Street","properties":{"fee":"yes","network":"Adur&Worthing","operator":"Donkey Republic"},"sourceId":"osm"},{"categories":["hire"],"id":"osm:node:11038067554","latitude":50.8293093,"longitude":-0.2721738,"name":"Ferry Road","properties":{"fee":"yes","network":"Adur&Worthing","operator":"Donkey Republic"},"sourceId":"osm"},{"categories":["repair"],"id":"osm:node:11850515159","latitude":50.8402734,"longitude":-0.2860143,"name":"Bicycle repair station","properties":{"servicePump":"yes","serviceTools":"yes"},"sourceId":"osm"},{"categories":["shop"],"id":"osm:node:9487318545","latitude":50.8328714,"longitude":-0.2789609,"name":"Giant","properties":{"brand":"Giant","openingHours":"Mo-Sa 09:00-17:30; Su off"},"sourceId":"osm"},{"categories":["repair"],"id":"osm:way:235901508","latitude":50.83327262,"longitude":-0.26373485999999996,"name":"Halfords","properties":{"brand":"Halfords","serviceRepair":"yes"},"sourceId":"osm"}],"schemaVersion":2}
