{"key":"12/2044/1558","points":[{"categories":["hire"],"id":"osm:node:10189163221","latitude":39.480636,"longitude":-0.3397036,"name":"Cycle hire","properties":{},"sourceId":"osm"},{"categories":["shop","repair"],"id":"osm:node:10250748529","latitude":39.5004629,"longitude":-0.3458092,"name":"Cloot Bikes","properties":{"serviceRepair":"yes"},"sourceId":"osm"},{"categories":["hire"],"id":"osm:node:11328320509","latitude":39.4596219,"longitude":-0.3502003,"name":"Pelican Bikes","properties":{"network":"Pelican Bikes","openingHours":"Mo-Su 09:30-19:30"},"sourceId":"osm"},{"categories":["shop"],"id":"osm:node:11747960773","latitude":39.4643006,"longitude":-0.3294531,"name":"Santa Marcelita Bikes","properties":{"openingHours":"Mo-Su 09:00-14:00, 15:00-20:00"},"sourceId":"osm"},{"categories":["hire"],"id":"osm:node:12033719307","latitude":39.4606687,"longitude":-0.3382028,"name":"Sun and Bikes Valencia","properties":{},"sourceId":"osm"},{"categories":["hire"],"id":"osm:node:12404415576","latitude":39.4914868,"longitude":-0.3252205,"name":"Cycle hire","properties":{},"sourceId":"osm"},{"categories":["hire"],"id":"osm:node:13005076856","latitude":39.4813916,"longitude":-0.3467458,"name":"Rectorado UPV","properties":{"brand":"BiciMislata","fee":"yes","network":"BiciMislata","operator":"Movus"},"sourceId":"osm"},{"categories":["hire"],"id":"osm:node:13389477857","latitude":39.4814515,"longitude":-0.3467167,"name":"Rectorat UPV","properties":{"fee":"yes","network":"Mibisi","operator":"Movus"},"sourceId":"osm"},{"categories":["hire"],"id":"osm:node:1671629045","latitude":39.467365,"longitude":-0.339115,"name":"160 José María Haro","properties":{"brand":"Valenbisi","network":"Valenbisi","operator":"Cyclocity"},"sourceId":"osm"},{"categories":["hire"],"id":"osm:node:1673538353","latitude":39.467952,"longitude":-0.3319045,"name":"161 Mediterrània","properties":{"brand":"Valenbisi","network":"Valenbisi","operator":"Cyclocity"},"sourceId":"osm"},{"categories":["shop"],"id":"osm:node:1708544984","latitude":39.4636148,"longitude":-0.3458174,"name":"abbat connection","properties":{"operator":"abbat connection"},"sourceId":"osm"},{"categories":["hire"],"id":"osm:node:1956437357","latitude":39.4798587,"longitude":-0.3463286,"name":"095 Tarongers - Magisteri","properties":{"brand":"Valenbisi","network":"Valenbisi","operator":"Cyclocity"},"sourceId":"osm"},{"categories":["hire"],"id":"osm:node:1956452707","latitude":39.4784637,"longitude":-0.3423036,"name":"112 Tarongers","properties":{"brand":"Valenbisi","network":"Valenbisi","openingHours":"Mo-Fr 06:00-23:00; Sa,Su,PH off","operator":"Cyclocity"},"sourceId":"osm"},{"categories":["hire"],"id":"osm:node:1956496447","latitude":39.4801384,"longitude":-0.3406525,"name":"111 Col·legi Major","properties":{"brand":"Valenbisi","network":"Valenbisi","operator":"Cyclocity"},"sourceId":"osm"},{"categories":["hire"],"id":"osm:node:1956497948","latitude":39.4807331,"longitude":-0.3368202,"name":"110 Kisshomaru","properties":{"brand":"Valenbisi","network":"Valenbisi","operator":"Cyclocity"},"sourceId":"osm"},{"categories":["hire"],"id":"osm:node:1956981899","latitude":39.4768163,"longitude":-0.333647,"name":"109 Tarongers - Fausto Elío","properties":{"brand":"Valenbisi","network":"Valenbisi","operator":"Cyclocity"},"sourceId":"osm"},{"categories":["hire"],"id":"osm:node:1958682410","latitude":39.4818803,"longitude":-0.3466407,"name":"114 Adolfo Suárez","properties":{"brand":"Valenbisi","network":"Valenbisi","operator":"Cyclocity"},"sourceId":"osm"},{"categories":["hire"],"id":"osm:node:1958683334","latitude":39.4811277,"longitude":-0.343638,"name":"113 ETS Camins","properties":{"brand":"Valenbisi","network":"Valenbisi","operator":"Cyclocity"},"sourceId":"osm"},{"categories":["hire"],"id":"osm:node:1996798032","latitude":39.4768633,"longitude":-0.3279785,"name":"168 Malva-rosa","properties":{"brand":"Valenbisi","network":"Valenbisi","operator":"Cyclocity"},"sourceId":"osm"},{"categories":["hire"],"id":"osm:node:1996806483","latitude":39.4746376,"longitude":-0.3247143,"name":"167 Pavia III","properties":{"brand":"Valenbisi","network":"Valenbisi","operator":"Cyclocity"},"sourceId":"osm"},{"categories":["hire"],"id":"osm:node:1996810393","latitude":39.473325,"longitude":-0.3288985,"name":"166 Progrés","properties":{"brand":"Valenbisi","network":"Valenbisi","operator":"Cyclocity"},"sourceId":"osm"},{"categories":["hire"],"id":"osm:node:1996837087","latitude":39.4701825,"longitude":-0.3349064,"name":"101 Blasco Ibáñez X - Estació Cabanyal","properties":{"brand":"Valenbisi","network":"Valenbisi","operator":"Cyclocity"},"sourceId":"osm"},{"categories":["hire"],"id":"osm:node:2507404246","latitude":39.4735467,"longitude":-0.3482977,"name":"096 Blasco Ibáñez VI","properties":{"brand":"Valenbisi","network":"Valenbisi","operator":"Cyclocity"},"sourceId":"osm"},{"categories":["hire"],"id":"osm:node:2508922317","latitude":39.4722262,"longitude":-0.3438199,"name":"093 Blasco Ibáñez - Poeta Duran i Tortajada","properties":{"brand":"Valenbisi","network":"Valenbisi","operator":"Cyclocity"},"sourceId":"osm"},{"categories":["hire"],"id":"osm:node:2508922318","latitude":39.4730529,"longitude":-0.3432515,"name":"097 Blasco Ibáñez VII","properties":{"brand":"Valenbisi","network":"Valenbisi","operator":"Cyclocity"},"sourceId":"osm"},{"categories":["hire"],"id":"osm:node:2700008040","latitude":39.4806081,"longitude":-0.3322648,"name":"272 Vicente la Roda - Enginyer Fausto Elío","properties":{"brand":"Valenbisi","network":"Valenbisi","operator":"Cyclocity"},"sourceId":"osm"},{"categories":["hire"],"id":"osm:node:2700010434","latitude":39.4829629,"longitude":-0.3254025,"name":"170 Pavia V","properties":{"brand":"Valenbisi","network":"Valenbisi","operator":"Cyclocity"},"sourceId":"osm"},{"categories":["hire"],"id":"osm:node:2700022394","latitude":39.4788005,"longitude":-0.3247427,"name":"169 Pavia IV","properties":{"brand":"Valenbisi","network":"Valenbisi","operator":"Cyclocity"},"sourceId":"osm"},{"categories":["hire"],"id":"osm:node:3888966277","latitude":39.4767043,"longitude":-0.3413838,"name":"106 Tarongers","properties":{"brand":"Valenbisi","network":"Valenbisi","operator":"Cyclocity"},"sourceId":"osm"},{"categories":["hire"],"id":"osm:node:3888966278","latitude":39.4748303,"longitude":-0.3366741,"name":"107 Campillo de Altobuey","properties":{"brand":"Valenbisi","network":"Valenbisi","operator":"Cyclocity"},"sourceId":"osm"},{"categories":["shop"],"id":"osm:node:3947783936","latitude":39.4751241,"longitude":-0.3464408,"name":"Biciutat","properties":{"openingHours":"Mo-Fr 10:00-14:00,17:00-23:00; Sa 11:00-14:00"},"sourceId":"osm"},{"categories":["shop"],"id":"osm:node:4050358152","latitude":39.4624924,"longitude":-0.3380911,"name":"TodoBici","properties":{},"sourceId":"osm"},{"categories":["shop","repair","hire"],"id":"osm:node:4077518116","latitude":39.4640447,"longitude":-0.3458631,"name":"Doyoubike","properties":{"serviceRental":"yes","serviceRepair":"yes"},"sourceId":"osm"},{"categories":["shop","repair"],"id":"osm:node:5037620230","latitude":39.4702378,"longitude":-0.3369926,"name":"The Bike Run","properties":{"openingHours":"Mo-Fr 09:30-19:00","servicePump":"yes","serviceRepair":"yes"},"sourceId":"osm"},{"categories":["shop"],"id":"osm:node:5096188422","latitude":39.4741691,"longitude":-0.3279098,"name":"Beach Bikes Valencia","properties":{},"sourceId":"osm"},{"categories":["hire"],"id":"osm:node:5238791703","latitude":39.4684012,"longitude":-0.3247436,"name":"164 Pavia I","properties":{"brand":"Valenbisi","network":"Valenbisi","operator":"Cyclocity"},"sourceId":"osm"},{"categories":["hire"],"id":"osm:node:5238792200","latitude":39.4619443,"longitude":-0.3238535,"name":"276 Veles e Vents","properties":{"brand":"Valenbisi","network":"Valenbisi","operator":"Cyclocity"},"sourceId":"osm"},{"categories":["shop","repair","hire"],"id":"osm:node:5390707834","latitude":39.474399,"longitude":-0.3509326,"name":"Bicistudio","properties":{"openingHours":"Mo-Fr 09:30-14:30, 17:30-20:00","serviceRental":"yes","serviceRepair":"yes"},"sourceId":"osm"},{"categories":["hire"],"id":"osm:node:5742958616","latitude":39.4997943,"longitude":-0.34638,"name":"Ronda Este Ferrers","properties":{"network":"MIBISI Valencia","operator":"MOVUS"},"sourceId":"osm"},{"categories":["hire"],"id":"osm:node:5809577847","latitude":39.4522207,"longitude":-0.3475618,"name":"051 Eduardo Primo Yúfera - Oceanogràfic","properties":{"brand":"Valenbisi","network":"Valenbisi","operator":"Cyclocity"},"sourceId":"osm"},{"categories":["hire"],"id":"osm:node:5809577848","latitude":39.4560375,"longitude":-0.3464619,"name":"052 Luis García Berlanga Martí - Menorca","properties":{"brand":"Valenbisi","network":"Valenbisi","operator":"Cyclocity"},"sourceId":"osm"},{"categories":["hire"],"id":"osm:node:5810703419","latitude":39.4566695,"longitude":-0.3481996,"name":"053 Luis García Berlanga - Pintor Maella","properties":{"brand":"Valenbisi","network":"Valenbisi","operator":"Cyclocity"},"sourceId":"osm"},{"categories":["hire"],"id":"osm:node:5818759111","latitude":39.4593544,"longitude":-0.3488375,"name":"055 França - Pintor Maella","properties":{"brand":"Valenbisi","network":"Valenbisi","operator":"Cyclocity"},"sourceId":"osm"},{"categories":["hire"],"id":"osm:node:5819369931","latitude":39.4584118,"longitude":-0.344527,"name":"056 França - Menorca","properties":{"brand":"Valenbisi","network":"Valenbisi","operator":"Cyclocity"},"sourceId":"osm"},{"categories":["hire"],"id":"osm:node:5821616590","latitude":39.4698726,"longitude":-0.3296373,"name":"154 Pescadors","properties":{"brand":"Valenbisi","network":"Valenbisi","operator":"Cyclocity"},"sourceId":"osm"},{"categories":["hire"],"id":"osm:node:5839125564","latitude":39.4613209,"longitude":-0.3479101,"name":"061 Vicent Vidal","properties":{"brand":"Valenbisi","network":"Valenbisi","operator":"Cyclocity"},"sourceId":"osm"},{"categories":["hire"],"id":"osm:node:5839125565","latitude":39.4597645,"longitude":-0.3422701,"name":"062 Menorca","properties":{"brand":"Valenbisi","network":"Valenbisi","operator":"Cyclocity"},"sourceId":"osm"},{"categories":["hire"],"id":"osm:node:5877137828","latitude":39.4655062,"longitude":-0.3509108,"name":"065 Avinguda del Port III","properties":{"brand":"Valenbisi","network":"Valenbisi","operator":"Cyclocity"},"sourceId":"osm"},{"categories":["hire"],"id":"osm:node:5877137829","latitude":39.4642973,"longitude":-0.3463467,"name":"066 Guillem d'Anglesola","properties":{"brand":"Valenbisi","network":"Valenbisi","operator":"Cyclocity"},"sourceId":"osm"},{"categories":["hire"],"id":"osm:node:5877137830","latitude":39.4588455,"longitude":-0.3368434,"name":"067 Joan Verdeguer","properties":{"brand":"Valenbisi","network":"Valenbisi","operator":"Cyclocity"},"sourceId":"osm"},{"categories":["hire"],"id":"osm:node:5877137831","latitude":39.462794,"longitude":-0.3417724,"name":"068 Avinguda del Port IV","properties":{"brand":"Valenbisi","network":"Valenbisi","operator":"Cyclocity"},"sourceId":"osm"},{"categories":["hire"],"id":"osm:node:5877137832","latitude":39.4619399,"longitude":-0.3387969,"name":"069 Avinguda del Port V","properties":{"brand":"Valenbisi","network":"Valenbisi","operator":"Cyclocity"},"sourceId":"osm"},{"categories":["hire"],"id":"osm:node:5877137865","latitude":39.4603848,"longitude":-0.3336889,"name":"071 Avinguda del Port VI","properties":{"brand":"Valenbisi","network":"Valenbisi","operator":"Cyclocity"},"sourceId":"osm"},{"categories":["hire"],"id":"osm:node:5877137866","latitude":39.4672117,"longitude":-0.3466311,"name":"072 Ramiro de Maeztu","properties":{"brand":"Valenbisi","network":"Valenbisi","operator":"Cyclocity"},"sourceId":"osm"},{"categories":["hire"],"id":"osm:node:5877137867","latitude":39.4662473,"longitude":-0.3429882,"name":"073 Jeroni de Montsoriu","properties":{"brand":"Valenbisi","network":"Valenbisi","operator":"Cyclocity"},"sourceId":"osm"},{"categories":["hire"],"id":"osm:node:5877137870","latitude":39.4701015,"longitude":-0.3437618,"name":"076 Campoamor II","properties":{"brand":"Valenbisi","network":"Valenbisi","operator":"Cyclocity"},"sourceId":"osm"},{"categories":["hire"],"id":"osm:node:5878693556","latitude":39.4672647,"longitude":-0.3352605,"name":"084 Serradora - Pintor Ferrer Calatayud","properties":{"brand":"Valenbisi","network":"Valenbisi","operator":"Cyclocity"},"sourceId":"osm"},{"categories":["hire"],"id":"osm:node:5878693557","latitude":39.4716404,"longitude":-0.338265,"name":"100 Blasco Ibáñez IX","properties":{"brand":"Valenbisi","network":"Valenbisi","operator":"Cyclocity"},"sourceId":"osm"},{"categories":["hire"],"id":"osm:node:5878693558","latitude":39.4713194,"longitude":-0.3405387,"name":"099 Blasco Ibáñez VIII","properties":{"brand":"Valenbisi","network":"Valenbisi","operator":"Cyclocity"},"sourceId":"osm"},{"categories":["hire"],"id":"osm:node:5878693567","latitude":39.4696706,"longitude":-0.3485648,"name":"098 Sants Just i Pastor","properties":{"brand":"Valenbisi","network":"Valenbisi","operator":"Cyclocity"},"sourceId":"osm"},{"categories":["hire"],"id":"osm:node:5879169385","latitude":39.475879,"longitude":-0.3467796,"name":"102 Ramon Llull","properties":{"brand":"Valenbisi","network":"Valenbisi","operator":"Cyclocity"},"sourceId":"osm"},{"categories":["hire"],"id":"osm:node:5879169387","latitude":39.4783953,"longitude":-0.3473734,"name":"104 Albalat dels Tarongers","properties":{"brand":"Valenbisi","network":"Valenbisi","operator":"Cyclocity"},"sourceId":"osm"},{"categories":["hire"],"id":"osm:node:5879169388","latitude":39.4783284,"longitude":-0.3442734,"name":"105 Tarongers - Aularis Universitat València","properties":{"brand":"Valenbisi","network":"Valenbisi","operator":"Cyclocity"},"sourceId":"osm"},{"categories":["hire"],"id":"osm:node:5879593906","latitude":39.4737479,"longitude":-0.3340058,"name":"108 Lluís Peixó","properties":{"brand":"Valenbisi","network":"Valenbisi","operator":"Cyclocity"},"sourceId":"osm"},{"categories":["hire"],"id":"osm:node:5879624569","latitude":39.4676588,"longitude":-0.3506803,"name":"150 Manuel Candela","properties":{"brand":"Valenbisi","network":"Valenbisi","operator":"Cyclocity"},"sourceId":"osm"},{"categories":["hire"],"id":"osm:node:5880167633","latitude":39.4646746,"longitude":-0.3372996,"name":"151 Jeroni Montsoriu","properties":{"brand":"Valenbisi","network":"Valenbisi","operator":"Cyclocity"},"sourceId":"osm"},{"categories":["hire"],"id":"osm:node:5880167638","latitude":39.4667476,"longitude":-0.3277688,"name":"158 Doctor Lluch","properties":{"brand":"Valenbisi","network":"Valenbisi","operator":"Cyclocity"},"sourceId":"osm"},{"categories":["hire"],"id":"osm:node:5880167639","latitude":39.4634476,"longitude":-0.334813,"name":"159 Francesc Cubells","properties":{"brand":"Valenbisi","network":"Valenbisi","operator":"Cyclocity"},"sourceId":"osm"},{"categories":["hire"],"id":"osm:node:5880167640","latitude":39.4636253,"longitude":-0.3297758,"name":"162 Armada Espanyola","properties":{"brand":"Valenbisi","network":"Valenbisi","operator":"Cyclocity"},"sourceId":"osm"},{"categories":["hire"],"id":"osm:node:5880167641","latitude":39.4644314,"longitude":-0.3235823,"name":"163 Neptú","properties":{"brand":"Valenbisi","network":"Valenbisi","operator":"Cyclocity"},"sourceId":"osm"},{"categories":["hire"],"id":"osm:node:5880167642","latitude":39.4713285,"longitude":-0.3246815,"name":"165 Pavia II","properties":{"brand":"Valenbisi","network":"Valenbisi","operator":"Cyclocity"},"sourceId":"osm"},{"categories":["hire"],"id":"osm:node:5880167646","latitude":39.4830629,"longitude":-0.3290722,"name":"171 Gran Canària","properties":{"brand":"Valenbisi","network":"Valenbisi","operator":"Cyclocity"},"sourceId":"osm"},{"categories":["hire"],"id":"osm:node:5883230937","latitude":39.4766583,"longitude":-0.3504569,"name":"261 Plaça Xúquer - Vinalopó","properties":{"brand":"Valenbisi","network":"Valenbisi","operator":"Cyclocity"},"sourceId":"osm"},{"categories":["hire"],"id":"osm:node:5885397361","latitude":39.4503001,"longitude":-0.3333837,"name":"273 Moraira - Dalt de la Mar","properties":{"brand":"Valenbisi","network":"Valenbisi","operator":"Cyclocity"},"sourceId":"osm"},{"categories":["hire"],"id":"osm:node:5885397362","latitude":39.4480435,"longitude":-0.3333307,"name":"274 Manuel Andrés - Castell de Pop","properties":{"brand":"Valenbisi","network":"Valenbisi","operator":"Cyclocity"},"sourceId":"osm"},{"categories":["hire"],"id":"osm:node:5885397363","latitude":39.4522128,"longitude":-0.3351807,"name":"275 Moreres - Ronda de Natzaret","properties":{"brand":"Valenbisi","network":"Valenbisi","operator":"Cyclocity"},"sourceId":"osm"},{"categories":["shop"],"id":"osm:node:5920116285","latitude":39.4674858,"longitude":-0.3294715,"name":"Valencia","properties":{},"sourceId":"osm"},{"categories":["repair"],"id":"osm:node:9531055095","latitude":39.4824911,"longitude":-0.3467355,"name":"Bicycle repair station","properties":{"servicePump":"yes","serviceTools":"no"},"sourceId":"osm"}],"schemaVersion":2}
