{"key":"12/1989/1597","points":[{"categories":["hire"],"id":"osm:node:13601981037","latitude":36.7482281,"longitude":-5.1611664,"name":"CycleRonda","properties":{"operator":"CycleRonda"},"sourceId":"osm"},{"categories":["repair"],"id":"osm:node:13766034820","latitude":36.7450127,"longitude":-5.1657313,"name":"Arunda Bikes","properties":{"openingHours":"Mo,We 08:00-14:00; Tu, Th, Fr 09:00-14:00, 17:30-20:00","operator":"Arunda Bikes"},"sourceId":"osm"},{"categories":["shop"],"id":"osm:node:13980945681","latitude":36.7518163,"longitude":-5.1582067,"name":"Harman Bikes","properties":{},"sourceId":"osm"},{"categories":["shop"],"id":"osm:node:2910271482","latitude":36.7432962,"longitude":-5.1620304,"name":"Cycleronda","properties":{},"sourceId":"osm"},{"categories":["shop"],"id":"osm:node:5757301201","latitude":36.7518049,"longitude":-5.1507966,"name":"Dark Pedal","properties":{"openingHours":"Mo-Fr 10:00-14:00,16:00-21:00; Sa 10:00-14:00; PH off"},"sourceId":"osm"},{"categories":["shop"],"id":"osm:node:5757307330","latitude":36.7467423,"longitude":-5.1636022,"name":"Bicycle shop","properties":{},"sourceId":"osm"},{"categories":["shop","repair"],"id":"osm:way:351881942","latitude":36.751913300000005,"longitude":-5.158059233333334,"name":"Harman Bikes Ronda","properties":{"serviceRepair":"yes"},"sourceId":"osm"}],"schemaVersion":2}
